{
"type": "FeatureCollection",
"crs": { "type": "name", "properties": { "name": "urn:ogc:def:crs:OGC:1.3:CRS84" } },
"features": [
{ "type": "Feature", "properties": { "atco_code": "1800SB30291", "common_name": "Chester Rd", "street": "Chester Rd", "area_code": "E08000009", "area_name": "Trafford", "lon": -2.36572003, "lat": 53.4167099 }, "geometry": { "type": "Point", "coordinates": [ -2.2663238968, 53.468739606100002 ] } },
{ "type": "Feature", "properties": { "atco_code": "1800SB18341", "common_name": "Cornbrook Metrolink Stop", "street": "Bridgewater Way", "area_code": "E08000009", "area_name": "Trafford", "lon": -2.36572003, "lat": 53.4167099 }, "geometry": { "type": "Point", "coordinates": [ -2.2676082875, 53.469365927600002 ] } },
{ "type": "Feature", "properties": { "atco_code": "1800SJ04001", "common_name": "Rivers Lane", "street": "Barton Road", "area_code": "E08000009", "area_name": "Trafford", "lon": -2.36572003, "lat": 53.4167099 }, "geometry": { "type": "Point", "coordinates": [ -2.3577914015, 53.461372665100001 ] } },
{ "type": "Feature", "properties": { "atco_code": "1800SJ03011", "common_name": "Welwyn Close", "street": "Broadway", "area_code": "E08000009", "area_name": "Trafford", "lon": -2.36572003, "lat": 53.4167099 }, "geometry": { "type": "Point", "coordinates": [ -2.3628256074, 53.460036162199998 ] } },
{ "type": "Feature", "properties": { "atco_code": "1800SJ03111", "common_name": "Medical Ctr", "street": "Broadway", "area_code": "E08000009", "area_name": "Trafford", "lon": -2.36572003, "lat": 53.4167099 }, "geometry": { "type": "Point", "coordinates": [ -2.3673063064, 53.4591685535 ] } },
{ "type": "Feature", "properties": { "atco_code": "1800SJ03121", "common_name": "Welwyn Close", "street": "Broadway", "area_code": "E08000009", "area_name": "Trafford", "lon": -2.36572003, "lat": 53.4167099 }, "geometry": { "type": "Point", "coordinates": [ -2.3626153713, 53.460108709 ] } },
{ "type": "Feature", "properties": { "atco_code": "1800SJ03021", "common_name": "Medical Ctr", "street": "Broadway", "area_code": "E08000009", "area_name": "Trafford", "lon": -2.36572003, "lat": 53.4167099 }, "geometry": { "type": "Point", "coordinates": [ -2.367064953, 53.459124353100002 ] } },
{ "type": "Feature", "properties": { "atco_code": "1800SJ03001", "common_name": "Barton Road", "street": "Broadway", "area_code": "E08000009", "area_name": "Trafford", "lon": -2.36572003, "lat": 53.4167099 }, "geometry": { "type": "Point", "coordinates": [ -2.3587566509, 53.459742847500003 ] } },
{ "type": "Feature", "properties": { "atco_code": "1800SJ03131", "common_name": "Barton Road", "street": "Broadway", "area_code": "E08000009", "area_name": "Trafford", "lon": -2.36572003, "lat": 53.4167099 }, "geometry": { "type": "Point", "coordinates": [ -2.3589080909, 53.4598412661 ] } },
{ "type": "Feature", "properties": { "atco_code": "1800SJ03141", "common_name": "Kingsway Park", "street": "Barton Road", "area_code": "E08000009", "area_name": "Trafford", "lon": -2.36572003, "lat": 53.4167099 }, "geometry": { "type": "Point", "coordinates": [ -2.3581780703, 53.460787252400003 ] } },
{ "type": "Feature", "properties": { "atco_code": "1800SJH2771", "common_name": "Dunham Road (SEbnd)", "street": "Dunham Road", "area_code": "E08000009", "area_name": "Trafford", "lon": -2.36572003, "lat": 53.4167099 }, "geometry": { "type": "Point", "coordinates": [ -2.3524276597, 53.388419422699997 ] } },
{ "type": "Feature", "properties": { "atco_code": "1800SJ03151", "common_name": "Trafford Retail Park", "street": "Neary Way", "area_code": "E08000009", "area_name": "Trafford", "lon": -2.36572003, "lat": 53.4167099 }, "geometry": { "type": "Point", "coordinates": [ -2.3587636553, 53.462358484399999 ] } },
{ "type": "Feature", "properties": { "atco_code": "1800SJH2841", "common_name": "Oakfield Street", "street": "Oakfield Road", "area_code": "E08000009", "area_name": "Trafford", "lon": -2.36572003, "lat": 53.4167099 }, "geometry": { "type": "Point", "coordinates": [ -2.3448952179, 53.388477389599998 ] } },
{ "type": "Feature", "properties": { "atco_code": "1800SJ01741", "common_name": "Altrincham Railway Station", "street": "Station Appr\/Ch", "area_code": "E08000009", "area_name": "Trafford", "lon": -2.36572003, "lat": 53.4167099 }, "geometry": { "type": "Point", "coordinates": [ -2.3466203449, 53.387987004599999 ] } },
{ "type": "Feature", "properties": { "atco_code": "1800SJ49391", "common_name": "Barrington Road", "street": "Gaskell Road", "area_code": "E08000009", "area_name": "Trafford", "lon": -2.36572003, "lat": 53.4167099 }, "geometry": { "type": "Point", "coordinates": [ -2.3484668859, 53.393159069900001 ] } },
{ "type": "Feature", "properties": { "atco_code": "1800SJ49401", "common_name": "Barrington Road", "street": "Gaskell Road", "area_code": "E08000009", "area_name": "Trafford", "lon": -2.36572003, "lat": 53.4167099 }, "geometry": { "type": "Point", "coordinates": [ -2.3485596069, 53.393464412 ] } },
{ "type": "Feature", "properties": { "atco_code": "1800SJ12461", "common_name": "Blessed Thomas Holford", "street": "Urban Road", "area_code": "E08000009", "area_name": "Trafford", "lon": -2.36572003, "lat": 53.4167099 }, "geometry": { "type": "Point", "coordinates": [ -2.3415699283, 53.386302721 ] } },
{ "type": "Feature", "properties": { "atco_code": "1800SJ10841", "common_name": "Sainsbury's", "street": "Lloyd Street", "area_code": "E08000009", "area_name": "Trafford", "lon": -2.36572003, "lat": 53.4167099 }, "geometry": { "type": "Point", "coordinates": [ -2.3498521654, 53.384220325900003 ] } },
{ "type": "Feature", "properties": { "atco_code": "1800SJ10921", "common_name": "Borough Rd", "street": "Stamford Pk Rd", "area_code": "E08000009", "area_name": "Trafford", "lon": -2.36572003, "lat": 53.4167099 }, "geometry": { "type": "Point", "coordinates": [ -2.3454134475, 53.383774839700003 ] } },
{ "type": "Feature", "properties": { "atco_code": "1800SJ11221", "common_name": "Hazel Road", "street": "Barrington Road", "area_code": "E08000009", "area_name": "Trafford", "lon": -2.36572003, "lat": 53.4167099 }, "geometry": { "type": "Point", "coordinates": [ -2.3487623328, 53.392511026400001 ] } },
{ "type": "Feature", "properties": { "atco_code": "1800SJ11231", "common_name": "Hazel Road", "street": "Barrington Road", "area_code": "E08000009", "area_name": "Trafford", "lon": -2.36572003, "lat": 53.4167099 }, "geometry": { "type": "Point", "coordinates": [ -2.348247336, 53.392054111199997 ] } },
{ "type": "Feature", "properties": { "atco_code": "1800SJ09631", "common_name": "Lloyd Street", "street": "The Downs", "area_code": "E08000009", "area_name": "Trafford", "lon": -2.36572003, "lat": 53.4167099 }, "geometry": { "type": "Point", "coordinates": [ -2.3531579124, 53.384003847700001 ] } },
{ "type": "Feature", "properties": { "atco_code": "1800SJ09661", "common_name": "Cresta Court Hotel", "street": "Woodlands Road", "area_code": "E08000009", "area_name": "Trafford", "lon": -2.36572003, "lat": 53.4167099 }, "geometry": { "type": "Point", "coordinates": [ -2.3494240353, 53.390684401 ] } },
{ "type": "Feature", "properties": { "atco_code": "1800SJ10811", "common_name": "Peter Street", "street": "Ashley Road", "area_code": "E08000009", "area_name": "Trafford", "lon": -2.36572003, "lat": 53.4167099 }, "geometry": { "type": "Point", "coordinates": [ -2.3524182837, 53.383646489699998 ] } },
{ "type": "Feature", "properties": { "atco_code": "1800SJ10831", "common_name": "Sainsbury's", "street": "Lloyd Street", "area_code": "E08000009", "area_name": "Trafford", "lon": -2.36572003, "lat": 53.4167099 }, "geometry": { "type": "Point", "coordinates": [ -2.3502898468, 53.384425780100003 ] } },
{ "type": "Feature", "properties": { "atco_code": "1800SJ10821", "common_name": "The Downs", "street": "Railway Street", "area_code": "E08000009", "area_name": "Trafford", "lon": -2.36572003, "lat": 53.4167099 }, "geometry": { "type": "Point", "coordinates": [ -2.3519769166, 53.384816314399998 ] } },
{ "type": "Feature", "properties": { "atco_code": "1800SJ11241", "common_name": "Station House", "street": "Stamford New Rd", "area_code": "E08000009", "area_name": "Trafford", "lon": -2.36572003, "lat": 53.4167099 }, "geometry": { "type": "Point", "coordinates": [ -2.3466738548, 53.389020540499999 ] } },
{ "type": "Feature", "properties": { "atco_code": "1800SJ11251", "common_name": "Stamford Street", "street": "Barrington Road", "area_code": "E08000009", "area_name": "Trafford", "lon": -2.36572003, "lat": 53.4167099 }, "geometry": { "type": "Point", "coordinates": [ -2.3469968443, 53.389909475 ] } },
{ "type": "Feature", "properties": { "atco_code": "1800SJ11201", "common_name": "Garrick Playhouse", "street": "Barrington Road", "area_code": "E08000009", "area_name": "Trafford", "lon": -2.36572003, "lat": 53.4167099 }, "geometry": { "type": "Point", "coordinates": [ -2.3501309283, 53.394367661300002 ] } },
{ "type": "Feature", "properties": { "atco_code": "1800SJ09831", "common_name": "St John's Road", "street": "Delamere Road", "area_code": "E08000009", "area_name": "Trafford", "lon": -2.36572003, "lat": 53.4167099 }, "geometry": { "type": "Point", "coordinates": [ -2.3553590468, 53.3829366533 ] } },
{ "type": "Feature", "properties": { "atco_code": "1800SJ09841", "common_name": "St John's Road", "street": "Delamere Road", "area_code": "E08000009", "area_name": "Trafford", "lon": -2.36572003, "lat": 53.4167099 }, "geometry": { "type": "Point", "coordinates": [ -2.3558383173, 53.3827194976 ] } },
{ "type": "Feature", "properties": { "atco_code": "1800SJ10611", "common_name": "Fairbank House", "street": "Ashley Road", "area_code": "E08000009", "area_name": "Trafford", "lon": -2.36572003, "lat": 53.4167099 }, "geometry": { "type": "Point", "coordinates": [ -2.3523392537, 53.383179314300001 ] } },
{ "type": "Feature", "properties": { "atco_code": "1800SJ11891", "common_name": "Ashfield Road", "street": "Stamford Pk Rd", "area_code": "E08000009", "area_name": "Trafford", "lon": -2.36572003, "lat": 53.4167099 }, "geometry": { "type": "Point", "coordinates": [ -2.3457740391, 53.383746829300001 ] } },
{ "type": "Feature", "properties": { "atco_code": "1800SJ11901", "common_name": "Railway Bridge", "street": "Hale Road", "area_code": "E08000009", "area_name": "Trafford", "lon": -2.36572003, "lat": 53.4167099 }, "geometry": { "type": "Point", "coordinates": [ -2.348147528, 53.381672541599997 ] } },
{ "type": "Feature", "properties": { "atco_code": "1800SJ11081", "common_name": "The Wheatsheaf", "street": "Church Street", "area_code": "E08000009", "area_name": "Trafford", "lon": -2.36572003, "lat": 53.4167099 }, "geometry": { "type": "Point", "coordinates": [ -2.3522350973, 53.392410938600001 ] } },
{ "type": "Feature", "properties": { "atco_code": "1800SJ17711", "common_name": "Cresta Court Hotel", "street": "Woodlands Road", "area_code": "E08000009", "area_name": "Trafford", "lon": -2.36572003, "lat": 53.4167099 }, "geometry": { "type": "Point", "coordinates": [ -2.3495724811, 53.390450262100003 ] } },
{ "type": "Feature", "properties": { "atco_code": "1800SJ41001", "common_name": "Urban Avenue", "street": "Moss Lane", "area_code": "E08000009", "area_name": "Trafford", "lon": -2.36572003, "lat": 53.4167099 }, "geometry": { "type": "Point", "coordinates": [ -2.3411552913, 53.3852162839 ] } },
{ "type": "Feature", "properties": { "atco_code": "1800SJ17921", "common_name": "Stamford Way", "street": "Stamford New Rd", "area_code": "E08000009", "area_name": "Trafford", "lon": -2.36572003, "lat": 53.4167099 }, "geometry": { "type": "Point", "coordinates": [ -2.3468526003, 53.388813282699999 ] } },
{ "type": "Feature", "properties": { "atco_code": "1800SJH2321", "common_name": "Woodhouse Lane (NWbnd)", "street": "Woodhouse Lane", "area_code": "E08000009", "area_name": "Trafford", "lon": -2.36572003, "lat": 53.4167099 }, "geometry": { "type": "Point", "coordinates": [ -2.3955217395, 53.38372711 ] } },
{ "type": "Feature", "properties": { "atco_code": "1800SJ41011", "common_name": "Urban Avenue", "street": "Moss Lane", "area_code": "E08000009", "area_name": "Trafford", "lon": -2.36572003, "lat": 53.4167099 }, "geometry": { "type": "Point", "coordinates": [ -2.3418631272, 53.385367064299999 ] } },
{ "type": "Feature", "properties": { "atco_code": "1800SJ41631", "common_name": "Baptist Church", "street": "Hale Road", "area_code": "E08000009", "area_name": "Trafford", "lon": -2.36572003, "lat": 53.4167099 }, "geometry": { "type": "Point", "coordinates": [ -2.3503131676, 53.381774065599998 ] } },
{ "type": "Feature", "properties": { "atco_code": "1800SJ16881", "common_name": "Dunham Town", "street": "Woodhouse Lane", "area_code": "E08000009", "area_name": "Trafford", "lon": -2.36572003, "lat": 53.4167099 }, "geometry": { "type": "Point", "coordinates": [ -2.3930312045, 53.384283647300002 ] } },
{ "type": "Feature", "properties": { "atco_code": "1800SJ17731", "common_name": "Woodhouse Lane", "street": "Smithy Lane", "area_code": "E08000009", "area_name": "Trafford", "lon": -2.36572003, "lat": 53.4167099 }, "geometry": { "type": "Point", "coordinates": [ -2.3928119552, 53.383331573299998 ] } },
{ "type": "Feature", "properties": { "atco_code": "1800SJ17721", "common_name": "Woodhouse Lane", "street": "Smithy Lane", "area_code": "E08000009", "area_name": "Trafford", "lon": -2.36572003, "lat": 53.4167099 }, "geometry": { "type": "Point", "coordinates": [ -2.3936401262, 53.383472662099997 ] } },
{ "type": "Feature", "properties": { "atco_code": "1800SJH2611", "common_name": "Dunham Road", "street": "Dunham Road", "area_code": "E08000009", "area_name": "Trafford", "lon": -2.36572003, "lat": 53.4167099 }, "geometry": { "type": "Point", "coordinates": [ -2.3556856135, 53.387843471300002 ] } },
{ "type": "Feature", "properties": { "atco_code": "1800SJH1531", "common_name": "Charcoal Road (SEbnd)", "street": "Charcoal Road", "area_code": "E08000009", "area_name": "Trafford", "lon": -2.36572003, "lat": 53.4167099 }, "geometry": { "type": "Point", "coordinates": [ -2.3903905702, 53.383231657 ] } },
{ "type": "Feature", "properties": { "atco_code": "1800SJ00541", "common_name": "Dunham Town", "street": "Woodhouse Lane", "area_code": "E08000009", "area_name": "Trafford", "lon": -2.36572003, "lat": 53.4167099 }, "geometry": { "type": "Point", "coordinates": [ -2.3931370215, 53.384346219199998 ] } },
{ "type": "Feature", "properties": { "atco_code": "1800SJH1731", "common_name": "St Vincents School", "street": "Orchard Road", "area_code": "E08000009", "area_name": "Trafford", "lon": -2.36572003, "lat": 53.4167099 }, "geometry": { "type": "Point", "coordinates": [ -2.3425298029, 53.3897515994 ] } },
{ "type": "Feature", "properties": { "atco_code": "1800SJ16431", "common_name": "Davyhulme Library", "street": "Hayeswater Road", "area_code": "E08000009", "area_name": "Trafford", "lon": -2.36572003, "lat": 53.4167099 }, "geometry": { "type": "Point", "coordinates": [ -2.3588523356, 53.4568033141 ] } },
{ "type": "Feature", "properties": { "atco_code": "1800SJ16421", "common_name": "Davyhulme Library", "street": "Hayeswater Road", "area_code": "E08000009", "area_name": "Trafford", "lon": -2.36572003, "lat": 53.4167099 }, "geometry": { "type": "Point", "coordinates": [ -2.3585360857, 53.456804264200002 ] } },
{ "type": "Feature", "properties": { "atco_code": "1800SJ03921", "common_name": "Davyhulme Park", "street": "Canterbury Road", "area_code": "E08000009", "area_name": "Trafford", "lon": -2.36572003, "lat": 53.4167099 }, "geometry": { "type": "Point", "coordinates": [ -2.3538355996, 53.454777892199999 ] } },
{ "type": "Feature", "properties": { "atco_code": "1800SJ02901", "common_name": "Balmain Road", "street": "Cornhill Road", "area_code": "E08000009", "area_name": "Trafford", "lon": -2.36572003, "lat": 53.4167099 }, "geometry": { "type": "Point", "coordinates": [ -2.3646581733, 53.454197028300001 ] } },
{ "type": "Feature", "properties": { "atco_code": "1800SJH2851", "common_name": "Oakfield Street", "street": "Oakfield Road", "area_code": "E08000009", "area_name": "Trafford", "lon": -2.36572003, "lat": 53.4167099 }, "geometry": { "type": "Point", "coordinates": [ -2.3450349735, 53.389025291300001 ] } },
{ "type": "Feature", "properties": { "atco_code": "1800SJ02911", "common_name": "Canterbury Road", "street": "Cornhill Road", "area_code": "E08000009", "area_name": "Trafford", "lon": -2.36572003, "lat": 53.4167099 }, "geometry": { "type": "Point", "coordinates": [ -2.3638166605, 53.454406331599998 ] } },
{ "type": "Feature", "properties": { "atco_code": "1800SJ02921", "common_name": "Davyhulme Circle", "street": "Davyhulme Road", "area_code": "E08000009", "area_name": "Trafford", "lon": -2.36572003, "lat": 53.4167099 }, "geometry": { "type": "Point", "coordinates": [ -2.358254573, 53.457353409 ] } },
{ "type": "Feature", "properties": { "atco_code": "1800SJ02931", "common_name": "Davyhulme Circle", "street": "Davyhulme Circl", "area_code": "E08000009", "area_name": "Trafford", "lon": -2.36572003, "lat": 53.4167099 }, "geometry": { "type": "Point", "coordinates": [ -2.3578488682, 53.457462487900003 ] } },
{ "type": "Feature", "properties": { "atco_code": "1800SJ01171", "common_name": "Canterbury Road", "street": "Crofts Bank Rd", "area_code": "E08000009", "area_name": "Trafford", "lon": -2.36572003, "lat": 53.4167099 }, "geometry": { "type": "Point", "coordinates": [ -2.3560515014, 53.455040960399998 ] } },
{ "type": "Feature", "properties": { "atco_code": "1800SJ01181", "common_name": "Davyhulme Circle", "street": "Crofts Bank Rd", "area_code": "E08000009", "area_name": "Trafford", "lon": -2.36572003, "lat": 53.4167099 }, "geometry": { "type": "Point", "coordinates": [ -2.3568202051, 53.456917266700003 ] } },
{ "type": "Feature", "properties": { "atco_code": "1800SJ01191", "common_name": "Canterbury Road", "street": "Crofts Bank Rd", "area_code": "E08000009", "area_name": "Trafford", "lon": -2.36572003, "lat": 53.4167099 }, "geometry": { "type": "Point", "coordinates": [ -2.3555341647, 53.454404316800002 ] } },
{ "type": "Feature", "properties": { "atco_code": "1800SJ02451", "common_name": "Exeter Road", "street": "Lostock Road", "area_code": "E08000009", "area_name": "Trafford", "lon": -2.36572003, "lat": 53.4167099 }, "geometry": { "type": "Point", "coordinates": [ -2.3525481305, 53.457514211099998 ] } },
{ "type": "Feature", "properties": { "atco_code": "1800SJ02491", "common_name": "Cornhill Road", "street": "Davyhulme Road", "area_code": "E08000009", "area_name": "Trafford", "lon": -2.36572003, "lat": 53.4167099 }, "geometry": { "type": "Point", "coordinates": [ -2.3634905885, 53.4567802953 ] } },
{ "type": "Feature", "properties": { "atco_code": "1800SJ02461", "common_name": "Exeter Road", "street": "Lostock Road", "area_code": "E08000009", "area_name": "Trafford", "lon": -2.36572003, "lat": 53.4167099 }, "geometry": { "type": "Point", "coordinates": [ -2.3531053423, 53.4575125645 ] } },
{ "type": "Feature", "properties": { "atco_code": "1800SJ02471", "common_name": "Hayeswater Road", "street": "Davyhulme Road", "area_code": "E08000009", "area_name": "Trafford", "lon": -2.36572003, "lat": 53.4167099 }, "geometry": { "type": "Point", "coordinates": [ -2.3592311009, 53.457071830799997 ] } },
{ "type": "Feature", "properties": { "atco_code": "1800SJ02481", "common_name": "Cornhill Road", "street": "Davyhulme Road", "area_code": "E08000009", "area_name": "Trafford", "lon": -2.36572003, "lat": 53.4167099 }, "geometry": { "type": "Point", "coordinates": [ -2.3638374952, 53.456842158299999 ] } },
{ "type": "Feature", "properties": { "atco_code": "1800SJH2981", "common_name": "Heatherway", "street": "Heatherway", "area_code": "E08000009", "area_name": "Trafford", "lon": -2.36572003, "lat": 53.4167099 }, "geometry": { "type": "Point", "coordinates": [ -2.3544714447, 53.429877744300001 ] } },
{ "type": "Feature", "properties": { "atco_code": "1800SJH2991", "common_name": "Epping Drive", "street": "Epping Drive", "area_code": "E08000009", "area_name": "Trafford", "lon": -2.36572003, "lat": 53.4167099 }, "geometry": { "type": "Point", "coordinates": [ -2.3575910498, 53.428583074700001 ] } },
{ "type": "Feature", "properties": { "atco_code": "1800SJ04401", "common_name": "Glen Avenue", "street": "Glebelands Road", "area_code": "E08000009", "area_name": "Trafford", "lon": -2.36572003, "lat": 53.4167099 }, "geometry": { "type": "Point", "coordinates": [ -2.329336248, 53.431684534299997 ] } },
{ "type": "Feature", "properties": { "atco_code": "1800SJ04411", "common_name": "Milton Grove", "street": "Glebelands Road", "area_code": "E08000009", "area_name": "Trafford", "lon": -2.36572003, "lat": 53.4167099 }, "geometry": { "type": "Point", "coordinates": [ -2.3256506856, 53.431937337500003 ] } },
{ "type": "Feature", "properties": { "atco_code": "1800SJ04431", "common_name": "Milton Grove", "street": "Glebelands Road", "area_code": "E08000009", "area_name": "Trafford", "lon": -2.36572003, "lat": 53.4167099 }, "geometry": { "type": "Point", "coordinates": [ -2.3263729852, 53.431917387600002 ] } },
{ "type": "Feature", "properties": { "atco_code": "1800SJ03541", "common_name": "Training Centre", "street": "Carrington Lane", "area_code": "E08000009", "area_name": "Trafford", "lon": -2.36572003, "lat": 53.4167099 }, "geometry": { "type": "Point", "coordinates": [ -2.3736626501, 53.433531487300002 ] } },
{ "type": "Feature", "properties": { "atco_code": "1800SJ03551", "common_name": "Training Centre", "street": "Carrington Lane", "area_code": "E08000009", "area_name": "Trafford", "lon": -2.36572003, "lat": 53.4167099 }, "geometry": { "type": "Point", "coordinates": [ -2.3733469677, 53.433577417899997 ] } },
{ "type": "Feature", "properties": { "atco_code": "1800SJ03561", "common_name": "Ackers Farm", "street": "Carrington Lane", "area_code": "E08000009", "area_name": "Trafford", "lon": -2.36572003, "lat": 53.4167099 }, "geometry": { "type": "Point", "coordinates": [ -2.3687150894, 53.432306450600002 ] } },
{ "type": "Feature", "properties": { "atco_code": "1800SJ03591", "common_name": "Manor Ave", "street": "Carrington Lane", "area_code": "E08000009", "area_name": "Trafford", "lon": -2.36572003, "lat": 53.4167099 }, "geometry": { "type": "Point", "coordinates": [ -2.3541277617, 53.430175386899997 ] } },
{ "type": "Feature", "properties": { "atco_code": "1800SJ03601", "common_name": "Manor Avenue", "street": "Carrington Lane", "area_code": "E08000009", "area_name": "Trafford", "lon": -2.36572003, "lat": 53.4167099 }, "geometry": { "type": "Point", "coordinates": [ -2.3527277287, 53.4301345895 ] } },
{ "type": "Feature", "properties": { "atco_code": "1800SJ03611", "common_name": "Carrington Lane", "street": "Manor Avenue", "area_code": "E08000009", "area_name": "Trafford", "lon": -2.36572003, "lat": 53.4167099 }, "geometry": { "type": "Point", "coordinates": [ -2.3531153783, 53.429693003899999 ] } },
{ "type": "Feature", "properties": { "atco_code": "1800SJ03581", "common_name": "Mersey Farm", "street": "Carrington Lane", "area_code": "E08000009", "area_name": "Trafford", "lon": -2.36572003, "lat": 53.4167099 }, "geometry": { "type": "Point", "coordinates": [ -2.3567171336, 53.4302575623 ] } },
{ "type": "Feature", "properties": { "atco_code": "1800SJ04381", "common_name": "Barnfield Crescent", "street": "Grosvenor Road", "area_code": "E08000009", "area_name": "Trafford", "lon": -2.36572003, "lat": 53.4167099 }, "geometry": { "type": "Point", "coordinates": [ -2.3357081902, 53.428547754 ] } },
{ "type": "Feature", "properties": { "atco_code": "1800SJ04391", "common_name": "Grosvenor Road", "street": "Glebelands Road", "area_code": "E08000009", "area_name": "Trafford", "lon": -2.36572003, "lat": 53.4167099 }, "geometry": { "type": "Point", "coordinates": [ -2.3320277962, 53.431353489499998 ] } },
{ "type": "Feature", "properties": { "atco_code": "1800SJ05861", "common_name": "Harboro Road", "street": "Firs Road", "area_code": "E08000009", "area_name": "Trafford", "lon": -2.36572003, "lat": 53.4167099 }, "geometry": { "type": "Point", "coordinates": [ -2.3437535346, 53.4277608266 ] } },
{ "type": "Feature", "properties": { "atco_code": "1800SJ04461", "common_name": "Barnfield Crescent", "street": "Grosvenor Road", "area_code": "E08000009", "area_name": "Trafford", "lon": -2.36572003, "lat": 53.4167099 }, "geometry": { "type": "Point", "coordinates": [ -2.3344069261, 53.429576102399999 ] } },
{ "type": "Feature", "properties": { "atco_code": "1800SJ04471", "common_name": "Ashton Lane", "street": "Grosvenor Road", "area_code": "E08000009", "area_name": "Trafford", "lon": -2.36572003, "lat": 53.4167099 }, "geometry": { "type": "Point", "coordinates": [ -2.3375899676, 53.426717768700001 ] } },
{ "type": "Feature", "properties": { "atco_code": "1800SJ04481", "common_name": "Ashlands", "street": "Ashton Lane", "area_code": "E08000009", "area_name": "Trafford", "lon": -2.36572003, "lat": 53.4167099 }, "geometry": { "type": "Point", "coordinates": [ -2.3324404283, 53.426372680599997 ] } },
{ "type": "Feature", "properties": { "atco_code": "1800SJ04241", "common_name": "Church Lane", "street": "Ashton Lane", "area_code": "E08000009", "area_name": "Trafford", "lon": -2.36572003, "lat": 53.4167099 }, "geometry": { "type": "Point", "coordinates": [ -2.3397492063, 53.427619486600001 ] } },
{ "type": "Feature", "properties": { "atco_code": "1800SJ04361", "common_name": "Hillington Road", "street": "Ashton Lane", "area_code": "E08000009", "area_name": "Trafford", "lon": -2.36572003, "lat": 53.4167099 }, "geometry": { "type": "Point", "coordinates": [ -2.3367132919, 53.426234862900003 ] } },
{ "type": "Feature", "properties": { "atco_code": "1800SJ04221", "common_name": "Ashlands", "street": "Ashton Lane", "area_code": "E08000009", "area_name": "Trafford", "lon": -2.36572003, "lat": 53.4167099 }, "geometry": { "type": "Point", "coordinates": [ -2.332695064, 53.426219165600003 ] } },
{ "type": "Feature", "properties": { "atco_code": "1800SJ04231", "common_name": "Hillington Road", "street": "Ashton Lane", "area_code": "E08000009", "area_name": "Trafford", "lon": -2.36572003, "lat": 53.4167099 }, "geometry": { "type": "Point", "coordinates": [ -2.3367425364, 53.426126917600001 ] } },
{ "type": "Feature", "properties": { "atco_code": "1800SJ04251", "common_name": "Ennerdale Dr", "street": "Carrington Lane", "area_code": "E08000009", "area_name": "Trafford", "lon": -2.36572003, "lat": 53.4167099 }, "geometry": { "type": "Point", "coordinates": [ -2.3432876592, 53.427843064500003 ] } },
{ "type": "Feature", "properties": { "atco_code": "1800SJ04331", "common_name": "Brayton Ave", "street": "Carrington Lane", "area_code": "E08000009", "area_name": "Trafford", "lon": -2.36572003, "lat": 53.4167099 }, "geometry": { "type": "Point", "coordinates": [ -2.3491573891, 53.429722624599997 ] } },
{ "type": "Feature", "properties": { "atco_code": "1800SJ04341", "common_name": "Buck Lane", "street": "Carrington Lane", "area_code": "E08000009", "area_name": "Trafford", "lon": -2.36572003, "lat": 53.4167099 }, "geometry": { "type": "Point", "coordinates": [ -2.3447111719, 53.428935566200003 ] } },
{ "type": "Feature", "properties": { "atco_code": "1800SJ04351", "common_name": "Church Lane", "street": "Ashton Lane", "area_code": "E08000009", "area_name": "Trafford", "lon": -2.36572003, "lat": 53.4167099 }, "geometry": { "type": "Point", "coordinates": [ -2.3400536368, 53.428050070499999 ] } },
{ "type": "Feature", "properties": { "atco_code": "1800SJ04441", "common_name": "Glen Avenue", "street": "Glebelands Road", "area_code": "E08000009", "area_name": "Trafford", "lon": -2.36572003, "lat": 53.4167099 }, "geometry": { "type": "Point", "coordinates": [ -2.329756205, 53.431494615200002 ] } },
{ "type": "Feature", "properties": { "atco_code": "1800SJ04451", "common_name": "Ashton Park", "street": "Grosvenor Road", "area_code": "E08000009", "area_name": "Trafford", "lon": -2.36572003, "lat": 53.4167099 }, "geometry": { "type": "Point", "coordinates": [ -2.3329872356, 53.430865434799998 ] } },
{ "type": "Feature", "properties": { "atco_code": "1800SJ04371", "common_name": "Ashton Lane", "street": "Grosvenor Road", "area_code": "E08000009", "area_name": "Trafford", "lon": -2.36572003, "lat": 53.4167099 }, "geometry": { "type": "Point", "coordinates": [ -2.3375463885, 53.426915640300003 ] } },
{ "type": "Feature", "properties": { "atco_code": "1800SJ04311", "common_name": "Buck Lane", "street": "Carrington Lane", "area_code": "E08000009", "area_name": "Trafford", "lon": -2.36572003, "lat": 53.4167099 }, "geometry": { "type": "Point", "coordinates": [ -2.3455107019, 53.429166957 ] } },
{ "type": "Feature", "properties": { "atco_code": "1800SJ04321", "common_name": "Brayton Ave", "street": "Carrington Lane", "area_code": "E08000009", "area_name": "Trafford", "lon": -2.36572003, "lat": 53.4167099 }, "geometry": { "type": "Point", "coordinates": [ -2.3496986709, 53.42965812 ] } },
{ "type": "Feature", "properties": { "atco_code": "1800SJ03571", "common_name": "Ackers Farm", "street": "Carrington Lane", "area_code": "E08000009", "area_name": "Trafford", "lon": -2.36572003, "lat": 53.4167099 }, "geometry": { "type": "Point", "coordinates": [ -2.3694109378, 53.432708784399999 ] } },
{ "type": "Feature", "properties": { "atco_code": "1800SJ00181", "common_name": "Chill Factore", "street": "Trafford Way", "area_code": "E08000009", "area_name": "Trafford", "lon": -2.36572003, "lat": 53.4167099 }, "geometry": { "type": "Point", "coordinates": [ -2.3612598931, 53.468975489199998 ] } },
{ "type": "Feature", "properties": { "atco_code": "1800SJ04101", "common_name": "The Trafford Centre", "street": "Barton Dock Rd", "area_code": "E08000009", "area_name": "Trafford", "lon": -2.36572003, "lat": 53.4167099 }, "geometry": { "type": "Point", "coordinates": [ -2.3463802367, 53.467590406 ] } },
{ "type": "Feature", "properties": { "atco_code": "1800SJ00201", "common_name": "Trafford Way", "street": "Salford Western Gateway", "area_code": "E08000009", "area_name": "Trafford", "lon": -2.36572003, "lat": 53.4167099 }, "geometry": { "type": "Point", "coordinates": [ -2.3649743114, 53.469979895400002 ] } },
{ "type": "Feature", "properties": { "atco_code": "1800SJ03181", "common_name": "Ellesmere Circle", "street": "Redclyffe Road", "area_code": "E08000009", "area_name": "Trafford", "lon": -2.36572003, "lat": 53.4167099 }, "geometry": { "type": "Point", "coordinates": [ -2.3502487148, 53.4708958784 ] } },
{ "type": "Feature", "properties": { "atco_code": "1800SJ03191", "common_name": "Church Rectory", "street": "Redclyffe Road", "area_code": "E08000009", "area_name": "Trafford", "lon": -2.36572003, "lat": 53.4167099 }, "geometry": { "type": "Point", "coordinates": [ -2.3520538234, 53.4723916493 ] } },
{ "type": "Feature", "properties": { "atco_code": "1800SJ04081", "common_name": "The Trafford Centre", "street": "Barton Dock Rd", "area_code": "E08000009", "area_name": "Trafford", "lon": -2.36572003, "lat": 53.4167099 }, "geometry": { "type": "Point", "coordinates": [ -2.346786654, 53.467553272400004 ] } },
{ "type": "Feature", "properties": { "atco_code": "1800SJ03201", "common_name": "Ellesmere Circle", "street": "Redclyffe Road", "area_code": "E08000009", "area_name": "Trafford", "lon": -2.36572003, "lat": 53.4167099 }, "geometry": { "type": "Point", "coordinates": [ -2.3507062859, 53.471577661300003 ] } },
{ "type": "Feature", "properties": { "atco_code": "1800SJ03211", "common_name": "Taylor Rd", "street": "Ashburton Rd W", "area_code": "E08000009", "area_name": "Trafford", "lon": -2.36572003, "lat": 53.4167099 }, "geometry": { "type": "Point", "coordinates": [ -2.3486668662, 53.4708915191 ] } },
{ "type": "Feature", "properties": { "atco_code": "1800SJ04181", "common_name": "Taylor Road", "street": "Ashburton Rd W", "area_code": "E08000009", "area_name": "Trafford", "lon": -2.36572003, "lat": 53.4167099 }, "geometry": { "type": "Point", "coordinates": [ -2.3480093251, 53.471540609 ] } },
{ "type": "Feature", "properties": { "atco_code": "1800SJ03171", "common_name": "Ellesmere Circle", "street": "Trafford Blvd", "area_code": "E08000009", "area_name": "Trafford", "lon": -2.36572003, "lat": 53.4167099 }, "geometry": { "type": "Point", "coordinates": [ -2.3512762832, 53.469454700199996 ] } },
{ "type": "Feature", "properties": { "atco_code": "1800SJH0771", "common_name": "Norris Road (NEbnd)", "street": "Norris Road", "area_code": "E08000009", "area_name": "Trafford", "lon": -2.36572003, "lat": 53.4167099 }, "geometry": { "type": "Point", "coordinates": [ -2.3195308196, 53.412673410099998 ] } },
{ "type": "Feature", "properties": { "atco_code": "1800SJH0791", "common_name": "Norris Road (NWbnd)", "street": "Norris Road", "area_code": "E08000009", "area_name": "Trafford", "lon": -2.36572003, "lat": 53.4167099 }, "geometry": { "type": "Point", "coordinates": [ -2.3169862449, 53.412392562100003 ] } },
{ "type": "Feature", "properties": { "atco_code": "1800SJ49471", "common_name": "Framingham Road", "street": "Brooklands Road", "area_code": "E08000009", "area_name": "Trafford", "lon": -2.36572003, "lat": 53.4167099 }, "geometry": { "type": "Point", "coordinates": [ -2.3167881436, 53.408006660799998 ] } },
{ "type": "Feature", "properties": { "atco_code": "1800SJ49481", "common_name": "St John's Church", "street": "Brooklands Road", "area_code": "E08000009", "area_name": "Trafford", "lon": -2.36572003, "lat": 53.4167099 }, "geometry": { "type": "Point", "coordinates": [ -2.3181988294, 53.409575909399997 ] } },
{ "type": "Feature", "properties": { "atco_code": "1800SJ49491", "common_name": "Cloverley", "street": "Brooklands Road", "area_code": "E08000009", "area_name": "Trafford", "lon": -2.36572003, "lat": 53.4167099 }, "geometry": { "type": "Point", "coordinates": [ -2.321126905, 53.412857885800001 ] } },
{ "type": "Feature", "properties": { "atco_code": "1800SJ49501", "common_name": "Woodbourne Road", "street": "Brooklands Road", "area_code": "E08000009", "area_name": "Trafford", "lon": -2.36572003, "lat": 53.4167099 }, "geometry": { "type": "Point", "coordinates": [ -2.3228262113, 53.414749890499998 ] } },
{ "type": "Feature", "properties": { "atco_code": "1800SJH1041", "common_name": "Craddock Rd (Ebd)", "street": "Craddock Road", "area_code": "E08000009", "area_name": "Trafford", "lon": -2.36572003, "lat": 53.4167099 }, "geometry": { "type": "Point", "coordinates": [ -2.3156232373, 53.411173728400001 ] } },
{ "type": "Feature", "properties": { "atco_code": "1800SJ47081", "common_name": "Norris Road", "street": "Brooklands Road", "area_code": "E08000009", "area_name": "Trafford", "lon": -2.36572003, "lat": 53.4167099 }, "geometry": { "type": "Point", "coordinates": [ -2.3202331571, 53.412042327 ] } },
{ "type": "Feature", "properties": { "atco_code": "1800SJ32551", "common_name": "Seymour Grove", "street": "Kings Road", "area_code": "E08000009", "area_name": "Trafford", "lon": -2.36572003, "lat": 53.4167099 }, "geometry": { "type": "Point", "coordinates": [ -2.2745940581, 53.454743764200003 ] } },
{ "type": "Feature", "properties": { "atco_code": "1800SJ47191", "common_name": "Marsland Rd", "street": "Marsland Road", "area_code": "E08000009", "area_name": "Trafford", "lon": -2.36572003, "lat": 53.4167099 }, "geometry": { "type": "Point", "coordinates": [ -2.3236000937, 53.417597172299999 ] } },
{ "type": "Feature", "properties": { "atco_code": "1800SJ47201", "common_name": "The Little B", "street": "Marsland Road", "area_code": "E08000009", "area_name": "Trafford", "lon": -2.36572003, "lat": 53.4167099 }, "geometry": { "type": "Point", "coordinates": [ -2.3196886104, 53.417661646100001 ] } },
{ "type": "Feature", "properties": { "atco_code": "1800SJ32561", "common_name": "Woodstock Road", "street": "Kings Road", "area_code": "E08000009", "area_name": "Trafford", "lon": -2.36572003, "lat": 53.4167099 }, "geometry": { "type": "Point", "coordinates": [ -2.279845713, 53.454138326699997 ] } },
{ "type": "Feature", "properties": { "atco_code": "1800SJ47211", "common_name": "Sale Grammar School", "street": "Marsland Road", "area_code": "E08000009", "area_name": "Trafford", "lon": -2.36572003, "lat": 53.4167099 }, "geometry": { "type": "Point", "coordinates": [ -2.3156111449, 53.417663510799997 ] } },
{ "type": "Feature", "properties": { "atco_code": "1800SJ32181", "common_name": "Greatstone Road", "street": "The Quadrant", "area_code": "E08000009", "area_name": "Trafford", "lon": -2.36572003, "lat": 53.4167099 }, "geometry": { "type": "Point", "coordinates": [ -2.2868335131, 53.451973487 ] } },
{ "type": "Feature", "properties": { "atco_code": "1800SJ32191", "common_name": "The Quadrant", "street": "Kings Road", "area_code": "E08000009", "area_name": "Trafford", "lon": -2.36572003, "lat": 53.4167099 }, "geometry": { "type": "Point", "coordinates": [ -2.2878739693, 53.452186706600003 ] } },
{ "type": "Feature", "properties": { "atco_code": "1800SJ47071", "common_name": "Woodbourne Road", "street": "Brooklands Road", "area_code": "E08000009", "area_name": "Trafford", "lon": -2.36572003, "lat": 53.4167099 }, "geometry": { "type": "Point", "coordinates": [ -2.3221599609, 53.414185410800002 ] } },
{ "type": "Feature", "properties": { "atco_code": "1800SJ15101", "common_name": "Skerton Road", "street": "Kings Road", "area_code": "E08000009", "area_name": "Trafford", "lon": -2.36572003, "lat": 53.4167099 }, "geometry": { "type": "Point", "coordinates": [ -2.2764602528, 53.454568675099999 ] } },
{ "type": "Feature", "properties": { "atco_code": "1800SJ30221", "common_name": "Paragon House", "street": "Seymour Grove", "area_code": "E08000009", "area_name": "Trafford", "lon": -2.36572003, "lat": 53.4167099 }, "geometry": { "type": "Point", "coordinates": [ -2.2760604223, 53.460250332299999 ] } },
{ "type": "Feature", "properties": { "atco_code": "1800SJ30231", "common_name": "Trafford Plaza", "street": "Seymour Grove", "area_code": "E08000009", "area_name": "Trafford", "lon": -2.36572003, "lat": 53.4167099 }, "geometry": { "type": "Point", "coordinates": [ -2.2754969389, 53.459289865 ] } },
{ "type": "Feature", "properties": { "atco_code": "1800SJ30161", "common_name": "Memorial Hospital", "street": "Seymour Grove", "area_code": "E08000009", "area_name": "Trafford", "lon": -2.36572003, "lat": 53.4167099 }, "geometry": { "type": "Point", "coordinates": [ -2.2734215193, 53.452724042200003 ] } },
{ "type": "Feature", "properties": { "atco_code": "1800SJ47011", "common_name": "Tram Stop", "street": "Brooklands Road", "area_code": "E08000009", "area_name": "Trafford", "lon": -2.36572003, "lat": 53.4167099 }, "geometry": { "type": "Point", "coordinates": [ -2.3243133223, 53.416417733199999 ] } },
{ "type": "Feature", "properties": { "atco_code": "1800SJ47061", "common_name": "Tram Stop", "street": "Brooklands Road", "area_code": "E08000009", "area_name": "Trafford", "lon": -2.36572003, "lat": 53.4167099 }, "geometry": { "type": "Point", "coordinates": [ -2.3244361494, 53.416740988 ] } },
{ "type": "Feature", "properties": { "atco_code": "1800SJ47601", "common_name": "Abington Road", "street": "Marsland Road", "area_code": "E08000009", "area_name": "Trafford", "lon": -2.36572003, "lat": 53.4167099 }, "geometry": { "type": "Point", "coordinates": [ -2.3176113585, 53.417541352699999 ] } },
{ "type": "Feature", "properties": { "atco_code": "1800SJ30171", "common_name": "Kings Road", "street": "Seymour Grove", "area_code": "E08000009", "area_name": "Trafford", "lon": -2.36572003, "lat": 53.4167099 }, "geometry": { "type": "Point", "coordinates": [ -2.273688383, 53.454413269600003 ] } },
{ "type": "Feature", "properties": { "atco_code": "1800SJ30181", "common_name": "Kings Road", "street": "Seymour Grove", "area_code": "E08000009", "area_name": "Trafford", "lon": -2.36572003, "lat": 53.4167099 }, "geometry": { "type": "Point", "coordinates": [ -2.2742061195, 53.455301943199999 ] } },
{ "type": "Feature", "properties": { "atco_code": "1800SJ30191", "common_name": "Ayres Road", "street": "Seymour Grove", "area_code": "E08000009", "area_name": "Trafford", "lon": -2.36572003, "lat": 53.4167099 }, "geometry": { "type": "Point", "coordinates": [ -2.274592696, 53.456865053800001 ] } },
{ "type": "Feature", "properties": { "atco_code": "1800SJ30201", "common_name": "Ayres Road", "street": "Seymour Grove", "area_code": "E08000009", "area_name": "Trafford", "lon": -2.36572003, "lat": 53.4167099 }, "geometry": { "type": "Point", "coordinates": [ -2.2751561266, 53.457825525899999 ] } },
{ "type": "Feature", "properties": { "atco_code": "1800SJ47611", "common_name": "The Little B", "street": "Marsland Road", "area_code": "E08000009", "area_name": "Trafford", "lon": -2.36572003, "lat": 53.4167099 }, "geometry": { "type": "Point", "coordinates": [ -2.3207862051, 53.417559826400002 ] } },
{ "type": "Feature", "properties": { "atco_code": "1800SJ47591", "common_name": "Sale Grammar School", "street": "Marsland Road", "area_code": "E08000009", "area_name": "Trafford", "lon": -2.36572003, "lat": 53.4167099 }, "geometry": { "type": "Point", "coordinates": [ -2.3145869713, 53.417522398 ] } },
{ "type": "Feature", "properties": { "atco_code": "1800SJ30151", "common_name": "Memorial Hospital", "street": "Seymour Grove", "area_code": "E08000009", "area_name": "Trafford", "lon": -2.36572003, "lat": 53.4167099 }, "geometry": { "type": "Point", "coordinates": [ -2.2731627588, 53.452293186299997 ] } },
{ "type": "Feature", "properties": { "atco_code": "1800SJ32001", "common_name": "St John's Road", "street": "Kings Road", "area_code": "E08000009", "area_name": "Trafford", "lon": -2.36572003, "lat": 53.4167099 }, "geometry": { "type": "Point", "coordinates": [ -2.2666204942, 53.455984276400002 ] } },
{ "type": "Feature", "properties": { "atco_code": "1800SJH2921", "common_name": "Craddock Rd (Wbd)", "street": "Craddock Rd", "area_code": "E08000009", "area_name": "Trafford", "lon": -2.36572003, "lat": 53.4167099 }, "geometry": { "type": "Point", "coordinates": [ -2.311803578, 53.411372530400001 ] } },
{ "type": "Feature", "properties": { "atco_code": "1800SJ32011", "common_name": "St John's Road", "street": "Kings Road", "area_code": "E08000009", "area_name": "Trafford", "lon": -2.36572003, "lat": 53.4167099 }, "geometry": { "type": "Point", "coordinates": [ -2.2666363426, 53.45611008 ] } },
{ "type": "Feature", "properties": { "atco_code": "1800SJ32021", "common_name": "Wood Road North", "street": "Kings Road", "area_code": "E08000009", "area_name": "Trafford", "lon": -2.36572003, "lat": 53.4167099 }, "geometry": { "type": "Point", "coordinates": [ -2.2686372559, 53.455790996300003 ] } },
{ "type": "Feature", "properties": { "atco_code": "1800SJ32031", "common_name": "Wood Road North", "street": "Kings Road", "area_code": "E08000009", "area_name": "Trafford", "lon": -2.36572003, "lat": 53.4167099 }, "geometry": { "type": "Point", "coordinates": [ -2.2700807213, 53.455437187500003 ] } },
{ "type": "Feature", "properties": { "atco_code": "1800SJ32041", "common_name": "Seymour Grove", "street": "Kings Road", "area_code": "E08000009", "area_name": "Trafford", "lon": -2.36572003, "lat": 53.4167099 }, "geometry": { "type": "Point", "coordinates": [ -2.2722329155, 53.4552345516 ] } },
{ "type": "Feature", "properties": { "atco_code": "1800SJ32171", "common_name": "Greatstone Road", "street": "The Quadrant", "area_code": "E08000009", "area_name": "Trafford", "lon": -2.36572003, "lat": 53.4167099 }, "geometry": { "type": "Point", "coordinates": [ -2.2866446658, 53.452998630700002 ] } },
{ "type": "Feature", "properties": { "atco_code": "1800SJ32581", "common_name": "Warwick Road South", "street": "Kings Road", "area_code": "E08000009", "area_name": "Trafford", "lon": -2.36572003, "lat": 53.4167099 }, "geometry": { "type": "Point", "coordinates": [ -2.2819505925, 53.4536300173 ] } },
{ "type": "Feature", "properties": { "atco_code": "1800SJ32591", "common_name": "Warwick Road South", "street": "Kings Road", "area_code": "E08000009", "area_name": "Trafford", "lon": -2.36572003, "lat": 53.4167099 }, "geometry": { "type": "Point", "coordinates": [ -2.2833647148, 53.453419933100001 ] } },
{ "type": "Feature", "properties": { "atco_code": "1800SB15551", "common_name": "Maple Rd", "street": "Brooklands Rd", "area_code": "E08000009", "area_name": "Trafford", "lon": -2.36572003, "lat": 53.4167099 }, "geometry": { "type": "Point", "coordinates": [ -2.3152410552, 53.406284949800003 ] } },
{ "type": "Feature", "properties": { "atco_code": "1800SJ08941", "common_name": "Norris Road", "street": "Brooklands Road", "area_code": "E08000009", "area_name": "Trafford", "lon": -2.36572003, "lat": 53.4167099 }, "geometry": { "type": "Point", "coordinates": [ -2.3201408005, 53.411763928799999 ] } },
{ "type": "Feature", "properties": { "atco_code": "1800SJ15021", "common_name": "Irlam Road", "street": "Lytham Road", "area_code": "E08000009", "area_name": "Trafford", "lon": -2.36572003, "lat": 53.4167099 }, "geometry": { "type": "Point", "coordinates": [ -2.4040172163, 53.447310950099997 ] } },
{ "type": "Feature", "properties": { "atco_code": "1800SJ15011", "common_name": "Roedean Gardens", "street": "Lytham Road", "area_code": "E08000009", "area_name": "Trafford", "lon": -2.36572003, "lat": 53.4167099 }, "geometry": { "type": "Point", "coordinates": [ -2.4019522974, 53.448675190400003 ] } },
{ "type": "Feature", "properties": { "atco_code": "1800SJH0131", "common_name": "Brook Rd (Nbd)", "street": "Brook Road", "area_code": "E08000009", "area_name": "Trafford", "lon": -2.36572003, "lat": 53.4167099 }, "geometry": { "type": "Point", "coordinates": [ -2.3744013131, 53.449061386399997 ] } },
{ "type": "Feature", "properties": { "atco_code": "1800SJH0061", "common_name": "Flixton Rd (Sbnd)", "street": "Flixton Rd", "area_code": "E08000009", "area_name": "Trafford", "lon": -2.36572003, "lat": 53.4167099 }, "geometry": { "type": "Point", "coordinates": [ -2.3893750541, 53.439944045700003 ] } },
{ "type": "Feature", "properties": { "atco_code": "1800SJ02861", "common_name": "Urmston Leisure Centre", "street": "Bowfell Road", "area_code": "E08000009", "area_name": "Trafford", "lon": -2.36572003, "lat": 53.4167099 }, "geometry": { "type": "Point", "coordinates": [ -2.3731408024, 53.449550713599997 ] } },
{ "type": "Feature", "properties": { "atco_code": "1800SJ08521", "common_name": "Flixton Road", "street": "Irlam Road", "area_code": "E08000009", "area_name": "Trafford", "lon": -2.36572003, "lat": 53.4167099 }, "geometry": { "type": "Point", "coordinates": [ -2.3817697619, 53.447995381699997 ] } },
{ "type": "Feature", "properties": { "atco_code": "1800SJ02771", "common_name": "Woodsend Clinic", "street": "Woodsend Cres R", "area_code": "E08000009", "area_name": "Trafford", "lon": -2.36572003, "lat": 53.4167099 }, "geometry": { "type": "Point", "coordinates": [ -2.3964288124, 53.450554286200003 ] } },
{ "type": "Feature", "properties": { "atco_code": "1800SJ03491", "common_name": "Carrington Rd", "street": "Carrington Road", "area_code": "E08000009", "area_name": "Trafford", "lon": -2.36572003, "lat": 53.4167099 }, "geometry": { "type": "Point", "coordinates": [ -2.3849868153, 53.442439118099998 ] } },
{ "type": "Feature", "properties": { "atco_code": "1800SJ03501", "common_name": "Carrington Rd", "street": "Carrington Rd", "area_code": "E08000009", "area_name": "Trafford", "lon": -2.36572003, "lat": 53.4167099 }, "geometry": { "type": "Point", "coordinates": [ -2.3857232586, 53.442301912799998 ] } },
{ "type": "Feature", "properties": { "atco_code": "1800SJ03511", "common_name": "Turning Circle", "street": "Carrington Road", "area_code": "E08000009", "area_name": "Trafford", "lon": -2.36572003, "lat": 53.4167099 }, "geometry": { "type": "Point", "coordinates": [ -2.3876988045, 53.4410191391 ] } },
{ "type": "Feature", "properties": { "atco_code": "1800SJ03521", "common_name": "Morris Grove", "street": "Carrington Road", "area_code": "E08000009", "area_name": "Trafford", "lon": -2.36572003, "lat": 53.4167099 }, "geometry": { "type": "Point", "coordinates": [ -2.3883154398, 53.4409542151 ] } },
{ "type": "Feature", "properties": { "atco_code": "1800SJ03531", "common_name": "Morris Grove", "street": "Carrington Road", "area_code": "E08000009", "area_name": "Trafford", "lon": -2.36572003, "lat": 53.4167099 }, "geometry": { "type": "Point", "coordinates": [ -2.3881069807, 53.441206572500001 ] } },
{ "type": "Feature", "properties": { "atco_code": "1800SJ02731", "common_name": "Towns Gate", "street": "Irlam Road", "area_code": "E08000009", "area_name": "Trafford", "lon": -2.36572003, "lat": 53.4167099 }, "geometry": { "type": "Point", "coordinates": [ -2.4009637104, 53.447626854399999 ] } },
{ "type": "Feature", "properties": { "atco_code": "1800SJ02741", "common_name": "Roedean Gardens", "street": "Woodsend Cres R", "area_code": "E08000009", "area_name": "Trafford", "lon": -2.36572003, "lat": 53.4167099 }, "geometry": { "type": "Point", "coordinates": [ -2.3969670614, 53.448530075500003 ] } },
{ "type": "Feature", "properties": { "atco_code": "1800SJ02761", "common_name": "Lytham Road", "street": "Woodsend Cres R", "area_code": "E08000009", "area_name": "Trafford", "lon": -2.36572003, "lat": 53.4167099 }, "geometry": { "type": "Point", "coordinates": [ -2.3965762012, 53.4502122321 ] } },
{ "type": "Feature", "properties": { "atco_code": "1800SJ02721", "common_name": "Woodsend Crescent Road", "street": "Irlam Road", "area_code": "E08000009", "area_name": "Trafford", "lon": -2.36572003, "lat": 53.4167099 }, "geometry": { "type": "Point", "coordinates": [ -2.3985108962, 53.447778883200002 ] } },
{ "type": "Feature", "properties": { "atco_code": "1800SJ02751", "common_name": "Roedean Gardens", "street": "Woodsend Cres R", "area_code": "E08000009", "area_name": "Trafford", "lon": -2.36572003, "lat": 53.4167099 }, "geometry": { "type": "Point", "coordinates": [ -2.3971204789, 53.448835175900001 ] } },
{ "type": "Feature", "properties": { "atco_code": "1800SJ02711", "common_name": "Woodsend Crescent Road", "street": "Irlam Road", "area_code": "E08000009", "area_name": "Trafford", "lon": -2.36572003, "lat": 53.4167099 }, "geometry": { "type": "Point", "coordinates": [ -2.3962229304, 53.447849417800001 ] } },
{ "type": "Feature", "properties": { "atco_code": "1800SJ02671", "common_name": "Wibbersley Park", "street": "Irlam Road", "area_code": "E08000009", "area_name": "Trafford", "lon": -2.36572003, "lat": 53.4167099 }, "geometry": { "type": "Point", "coordinates": [ -2.385777198, 53.448252156499997 ] } },
{ "type": "Feature", "properties": { "atco_code": "1800SJ02681", "common_name": "Flixton Road", "street": "Irlam Road", "area_code": "E08000009", "area_name": "Trafford", "lon": -2.36572003, "lat": 53.4167099 }, "geometry": { "type": "Point", "coordinates": [ -2.3815739486, 53.447987019099997 ] } },
{ "type": "Feature", "properties": { "atco_code": "1800SJ02691", "common_name": "Wibbersley Park", "street": "Irlam Road", "area_code": "E08000009", "area_name": "Trafford", "lon": -2.36572003, "lat": 53.4167099 }, "geometry": { "type": "Point", "coordinates": [ -2.3846624519, 53.448192833500002 ] } },
{ "type": "Feature", "properties": { "atco_code": "1800SJ02701", "common_name": "St John's", "street": "Irlam Rd", "area_code": "E08000009", "area_name": "Trafford", "lon": -2.36572003, "lat": 53.4167099 }, "geometry": { "type": "Point", "coordinates": [ -2.3925959398, 53.448032181599999 ] } },
{ "type": "Feature", "properties": { "atco_code": "1800SJ02651", "common_name": "Irlam Rd", "street": "Woodsend Rd", "area_code": "E08000009", "area_name": "Trafford", "lon": -2.36572003, "lat": 53.4167099 }, "geometry": { "type": "Point", "coordinates": [ -2.3914417268, 53.448593261100001 ] } },
{ "type": "Feature", "properties": { "atco_code": "1800SJ02661", "common_name": "Irlam Rd", "street": "Woodsend Rd", "area_code": "E08000009", "area_name": "Trafford", "lon": -2.36572003, "lat": 53.4167099 }, "geometry": { "type": "Point", "coordinates": [ -2.3912445865, 53.448441102 ] } },
{ "type": "Feature", "properties": { "atco_code": "1800SJ00531", "common_name": "Dartford Road", "street": "Church Road", "area_code": "E08000009", "area_name": "Trafford", "lon": -2.36572003, "lat": 53.4167099 }, "geometry": { "type": "Point", "coordinates": [ -2.3608808641, 53.445615468100002 ] } },
{ "type": "Feature", "properties": { "atco_code": "1800SJ02251", "common_name": "Golf Club", "street": "Church Road", "area_code": "E08000009", "area_name": "Trafford", "lon": -2.36572003, "lat": 53.4167099 }, "geometry": { "type": "Point", "coordinates": [ -2.3750001985, 53.4418417065 ] } },
{ "type": "Feature", "properties": { "atco_code": "1800SJ02261", "common_name": "Golf Club", "street": "Church Road", "area_code": "E08000009", "area_name": "Trafford", "lon": -2.36572003, "lat": 53.4167099 }, "geometry": { "type": "Point", "coordinates": [ -2.3755879469, 53.441911767199997 ] } },
{ "type": "Feature", "properties": { "atco_code": "1800SJ02271", "common_name": "Flixton Village", "street": "Flixton Road", "area_code": "E08000009", "area_name": "Trafford", "lon": -2.36572003, "lat": 53.4167099 }, "geometry": { "type": "Point", "coordinates": [ -2.3842097061, 53.4447426901 ] } },
{ "type": "Feature", "properties": { "atco_code": "1800SJ02221", "common_name": "Snowden Avenue", "street": "Church Road", "area_code": "E08000009", "area_name": "Trafford", "lon": -2.36572003, "lat": 53.4167099 }, "geometry": { "type": "Point", "coordinates": [ -2.3697802153, 53.442298428100003 ] } },
{ "type": "Feature", "properties": { "atco_code": "1800SJ02231", "common_name": "Snowden Ave", "street": "Church Road", "area_code": "E08000009", "area_name": "Trafford", "lon": -2.36572003, "lat": 53.4167099 }, "geometry": { "type": "Point", "coordinates": [ -2.3698114176, 53.442424171100001 ] } },
{ "type": "Feature", "properties": { "atco_code": "1800SJ02311", "common_name": "Trevor Road", "street": "Flixton Road", "area_code": "E08000009", "area_name": "Trafford", "lon": -2.36572003, "lat": 53.4167099 }, "geometry": { "type": "Point", "coordinates": [ -2.3777218326, 53.448259936 ] } },
{ "type": "Feature", "properties": { "atco_code": "1800SJ02191", "common_name": "Dartford Road", "street": "Church Road", "area_code": "E08000009", "area_name": "Trafford", "lon": -2.36572003, "lat": 53.4167099 }, "geometry": { "type": "Point", "coordinates": [ -2.3593637444, 53.4460335172 ] } },
{ "type": "Feature", "properties": { "atco_code": "1800SJ02201", "common_name": "Roebuck Hotel", "street": "Church Road", "area_code": "E08000009", "area_name": "Trafford", "lon": -2.36572003, "lat": 53.4167099 }, "geometry": { "type": "Point", "coordinates": [ -2.3657272751, 53.443677171799997 ] } },
{ "type": "Feature", "properties": { "atco_code": "1800SJ02211", "common_name": "Roebuck Hotel", "street": "Church Road", "area_code": "E08000009", "area_name": "Trafford", "lon": -2.36572003, "lat": 53.4167099 }, "geometry": { "type": "Point", "coordinates": [ -2.3666723237, 53.443278777 ] } },
{ "type": "Feature", "properties": { "atco_code": "1800SJ02291", "common_name": "Irlam Road", "street": "Flixton Road", "area_code": "E08000009", "area_name": "Trafford", "lon": -2.36572003, "lat": 53.4167099 }, "geometry": { "type": "Point", "coordinates": [ -2.3806229856, 53.447720398400001 ] } },
{ "type": "Feature", "properties": { "atco_code": "1800SJ02301", "common_name": "Irlam Road", "street": "Flixton Road", "area_code": "E08000009", "area_name": "Trafford", "lon": -2.36572003, "lat": 53.4167099 }, "geometry": { "type": "Point", "coordinates": [ -2.381057444, 53.447476321899998 ] } },
{ "type": "Feature", "properties": { "atco_code": "1800SJH2661", "common_name": "Flixton Road", "street": "Flixton Road", "area_code": "E08000009", "area_name": "Trafford", "lon": -2.36572003, "lat": 53.4167099 }, "geometry": { "type": "Point", "coordinates": [ -2.3828140032, 53.446913412900003 ] } },
{ "type": "Feature", "properties": { "atco_code": "1800SJ01841", "common_name": "St Michael's", "street": "Church Road", "area_code": "E08000009", "area_name": "Trafford", "lon": -2.36572003, "lat": 53.4167099 }, "geometry": { "type": "Point", "coordinates": [ -2.3824260331, 53.442276566099999 ] } },
{ "type": "Feature", "properties": { "atco_code": "1800SJ01561", "common_name": "St Michael's", "street": "Church Road", "area_code": "E08000009", "area_name": "Trafford", "lon": -2.36572003, "lat": 53.4167099 }, "geometry": { "type": "Point", "coordinates": [ -2.3801955009, 53.4420050453 ] } },
{ "type": "Feature", "properties": { "atco_code": "1800SJ02341", "common_name": "Girls High School", "street": "Flixton Road", "area_code": "E08000009", "area_name": "Trafford", "lon": -2.36572003, "lat": 53.4167099 }, "geometry": { "type": "Point", "coordinates": [ -2.3718549143, 53.448862608200002 ] } },
{ "type": "Feature", "properties": { "atco_code": "1800SJ02351", "common_name": "Princess Road", "street": "Flixton Road", "area_code": "E08000009", "area_name": "Trafford", "lon": -2.36572003, "lat": 53.4167099 }, "geometry": { "type": "Point", "coordinates": [ -2.3646845362, 53.448489230299998 ] } },
{ "type": "Feature", "properties": { "atco_code": "1800SJ02281", "common_name": "Flixton Village", "street": "Flixton Road", "area_code": "E08000009", "area_name": "Trafford", "lon": -2.36572003, "lat": 53.4167099 }, "geometry": { "type": "Point", "coordinates": [ -2.3840724245, 53.444545383799998 ] } },
{ "type": "Feature", "properties": { "atco_code": "1800SJ02361", "common_name": "Princess Road", "street": "Flixton Road", "area_code": "E08000009", "area_name": "Trafford", "lon": -2.36572003, "lat": 53.4167099 }, "geometry": { "type": "Point", "coordinates": [ -2.3641398842, 53.448185282499999 ] } },
{ "type": "Feature", "properties": { "atco_code": "1800SJ02321", "common_name": "Trevor Road", "street": "Flixton Road", "area_code": "E08000009", "area_name": "Trafford", "lon": -2.36572003, "lat": 53.4167099 }, "geometry": { "type": "Point", "coordinates": [ -2.3762314809, 53.448291607400002 ] } },
{ "type": "Feature", "properties": { "atco_code": "1800SJ02331", "common_name": "Girls High School", "street": "Flixton Road", "area_code": "E08000009", "area_name": "Trafford", "lon": -2.36572003, "lat": 53.4167099 }, "geometry": { "type": "Point", "coordinates": [ -2.3709675884, 53.448982219500003 ] } },
{ "type": "Feature", "properties": { "atco_code": "1800SJ16441", "common_name": "Urmston Leisure Centre", "street": "Bowfell Road", "area_code": "E08000009", "area_name": "Trafford", "lon": -2.36572003, "lat": 53.4167099 }, "geometry": { "type": "Point", "coordinates": [ -2.3734718181, 53.449522713 ] } },
{ "type": "Feature", "properties": { "atco_code": "1800SJ16481", "common_name": "Irlam Road", "street": "Lytham Road", "area_code": "E08000009", "area_name": "Trafford", "lon": -2.36572003, "lat": 53.4167099 }, "geometry": { "type": "Point", "coordinates": [ -2.4038817115, 53.447311408600001 ] } },
{ "type": "Feature", "properties": { "atco_code": "1800SJ14991", "common_name": "Repton Avenue", "street": "Lytham Road", "area_code": "E08000009", "area_name": "Trafford", "lon": -2.36572003, "lat": 53.4167099 }, "geometry": { "type": "Point", "coordinates": [ -2.397539269, 53.4501461097 ] } },
{ "type": "Feature", "properties": { "atco_code": "1800SJ15001", "common_name": "Roedean Gardens", "street": "Lytham Road", "area_code": "E08000009", "area_name": "Trafford", "lon": -2.36572003, "lat": 53.4167099 }, "geometry": { "type": "Point", "coordinates": [ -2.4008092681, 53.448813861200001 ] } },
{ "type": "Feature", "properties": { "atco_code": "1800SJ11741", "common_name": "Woodsend Rd", "street": "Irlam Road", "area_code": "E08000009", "area_name": "Trafford", "lon": -2.36572003, "lat": 53.4167099 }, "geometry": { "type": "Point", "coordinates": [ -2.3906091603, 53.4481106064 ] } },
{ "type": "Feature", "properties": { "atco_code": "1800SJ16691", "common_name": "Towns Gate", "street": "Irlam Road", "area_code": "E08000009", "area_name": "Trafford", "lon": -2.36572003, "lat": 53.4167099 }, "geometry": { "type": "Point", "coordinates": [ -2.4009774961, 53.447491979900001 ] } },
{ "type": "Feature", "properties": { "atco_code": "1800SJH1251", "common_name": "Flixton Rd (Nbnd)", "street": "Flixton Road", "area_code": "E08000009", "area_name": "Trafford", "lon": -2.36572003, "lat": 53.4167099 }, "geometry": { "type": "Point", "coordinates": [ -2.3896171444, 53.440078084200003 ] } },
{ "type": "Feature", "properties": { "atco_code": "1800SJH2191", "common_name": "Wellacre School", "street": "Irlam Road", "area_code": "E08000009", "area_name": "Trafford", "lon": -2.36572003, "lat": 53.4167099 }, "geometry": { "type": "Point", "coordinates": [ -2.3956516273, 53.447941197799999 ] } },
{ "type": "Feature", "properties": { "atco_code": "1800SJH2881", "common_name": "Altrincham Grammar School For Girls", "street": "Higher Downs", "area_code": "E08000009", "area_name": "Trafford", "lon": -2.36572003, "lat": 53.4167099 }, "geometry": { "type": "Point", "coordinates": [ -2.3586424519, 53.381866169299997 ] } },
{ "type": "Feature", "properties": { "atco_code": "1800SJH1461", "common_name": "Bow Green Road (SWbnd)", "street": "Bow Green Road", "area_code": "E08000009", "area_name": "Trafford", "lon": -2.36572003, "lat": 53.4167099 }, "geometry": { "type": "Point", "coordinates": [ -2.3686352011, 53.376127923799999 ] } },
{ "type": "Feature", "properties": { "atco_code": "1800SJH1591", "common_name": "St Margarets Road (Nbnd)", "street": "St Margarets Rd", "area_code": "E08000009", "area_name": "Trafford", "lon": -2.36572003, "lat": 53.4167099 }, "geometry": { "type": "Point", "coordinates": [ -2.3614824055, 53.381704791399997 ] } },
{ "type": "Feature", "properties": { "atco_code": "1800SJ09581", "common_name": "Bowdon Church", "street": "The Firs", "area_code": "E08000009", "area_name": "Trafford", "lon": -2.36572003, "lat": 53.4167099 }, "geometry": { "type": "Point", "coordinates": [ -2.3638911416, 53.378578411100001 ] } },
{ "type": "Feature", "properties": { "atco_code": "1800SJ09601", "common_name": "St Margaret's Road", "street": "Cavendish Road", "area_code": "E08000009", "area_name": "Trafford", "lon": -2.36572003, "lat": 53.4167099 }, "geometry": { "type": "Point", "coordinates": [ -2.3604742066, 53.381590989700001 ] } },
{ "type": "Feature", "properties": { "atco_code": "1800SJ09611", "common_name": "St Margaret's Road", "street": "Cavendish Road", "area_code": "E08000009", "area_name": "Trafford", "lon": -2.36572003, "lat": 53.4167099 }, "geometry": { "type": "Point", "coordinates": [ -2.3603531075, 53.3814924805 ] } },
{ "type": "Feature", "properties": { "atco_code": "1800SJ09591", "common_name": "Bowdon Church", "street": "The Firs", "area_code": "E08000009", "area_name": "Trafford", "lon": -2.36572003, "lat": 53.4167099 }, "geometry": { "type": "Point", "coordinates": [ -2.3637112186, 53.378632891599999 ] } },
{ "type": "Feature", "properties": { "atco_code": "1800SJ10721", "common_name": "Dunham Road", "street": "Park Road", "area_code": "E08000009", "area_name": "Trafford", "lon": -2.36572003, "lat": 53.4167099 }, "geometry": { "type": "Point", "coordinates": [ -2.3743665071, 53.380047102699997 ] } },
{ "type": "Feature", "properties": { "atco_code": "1800SJ10691", "common_name": "Dunham House", "street": "Charcoal Road", "area_code": "E08000009", "area_name": "Trafford", "lon": -2.36572003, "lat": 53.4167099 }, "geometry": { "type": "Point", "coordinates": [ -2.380999706, 53.382147423500001 ] } },
{ "type": "Feature", "properties": { "atco_code": "1800SJ17031", "common_name": "Bow Green Road", "street": "Langham Road", "area_code": "E08000009", "area_name": "Trafford", "lon": -2.36572003, "lat": 53.4167099 }, "geometry": { "type": "Point", "coordinates": [ -2.3647442384, 53.376382577 ] } },
{ "type": "Feature", "properties": { "atco_code": "1800SJ10731", "common_name": "Church Brow", "street": "Park Road", "area_code": "E08000009", "area_name": "Trafford", "lon": -2.36572003, "lat": 53.4167099 }, "geometry": { "type": "Point", "coordinates": [ -2.3677923039, 53.377739492800004 ] } },
{ "type": "Feature", "properties": { "atco_code": "1800SJ10741", "common_name": "Bow Green Road", "street": "Langham Road", "area_code": "E08000009", "area_name": "Trafford", "lon": -2.36572003, "lat": 53.4167099 }, "geometry": { "type": "Point", "coordinates": [ -2.3646545895, 53.376445771599997 ] } },
{ "type": "Feature", "properties": { "atco_code": "1800SJ10671", "common_name": "Barry Rise", "street": "Park Road", "area_code": "E08000009", "area_name": "Trafford", "lon": -2.36572003, "lat": 53.4167099 }, "geometry": { "type": "Point", "coordinates": [ -2.3737917314, 53.379644416 ] } },
{ "type": "Feature", "properties": { "atco_code": "1800SJ10661", "common_name": "The Springs", "street": "Park Road", "area_code": "E08000009", "area_name": "Trafford", "lon": -2.36572003, "lat": 53.4167099 }, "geometry": { "type": "Point", "coordinates": [ -2.3678365461, 53.377640481299998 ] } },
{ "type": "Feature", "properties": { "atco_code": "1800SJ10681", "common_name": "Dunham House", "street": "Charcoal Road", "area_code": "E08000009", "area_name": "Trafford", "lon": -2.36572003, "lat": 53.4167099 }, "geometry": { "type": "Point", "coordinates": [ -2.3816467739, 53.382217264499999 ] } },
{ "type": "Feature", "properties": { "atco_code": "1800SJH1631", "common_name": "Charcoal Road (NWbnd)", "street": "Charcoal Road", "area_code": "E08000009", "area_name": "Trafford", "lon": -2.36572003, "lat": 53.4167099 }, "geometry": { "type": "Point", "coordinates": [ -2.3751966097, 53.380422018 ] } },
{ "type": "Feature", "properties": { "atco_code": "1800SJ49021", "common_name": "Lakes Medical Centre", "street": "Mainwood Road", "area_code": "E08000009", "area_name": "Trafford", "lon": -2.36572003, "lat": 53.4167099 }, "geometry": { "type": "Point", "coordinates": [ -2.3115125014, 53.392137703499998 ] } },
{ "type": "Feature", "properties": { "atco_code": "1800SJ49091", "common_name": "Mossfield Road", "street": "Greystoke Ave", "area_code": "E08000009", "area_name": "Trafford", "lon": -2.36572003, "lat": 53.4167099 }, "geometry": { "type": "Point", "coordinates": [ -2.3063712356, 53.3944251339 ] } },
{ "type": "Feature", "properties": { "atco_code": "1800SJH2891", "common_name": "Altrincham Grammar School for Girls", "street": "Higher Downs", "area_code": "E08000009", "area_name": "Trafford", "lon": -2.36572003, "lat": 53.4167099 }, "geometry": { "type": "Point", "coordinates": [ -2.359151911, 53.381666886700003 ] } },
{ "type": "Feature", "properties": { "atco_code": "1800SJ49101", "common_name": "Hollinscroft Avenue", "street": "Mainwood Road", "area_code": "E08000009", "area_name": "Trafford", "lon": -2.36572003, "lat": 53.4167099 }, "geometry": { "type": "Point", "coordinates": [ -2.3082281835, 53.391274339200002 ] } },
{ "type": "Feature", "properties": { "atco_code": "1800SJ12111", "common_name": "Brackenfield Walk", "street": "Aimson Rd East", "area_code": "E08000009", "area_name": "Trafford", "lon": -2.36572003, "lat": 53.4167099 }, "geometry": { "type": "Point", "coordinates": [ -2.3079864252, 53.395274892400003 ] } },
{ "type": "Feature", "properties": { "atco_code": "1800SJ49111", "common_name": "Lakes Medical Centre", "street": "Mainwood Road", "area_code": "E08000009", "area_name": "Trafford", "lon": -2.36572003, "lat": 53.4167099 }, "geometry": { "type": "Point", "coordinates": [ -2.3106986822, 53.391888144699998 ] } },
{ "type": "Feature", "properties": { "atco_code": "1800SJ49071", "common_name": "Briarfield Road", "street": "Aimson Rd East", "area_code": "E08000009", "area_name": "Trafford", "lon": -2.36572003, "lat": 53.4167099 }, "geometry": { "type": "Point", "coordinates": [ -2.3085900223, 53.395560967900003 ] } },
{ "type": "Feature", "properties": { "atco_code": "1800SJ49031", "common_name": "Hollinscroft Avenue", "street": "Mainwood Road", "area_code": "E08000009", "area_name": "Trafford", "lon": -2.36572003, "lat": 53.4167099 }, "geometry": { "type": "Point", "coordinates": [ -2.3066641978, 53.3912514039 ] } },
{ "type": "Feature", "properties": { "atco_code": "1800SJ49041", "common_name": "Dee Avenue", "street": "Greystoke Ave", "area_code": "E08000009", "area_name": "Trafford", "lon": -2.36572003, "lat": 53.4167099 }, "geometry": { "type": "Point", "coordinates": [ -2.3056024089, 53.392063103 ] } },
{ "type": "Feature", "properties": { "atco_code": "1800SJ49051", "common_name": "Keswick Road", "street": "Greystoke Ave", "area_code": "E08000009", "area_name": "Trafford", "lon": -2.36572003, "lat": 53.4167099 }, "geometry": { "type": "Point", "coordinates": [ -2.3064154437, 53.394299179900003 ] } },
{ "type": "Feature", "properties": { "atco_code": "1800SJ49061", "common_name": "Briarfield Road", "street": "Aimson Rd East", "area_code": "E08000009", "area_name": "Trafford", "lon": -2.36572003, "lat": 53.4167099 }, "geometry": { "type": "Point", "coordinates": [ -2.3091470138, 53.395640423300001 ] } },
{ "type": "Feature", "properties": { "atco_code": "1800SJ49081", "common_name": "Keswick Road", "street": "Greystoke Ave", "area_code": "E08000009", "area_name": "Trafford", "lon": -2.36572003, "lat": 53.4167099 }, "geometry": { "type": "Point", "coordinates": [ -2.3055742039, 53.392323844800003 ] } },
{ "type": "Feature", "properties": { "atco_code": "1800SJ48581", "common_name": "Carrgreen Lane", "street": "Dunham Road", "area_code": "E08000009", "area_name": "Trafford", "lon": -2.36572003, "lat": 53.4167099 }, "geometry": { "type": "Point", "coordinates": [ -2.4302843273, 53.397503254500002 ] } },
{ "type": "Feature", "properties": { "atco_code": "1800SJ48721", "common_name": "Gorsey Lane", "street": "Dunham Road", "area_code": "E08000009", "area_name": "Trafford", "lon": -2.36572003, "lat": 53.4167099 }, "geometry": { "type": "Point", "coordinates": [ -2.419351468, 53.394495027700003 ] } },
{ "type": "Feature", "properties": { "atco_code": "1800SJ48571", "common_name": "Gorsey Lane", "street": "Dunham Road", "area_code": "E08000009", "area_name": "Trafford", "lon": -2.36572003, "lat": 53.4167099 }, "geometry": { "type": "Point", "coordinates": [ -2.4192900808, 53.394369402499997 ] } },
{ "type": "Feature", "properties": { "atco_code": "1800SJ48711", "common_name": "Carrgreen Lane", "street": "Dunham Road", "area_code": "E08000009", "area_name": "Trafford", "lon": -2.36572003, "lat": 53.4167099 }, "geometry": { "type": "Point", "coordinates": [ -2.4301794209, 53.397539587200001 ] } },
{ "type": "Feature", "properties": { "atco_code": "1800SB14271", "common_name": "Chorlton Rd", "street": "Moss Ln West", "area_code": "E08000009", "area_name": "Trafford", "lon": -2.36572003, "lat": 53.4167099 }, "geometry": { "type": "Point", "coordinates": [ -2.25611527, 53.4595397577 ] } },
{ "type": "Feature", "properties": { "atco_code": "1800SJ30021", "common_name": "Brook's Bar", "street": "Upp Chorlton Rd", "area_code": "E08000009", "area_name": "Trafford", "lon": -2.36572003, "lat": 53.4167099 }, "geometry": { "type": "Point", "coordinates": [ -2.2591354991, 53.458391700599996 ] } },
{ "type": "Feature", "properties": { "atco_code": "1800SJ30401", "common_name": "Cornbrook Street", "street": "Chorlton Road", "area_code": "E08000009", "area_name": "Trafford", "lon": -2.36572003, "lat": 53.4167099 }, "geometry": { "type": "Point", "coordinates": [ -2.2581881283, 53.461108278200001 ] } },
{ "type": "Feature", "properties": { "atco_code": "1800SJ30411", "common_name": "Cornbrook Street", "street": "Chorlton Road", "area_code": "E08000009", "area_name": "Trafford", "lon": -2.36572003, "lat": 53.4167099 }, "geometry": { "type": "Point", "coordinates": [ -2.2579665736, 53.461827836399998 ] } },
{ "type": "Feature", "properties": { "atco_code": "1800SJ02801", "common_name": "Lawrence Road", "street": "Moorside Road", "area_code": "E08000009", "area_name": "Trafford", "lon": -2.36572003, "lat": 53.4167099 }, "geometry": { "type": "Point", "coordinates": [ -2.38711196, 53.452634243600002 ] } },
{ "type": "Feature", "properties": { "atco_code": "1800SJ02811", "common_name": "Lawrence Road", "street": "Moorside Road", "area_code": "E08000009", "area_name": "Trafford", "lon": -2.36572003, "lat": 53.4167099 }, "geometry": { "type": "Point", "coordinates": [ -2.3861036453, 53.452700428199996 ] } },
{ "type": "Feature", "properties": { "atco_code": "1800SJ02821", "common_name": "Mardale Avenue", "street": "Moorside Road", "area_code": "E08000009", "area_name": "Trafford", "lon": -2.36572003, "lat": 53.4167099 }, "geometry": { "type": "Point", "coordinates": [ -2.3799574004, 53.4524325123 ] } },
{ "type": "Feature", "properties": { "atco_code": "1800SJ02831", "common_name": "Mardale Avenue", "street": "Moorside Road", "area_code": "E08000009", "area_name": "Trafford", "lon": -2.36572003, "lat": 53.4167099 }, "geometry": { "type": "Point", "coordinates": [ -2.3788567301, 53.452274216299998 ] } },
{ "type": "Feature", "properties": { "atco_code": "1800SJ02851", "common_name": "Brook Road", "street": "Moorside Road", "area_code": "E08000009", "area_name": "Trafford", "lon": -2.36572003, "lat": 53.4167099 }, "geometry": { "type": "Point", "coordinates": [ -2.3747451349, 53.452197306599999 ] } },
{ "type": "Feature", "properties": { "atco_code": "1800SJ02841", "common_name": "Brook Road", "street": "Moorside Road", "area_code": "E08000009", "area_name": "Trafford", "lon": -2.36572003, "lat": 53.4167099 }, "geometry": { "type": "Point", "coordinates": [ -2.375498742, 53.4522758357 ] } },
{ "type": "Feature", "properties": { "atco_code": "1800SJ03081", "common_name": "Redbourne Drive", "street": "Woodhouse Road", "area_code": "E08000009", "area_name": "Trafford", "lon": -2.36572003, "lat": 53.4167099 }, "geometry": { "type": "Point", "coordinates": [ -2.3816492972, 53.459743779100002 ] } },
{ "type": "Feature", "properties": { "atco_code": "1800SJ16921", "common_name": "Gorse Hill Park", "street": "Talbot Road", "area_code": "E08000009", "area_name": "Trafford", "lon": -2.36572003, "lat": 53.4167099 }, "geometry": { "type": "Point", "coordinates": [ -2.2944721057, 53.454741326300002 ] } },
{ "type": "Feature", "properties": { "atco_code": "1800SJ02501", "common_name": "Bowers Avenue", "street": "Davyhulme Road", "area_code": "E08000009", "area_name": "Trafford", "lon": -2.36572003, "lat": 53.4167099 }, "geometry": { "type": "Point", "coordinates": [ -2.3694989363, 53.456716910200001 ] } },
{ "type": "Feature", "properties": { "atco_code": "1800SJ02511", "common_name": "Bowers Avenue", "street": "Davyhulme Road", "area_code": "E08000009", "area_name": "Trafford", "lon": -2.36572003, "lat": 53.4167099 }, "geometry": { "type": "Point", "coordinates": [ -2.3698895445, 53.456607838499998 ] } },
{ "type": "Feature", "properties": { "atco_code": "1800SJ02521", "common_name": "Woodhouse Road", "street": "Davyhulme Road", "area_code": "E08000009", "area_name": "Trafford", "lon": -2.36572003, "lat": 53.4167099 }, "geometry": { "type": "Point", "coordinates": [ -2.3724636834, 53.456482985500003 ] } },
{ "type": "Feature", "properties": { "atco_code": "1800SJ02531", "common_name": "Davyhulme Road", "street": "Woodhouse Road", "area_code": "E08000009", "area_name": "Trafford", "lon": -2.36572003, "lat": 53.4167099 }, "geometry": { "type": "Point", "coordinates": [ -2.373428115, 53.456551881400003 ] } },
{ "type": "Feature", "properties": { "atco_code": "1800SJ02601", "common_name": "Calderbank Avenue", "street": "Woodsend Road", "area_code": "E08000009", "area_name": "Trafford", "lon": -2.36572003, "lat": 53.4167099 }, "geometry": { "type": "Point", "coordinates": [ -2.3885903358, 53.457869755899999 ] } },
{ "type": "Feature", "properties": { "atco_code": "1800SJ02611", "common_name": "Calderbank Avenue", "street": "Woodsend Road", "area_code": "E08000009", "area_name": "Trafford", "lon": -2.36572003, "lat": 53.4167099 }, "geometry": { "type": "Point", "coordinates": [ -2.3895377066, 53.4577138641 ] } },
{ "type": "Feature", "properties": { "atco_code": "1800SJ15261", "common_name": "The Bent Brook", "street": "Broadway", "area_code": "E08000009", "area_name": "Trafford", "lon": -2.36572003, "lat": 53.4167099 }, "geometry": { "type": "Point", "coordinates": [ -2.3714147952, 53.458814280600002 ] } },
{ "type": "Feature", "properties": { "atco_code": "1800SJ03051", "common_name": "Selby Drive", "street": "Woodhouse Road", "area_code": "E08000009", "area_name": "Trafford", "lon": -2.36572003, "lat": 53.4167099 }, "geometry": { "type": "Point", "coordinates": [ -2.3782041137, 53.460168213 ] } },
{ "type": "Feature", "properties": { "atco_code": "1800SJ32161", "common_name": "Gorse Ave", "street": "Greatstone Rd", "area_code": "E08000009", "area_name": "Trafford", "lon": -2.36572003, "lat": 53.4167099 }, "geometry": { "type": "Point", "coordinates": [ -2.2898370914, 53.455211083599998 ] } },
{ "type": "Feature", "properties": { "atco_code": "1800SJ03061", "common_name": "Redbourne Drive", "street": "Woodhouse Road", "area_code": "E08000009", "area_name": "Trafford", "lon": -2.36572003, "lat": 53.4167099 }, "geometry": { "type": "Point", "coordinates": [ -2.3816332688, 53.459635968100002 ] } },
{ "type": "Feature", "properties": { "atco_code": "1800SJ03071", "common_name": "Davyhulme Road", "street": "Woodhouse Road", "area_code": "E08000009", "area_name": "Trafford", "lon": -2.36572003, "lat": 53.4167099 }, "geometry": { "type": "Point", "coordinates": [ -2.3847425755, 53.458718148899997 ] } },
{ "type": "Feature", "properties": { "atco_code": "1800SJ32151", "common_name": "Gorse Ave", "street": "Greatstone Road", "area_code": "E08000009", "area_name": "Trafford", "lon": -2.36572003, "lat": 53.4167099 }, "geometry": { "type": "Point", "coordinates": [ -2.2901385792, 53.455255293800001 ] } },
{ "type": "Feature", "properties": { "atco_code": "1800SJ03031", "common_name": "Broadway", "street": "Woodhouse Road", "area_code": "E08000009", "area_name": "Trafford", "lon": -2.36572003, "lat": 53.4167099 }, "geometry": { "type": "Point", "coordinates": [ -2.3737546561, 53.459436175900002 ] } },
{ "type": "Feature", "properties": { "atco_code": "1800SJ03041", "common_name": "Bent Lanes", "street": "Woodhouse Road", "area_code": "E08000009", "area_name": "Trafford", "lon": -2.36572003, "lat": 53.4167099 }, "geometry": { "type": "Point", "coordinates": [ -2.3748137969, 53.459990144300001 ] } },
{ "type": "Feature", "properties": { "atco_code": "1800SJ16961", "common_name": "Chester Road", "street": "Talbot Road", "area_code": "E08000009", "area_name": "Trafford", "lon": -2.36572003, "lat": 53.4167099 }, "geometry": { "type": "Point", "coordinates": [ -2.2984502207, 53.452951722100003 ] } },
{ "type": "Feature", "properties": { "atco_code": "1800SJ03091", "common_name": "Selby Drive", "street": "Woodhouse Road", "area_code": "E08000009", "area_name": "Trafford", "lon": -2.36572003, "lat": 53.4167099 }, "geometry": { "type": "Point", "coordinates": [ -2.3774816, 53.460215441899997 ] } },
{ "type": "Feature", "properties": { "atco_code": "1800SJ16941", "common_name": "Chester Road", "street": "Talbot Road", "area_code": "E08000009", "area_name": "Trafford", "lon": -2.36572003, "lat": 53.4167099 }, "geometry": { "type": "Point", "coordinates": [ -2.2983160834, 53.453149804600002 ] } },
{ "type": "Feature", "properties": { "atco_code": "1800SJ16931", "common_name": "Gorse Hill Park", "street": "Talbot Road", "area_code": "E08000009", "area_name": "Trafford", "lon": -2.36572003, "lat": 53.4167099 }, "geometry": { "type": "Point", "coordinates": [ -2.2949383702, 53.454659278699999 ] } },
{ "type": "Feature", "properties": { "atco_code": "1800SJ03101", "common_name": "Woodhouse Road", "street": "Broadway", "area_code": "E08000009", "area_name": "Trafford", "lon": -2.36572003, "lat": 53.4167099 }, "geometry": { "type": "Point", "coordinates": [ -2.3731991556, 53.459635660899998 ] } },
{ "type": "Feature", "properties": { "atco_code": "1800SJ00701", "common_name": "Milton Road", "street": "Renton Road", "area_code": "E08000009", "area_name": "Trafford", "lon": -2.36572003, "lat": 53.4167099 }, "geometry": { "type": "Point", "coordinates": [ -2.2961558592, 53.452166447099998 ] } },
{ "type": "Feature", "properties": { "atco_code": "1800SJ00711", "common_name": "Renton Road", "street": "Wardle Close", "area_code": "E08000009", "area_name": "Trafford", "lon": -2.36572003, "lat": 53.4167099 }, "geometry": { "type": "Point", "coordinates": [ -2.2990213789, 53.450658221899999 ] } },
{ "type": "Feature", "properties": { "atco_code": "1800SJ00101", "common_name": "Derbyshire Lane", "street": "Chester Road", "area_code": "E08000009", "area_name": "Trafford", "lon": -2.36572003, "lat": 53.4167099 }, "geometry": { "type": "Point", "coordinates": [ -2.3040379043, 53.448874812500001 ] } },
{ "type": "Feature", "properties": { "atco_code": "1800SJ00111", "common_name": "Davyhulme Road East", "street": "Chester Road", "area_code": "E08000009", "area_name": "Trafford", "lon": -2.36572003, "lat": 53.4167099 }, "geometry": { "type": "Point", "coordinates": [ -2.3027223726, 53.4502084565 ] } },
{ "type": "Feature", "properties": { "atco_code": "1800SJ00121", "common_name": "Thomas Street", "street": "Chester Road", "area_code": "E08000009", "area_name": "Trafford", "lon": -2.36572003, "lat": 53.4167099 }, "geometry": { "type": "Point", "coordinates": [ -2.3000168488, 53.453028691699998 ] } },
{ "type": "Feature", "properties": { "atco_code": "1800SJ00131", "common_name": "Taylors Road", "street": "Chester Road", "area_code": "E08000009", "area_name": "Trafford", "lon": -2.36572003, "lat": 53.4167099 }, "geometry": { "type": "Point", "coordinates": [ -2.2980282063, 53.455047099200002 ] } },
{ "type": "Feature", "properties": { "atco_code": "1800SJ00141", "common_name": "Taylors Road", "street": "Chester Road", "area_code": "E08000009", "area_name": "Trafford", "lon": -2.36572003, "lat": 53.4167099 }, "geometry": { "type": "Point", "coordinates": [ -2.298147922, 53.454938938200002 ] } },
{ "type": "Feature", "properties": { "atco_code": "1800SJ00401", "common_name": "Cavendish Road", "street": "Chester Road", "area_code": "E08000009", "area_name": "Trafford", "lon": -2.36572003, "lat": 53.4167099 }, "geometry": { "type": "Point", "coordinates": [ -2.2970540177, 53.455714676900001 ] } },
{ "type": "Feature", "properties": { "atco_code": "1800SJ00411", "common_name": "Taylors Road", "street": "Chester Road", "area_code": "E08000009", "area_name": "Trafford", "lon": -2.36572003, "lat": 53.4167099 }, "geometry": { "type": "Point", "coordinates": [ -2.2986984749, 53.453993768499998 ] } },
{ "type": "Feature", "properties": { "atco_code": "1800SJ00421", "common_name": "Davyhulme Road East", "street": "Chester Road", "area_code": "E08000009", "area_name": "Trafford", "lon": -2.36572003, "lat": 53.4167099 }, "geometry": { "type": "Point", "coordinates": [ -2.3022991721, 53.449984816 ] } },
{ "type": "Feature", "properties": { "atco_code": "1800SJ00861", "common_name": "Chester Road", "street": "Davyhulme Rd E", "area_code": "E08000009", "area_name": "Trafford", "lon": -2.36572003, "lat": 53.4167099 }, "geometry": { "type": "Point", "coordinates": [ -2.3035268215, 53.451105265400003 ] } },
{ "type": "Feature", "properties": { "atco_code": "1800SJ00871", "common_name": "Chester Road", "street": "Davyhulme Rd E", "area_code": "E08000009", "area_name": "Trafford", "lon": -2.36572003, "lat": 53.4167099 }, "geometry": { "type": "Point", "coordinates": [ -2.3030727243, 53.450773844099999 ] } },
{ "type": "Feature", "properties": { "atco_code": "1800SJ32331", "common_name": "Longford Park", "street": "Edge Lane", "area_code": "E08000009", "area_name": "Trafford", "lon": -2.36572003, "lat": 53.4167099 }, "geometry": { "type": "Point", "coordinates": [ -2.2955618093, 53.444689472599997 ] } },
{ "type": "Feature", "properties": { "atco_code": "1800SJ32341", "common_name": "Longford Park", "street": "Edge Lane", "area_code": "E08000009", "area_name": "Trafford", "lon": -2.36572003, "lat": 53.4167099 }, "geometry": { "type": "Point", "coordinates": [ -2.2958337427, 53.444823626800002 ] } },
{ "type": "Feature", "properties": { "atco_code": "1800SJ41621", "common_name": "Broom Road", "street": "Hale Road", "area_code": "E08000009", "area_name": "Trafford", "lon": -2.36572003, "lat": 53.4167099 }, "geometry": { "type": "Point", "coordinates": [ -2.3440509331, 53.380740619900003 ] } },
{ "type": "Feature", "properties": { "atco_code": "1800SJ41341", "common_name": "Cemetery", "street": "Hale Road", "area_code": "E08000009", "area_name": "Trafford", "lon": -2.36572003, "lat": 53.4167099 }, "geometry": { "type": "Point", "coordinates": [ -2.3336188543, 53.378927580599999 ] } },
{ "type": "Feature", "properties": { "atco_code": "1800SJ41351", "common_name": "Graysands Road", "street": "Hale Road", "area_code": "E08000009", "area_name": "Trafford", "lon": -2.36572003, "lat": 53.4167099 }, "geometry": { "type": "Point", "coordinates": [ -2.3369600916, 53.379439530299997 ] } },
{ "type": "Feature", "properties": { "atco_code": "1800SJ41321", "common_name": "Delahays Road", "street": "Hale Road", "area_code": "E08000009", "area_name": "Trafford", "lon": -2.36572003, "lat": 53.4167099 }, "geometry": { "type": "Point", "coordinates": [ -2.3267774188, 53.376744302699997 ] } },
{ "type": "Feature", "properties": { "atco_code": "1800SJ41331", "common_name": "Westminster Road", "street": "Hale Road", "area_code": "E08000009", "area_name": "Trafford", "lon": -2.36572003, "lat": 53.4167099 }, "geometry": { "type": "Point", "coordinates": [ -2.3305040111, 53.378522774 ] } },
{ "type": "Feature", "properties": { "atco_code": "1800SJ40991", "common_name": "Football Ground", "street": "Moss Lane", "area_code": "E08000009", "area_name": "Trafford", "lon": -2.36572003, "lat": 53.4167099 }, "geometry": { "type": "Point", "coordinates": [ -2.3367522213, 53.383574886700004 ] } },
{ "type": "Feature", "properties": { "atco_code": "1800SJ10961", "common_name": "Old Meadow Lane", "street": "Thorley Lane", "area_code": "E08000009", "area_name": "Trafford", "lon": -2.36572003, "lat": 53.4167099 }, "geometry": { "type": "Point", "coordinates": [ -2.323701203, 53.381399811500003 ] } },
{ "type": "Feature", "properties": { "atco_code": "1800SJ41611", "common_name": "Broomfield Lane", "street": "Hale Road", "area_code": "E08000009", "area_name": "Trafford", "lon": -2.36572003, "lat": 53.4167099 }, "geometry": { "type": "Point", "coordinates": [ -2.3410396502, 53.380156016599997 ] } },
{ "type": "Feature", "properties": { "atco_code": "1800SJ41491", "common_name": "Delahays Road", "street": "Hale Road", "area_code": "E08000009", "area_name": "Trafford", "lon": -2.36572003, "lat": 53.4167099 }, "geometry": { "type": "Point", "coordinates": [ -2.326340823, 53.3766556116 ] } },
{ "type": "Feature", "properties": { "atco_code": "1800SJ41481", "common_name": "Grange Avenue", "street": "Hale Road", "area_code": "E08000009", "area_name": "Trafford", "lon": -2.36572003, "lat": 53.4167099 }, "geometry": { "type": "Point", "coordinates": [ -2.328469093, 53.3778003153 ] } },
{ "type": "Feature", "properties": { "atco_code": "1800SJ41451", "common_name": "Queens Road", "street": "Hale Road", "area_code": "E08000009", "area_name": "Trafford", "lon": -2.36572003, "lat": 53.4167099 }, "geometry": { "type": "Point", "coordinates": [ -2.3399711252, 53.380006259799998 ] } },
{ "type": "Feature", "properties": { "atco_code": "1800SJ41461", "common_name": "Graysands Road", "street": "Hale Road", "area_code": "E08000009", "area_name": "Trafford", "lon": -2.36572003, "lat": 53.4167099 }, "geometry": { "type": "Point", "coordinates": [ -2.3365545047, 53.379476629700001 ] } },
{ "type": "Feature", "properties": { "atco_code": "1800SJ41471", "common_name": "Cemetery", "street": "Hale Road", "area_code": "E08000009", "area_name": "Trafford", "lon": -2.36572003, "lat": 53.4167099 }, "geometry": { "type": "Point", "coordinates": [ -2.3328072628, 53.378947824800001 ] } },
{ "type": "Feature", "properties": { "atco_code": "1800SJ11261", "common_name": "Hale Station", "street": "Ashley Road", "area_code": "E08000009", "area_name": "Trafford", "lon": -2.36572003, "lat": 53.4167099 }, "geometry": { "type": "Point", "coordinates": [ -2.346898783, 53.3778560095 ] } },
{ "type": "Feature", "properties": { "atco_code": "1800SJ11281", "common_name": "Murieston Road", "street": "Ashley Road", "area_code": "E08000009", "area_name": "Trafford", "lon": -2.36572003, "lat": 53.4167099 }, "geometry": { "type": "Point", "coordinates": [ -2.342519748, 53.375396787600003 ] } },
{ "type": "Feature", "properties": { "atco_code": "1800SJ11271", "common_name": "Hale Village", "street": "Ashley Road", "area_code": "E08000009", "area_name": "Trafford", "lon": -2.36572003, "lat": 53.4167099 }, "geometry": { "type": "Point", "coordinates": [ -2.3450848744, 53.3766118498 ] } },
{ "type": "Feature", "properties": { "atco_code": "1800SJ11911", "common_name": "Beech Rd", "street": "Hale Road", "area_code": "E08000009", "area_name": "Trafford", "lon": -2.36572003, "lat": 53.4167099 }, "geometry": { "type": "Point", "coordinates": [ -2.3435096114, 53.3807242026 ] } },
{ "type": "Feature", "properties": { "atco_code": "1800SJ11861", "common_name": "Hale Village", "street": "Ashley Road", "area_code": "E08000009", "area_name": "Trafford", "lon": -2.36572003, "lat": 53.4167099 }, "geometry": { "type": "Point", "coordinates": [ -2.3449926516, 53.376360434600002 ] } },
{ "type": "Feature", "properties": { "atco_code": "1800SJ11871", "common_name": "Hale Station", "street": "Ashley Road", "area_code": "E08000009", "area_name": "Trafford", "lon": -2.36572003, "lat": 53.4167099 }, "geometry": { "type": "Point", "coordinates": [ -2.3471543946, 53.377864254599999 ] } },
{ "type": "Feature", "properties": { "atco_code": "1800SJ11881", "common_name": "Football Ground", "street": "Moss Lane", "area_code": "E08000009", "area_name": "Trafford", "lon": -2.36572003, "lat": 53.4167099 }, "geometry": { "type": "Point", "coordinates": [ -2.3362520694, 53.383063945700002 ] } },
{ "type": "Feature", "properties": { "atco_code": "1800SJ11851", "common_name": "Murieston Road", "street": "Ashley Road", "area_code": "E08000009", "area_name": "Trafford", "lon": -2.36572003, "lat": 53.4167099 }, "geometry": { "type": "Point", "coordinates": [ -2.3430318798, 53.375530145600003 ] } },
{ "type": "Feature", "properties": { "atco_code": "1800SJ11071", "common_name": "Bancroft Road", "street": "Grove Lane", "area_code": "E08000009", "area_name": "Trafford", "lon": -2.36572003, "lat": 53.4167099 }, "geometry": { "type": "Point", "coordinates": [ -2.3315021145, 53.381225582200003 ] } },
{ "type": "Feature", "properties": { "atco_code": "1800SJ11051", "common_name": "Old Meadow Lane", "street": "Thorley Lane", "area_code": "E08000009", "area_name": "Trafford", "lon": -2.36572003, "lat": 53.4167099 }, "geometry": { "type": "Point", "coordinates": [ -2.3233572169, 53.381634448699998 ] } },
{ "type": "Feature", "properties": { "atco_code": "1800SJ11061", "common_name": "St David's", "street": "Grove Lane", "area_code": "E08000009", "area_name": "Trafford", "lon": -2.36572003, "lat": 53.4167099 }, "geometry": { "type": "Point", "coordinates": [ -2.3263703965, 53.380520642 ] } },
{ "type": "Feature", "properties": { "atco_code": "1800SJ10951", "common_name": "St David's", "street": "Grove Lane", "area_code": "E08000009", "area_name": "Trafford", "lon": -2.36572003, "lat": 53.4167099 }, "geometry": { "type": "Point", "coordinates": [ -2.3269731492, 53.380707752600003 ] } },
{ "type": "Feature", "properties": { "atco_code": "1800SJ10941", "common_name": "Bancroft Road", "street": "Grove Lane", "area_code": "E08000009", "area_name": "Trafford", "lon": -2.36572003, "lat": 53.4167099 }, "geometry": { "type": "Point", "coordinates": [ -2.33127711, 53.381289127599999 ] } },
{ "type": "Feature", "properties": { "atco_code": "1800SJ10931", "common_name": "Football Ground", "street": "Stamford Pk Rd", "area_code": "E08000009", "area_name": "Trafford", "lon": -2.36572003, "lat": 53.4167099 }, "geometry": { "type": "Point", "coordinates": [ -2.3371096196, 53.383142423199999 ] } },
{ "type": "Feature", "properties": { "atco_code": "1800SJ48591", "common_name": "Moss Brow", "street": "Dunham Road", "area_code": "E08000009", "area_name": "Trafford", "lon": -2.36572003, "lat": 53.4167099 }, "geometry": { "type": "Point", "coordinates": [ -2.4379475823, 53.399785456700002 ] } },
{ "type": "Feature", "properties": { "atco_code": "1800SJ48681", "common_name": "Bent Lane", "street": "Paddock Lane", "area_code": "E08000009", "area_name": "Trafford", "lon": -2.36572003, "lat": 53.4167099 }, "geometry": { "type": "Point", "coordinates": [ -2.4458477805, 53.400196646799998 ] } },
{ "type": "Feature", "properties": { "atco_code": "1800SJ48611", "common_name": "Bent Lane", "street": "Paddock Lane", "area_code": "E08000009", "area_name": "Trafford", "lon": -2.36572003, "lat": 53.4167099 }, "geometry": { "type": "Point", "coordinates": [ -2.4459524919, 53.400142323799997 ] } },
{ "type": "Feature", "properties": { "atco_code": "1800SJ48691", "common_name": "Saracens Head", "street": "Paddock Lane", "area_code": "E08000009", "area_name": "Trafford", "lon": -2.36572003, "lat": 53.4167099 }, "geometry": { "type": "Point", "coordinates": [ -2.4435871051, 53.399746650700003 ] } },
{ "type": "Feature", "properties": { "atco_code": "1800SJ48701", "common_name": "Moss Brow", "street": "Dunham Road", "area_code": "E08000009", "area_name": "Trafford", "lon": -2.36572003, "lat": 53.4167099 }, "geometry": { "type": "Point", "coordinates": [ -2.4380391108, 53.3999109616 ] } },
{ "type": "Feature", "properties": { "atco_code": "1800SJ18571", "common_name": "St Werburg's Church", "street": "Bent Lane", "area_code": "E08000009", "area_name": "Trafford", "lon": -2.36572003, "lat": 53.4167099 }, "geometry": { "type": "Point", "coordinates": [ -2.4458290735, 53.398407978100003 ] } },
{ "type": "Feature", "properties": { "atco_code": "1800SJH2941", "common_name": "Turning Circle", "street": "Dunham Road", "area_code": "E08000009", "area_name": "Trafford", "lon": -2.36572003, "lat": 53.4167099 }, "geometry": { "type": "Point", "coordinates": [ -2.3622462842, 53.386682176599997 ] } },
{ "type": "Feature", "properties": { "atco_code": "1800SJ15831", "common_name": "Oldfield Shops", "street": "Seamons Road", "area_code": "E08000009", "area_name": "Trafford", "lon": -2.36572003, "lat": 53.4167099 }, "geometry": { "type": "Point", "coordinates": [ -2.3704024008, 53.392688502799999 ] } },
{ "type": "Feature", "properties": { "atco_code": "1800SJ11091", "common_name": "John Leigh Park", "street": "Oldfield Road", "area_code": "E08000009", "area_name": "Trafford", "lon": -2.36572003, "lat": 53.4167099 }, "geometry": { "type": "Point", "coordinates": [ -2.3554886644, 53.393075435500002 ] } },
{ "type": "Feature", "properties": { "atco_code": "1800SJ11101", "common_name": "Hartley Road", "street": "Oldfield Road", "area_code": "E08000009", "area_name": "Trafford", "lon": -2.36572003, "lat": 53.4167099 }, "geometry": { "type": "Point", "coordinates": [ -2.3598527519, 53.391678106100002 ] } },
{ "type": "Feature", "properties": { "atco_code": "1800SJ11111", "common_name": "Gorsey Lane", "street": "Oldfield Road", "area_code": "E08000009", "area_name": "Trafford", "lon": -2.36572003, "lat": 53.4167099 }, "geometry": { "type": "Point", "coordinates": [ -2.3633675429, 53.391227011399998 ] } },
{ "type": "Feature", "properties": { "atco_code": "1800SJ11121", "common_name": "Taylor Road", "street": "Walton Road", "area_code": "E08000009", "area_name": "Trafford", "lon": -2.36572003, "lat": 53.4167099 }, "geometry": { "type": "Point", "coordinates": [ -2.3689672871, 53.391928916300003 ] } },
{ "type": "Feature", "properties": { "atco_code": "1800SJ17581", "common_name": "Church Street", "street": "Oldfield Road", "area_code": "E08000009", "area_name": "Trafford", "lon": -2.36572003, "lat": 53.4167099 }, "geometry": { "type": "Point", "coordinates": [ -2.3529308822, 53.392903256399997 ] } },
{ "type": "Feature", "properties": { "atco_code": "1800SJ11131", "common_name": "Bonville Road", "street": "Oldfield Road", "area_code": "E08000009", "area_name": "Trafford", "lon": -2.36572003, "lat": 53.4167099 }, "geometry": { "type": "Point", "coordinates": [ -2.3704105311, 53.390162674300001 ] } },
{ "type": "Feature", "properties": { "atco_code": "1800SJ11141", "common_name": "Oldfield Road", "street": "Greenway", "area_code": "E08000009", "area_name": "Trafford", "lon": -2.36572003, "lat": 53.4167099 }, "geometry": { "type": "Point", "coordinates": [ -2.373628385, 53.390170618500001 ] } },
{ "type": "Feature", "properties": { "atco_code": "1800SJ11171", "common_name": "Gorsey Lane", "street": "Oldfield Road", "area_code": "E08000009", "area_name": "Trafford", "lon": -2.36572003, "lat": 53.4167099 }, "geometry": { "type": "Point", "coordinates": [ -2.3642870645, 53.391493866200001 ] } },
{ "type": "Feature", "properties": { "atco_code": "1800SJ11181", "common_name": "Hartley Road", "street": "Oldfield Road", "area_code": "E08000009", "area_name": "Trafford", "lon": -2.36572003, "lat": 53.4167099 }, "geometry": { "type": "Point", "coordinates": [ -2.3596290237, 53.3918945076 ] } },
{ "type": "Feature", "properties": { "atco_code": "1800SJ11191", "common_name": "John Leigh Park", "street": "Oldfield Road", "area_code": "E08000009", "area_name": "Trafford", "lon": -2.36572003, "lat": 53.4167099 }, "geometry": { "type": "Point", "coordinates": [ -2.3558663906, 53.393290036300002 ] } },
{ "type": "Feature", "properties": { "atco_code": "1800SJH1861", "common_name": "Loreto Grammar School", "street": "Hartley Road", "area_code": "E08000009", "area_name": "Trafford", "lon": -2.36572003, "lat": 53.4167099 }, "geometry": { "type": "Point", "coordinates": [ -2.3582035096, 53.388671880499999 ] } },
{ "type": "Feature", "properties": { "atco_code": "1800SJH1801", "common_name": "War Memorial (Sbnd)", "street": "St Margarets Rd", "area_code": "E08000009", "area_name": "Trafford", "lon": -2.36572003, "lat": 53.4167099 }, "geometry": { "type": "Point", "coordinates": [ -2.3619736748, 53.386449299699997 ] } },
{ "type": "Feature", "properties": { "atco_code": "1800SJH1671", "common_name": "Stokoe Avenue (Ebd)", "street": "Stokoe Avenue", "area_code": "E08000009", "area_name": "Trafford", "lon": -2.36572003, "lat": 53.4167099 }, "geometry": { "type": "Point", "coordinates": [ -2.3734896805, 53.393218196299998 ] } },
{ "type": "Feature", "properties": { "atco_code": "1800SJ47341", "common_name": "Market", "street": "Springfield Rd", "area_code": "E08000009", "area_name": "Trafford", "lon": -2.36572003, "lat": 53.4167099 }, "geometry": { "type": "Point", "coordinates": [ -2.321778702, 53.423462642499999 ] } },
{ "type": "Feature", "properties": { "atco_code": "1800SJ47351", "common_name": "Sainsbury's", "street": "Ashfield Road", "area_code": "E08000009", "area_name": "Trafford", "lon": -2.36572003, "lat": 53.4167099 }, "geometry": { "type": "Point", "coordinates": [ -2.3216803203, 53.426375201100001 ] } },
{ "type": "Feature", "properties": { "atco_code": "1800SJ47281", "common_name": "Wardle Road", "street": "Northenden Road", "area_code": "E08000009", "area_name": "Trafford", "lon": -2.36572003, "lat": 53.4167099 }, "geometry": { "type": "Point", "coordinates": [ -2.3158207068, 53.423604397600002 ] } },
{ "type": "Feature", "properties": { "atco_code": "1800SJ47381", "common_name": "Claremont Road", "street": "Ashfield Road", "area_code": "E08000009", "area_name": "Trafford", "lon": -2.36572003, "lat": 53.4167099 }, "geometry": { "type": "Point", "coordinates": [ -2.3203077669, 53.425965419 ] } },