{
"type": "FeatureCollection",
"name": "trafford_bus_stops",
"crs": { "type": "name", "properties": { "name": "urn:ogc:def:crs:OGC:1.3:CRS84" } },
"features": [
{ "type": "Feature", "properties": { "atco_code": "1800SJ47601", "common_name": "Abington Road", "street": "Marsland Road", "area_code": "E08000009", "area_name": "Trafford", "lon": -2.36572, "lat": 53.41671 }, "geometry": { "type": "Point", "coordinates": [ -2.317611, 53.41754 ] } },
{ "type": "Feature", "properties": { "atco_code": "1800SJ03561", "common_name": "Ackers Farm", "street": "Carrington Lane", "area_code": "E08000009", "area_name": "Trafford", "lon": -2.36572, "lat": 53.41671 }, "geometry": { "type": "Point", "coordinates": [ -2.368715, 53.43231 ] } },
{ "type": "Feature", "properties": { "atco_code": "1800SJ03571", "common_name": "Ackers Farm", "street": "Carrington Lane", "area_code": "E08000009", "area_name": "Trafford", "lon": -2.36572, "lat": 53.41671 }, "geometry": { "type": "Point", "coordinates": [ -2.369411, 53.43271 ] } },
{ "type": "Feature", "properties": { "atco_code": "1800SJ48171", "common_name": "Ackers Lane", "street": "Manchester Road", "area_code": "E08000009", "area_name": "Trafford", "lon": -2.36572, "lat": 53.41671 }, "geometry": { "type": "Point", "coordinates": [ -2.386555, 53.43278 ] } },
{ "type": "Feature", "properties": { "atco_code": "1800SJ48181", "common_name": "Ackers Lane", "street": "Manchester Road", "area_code": "E08000009", "area_name": "Trafford", "lon": -2.36572, "lat": 53.41671 }, "geometry": { "type": "Point", "coordinates": [ -2.386209, 53.43283 ] } },
{ "type": "Feature", "properties": { "atco_code": "1800SJ48151", "common_name": "Addison Road", "street": "Manchester Road", "area_code": "E08000009", "area_name": "Trafford", "lon": -2.36572, "lat": 53.41671 }, "geometry": { "type": "Point", "coordinates": [ -2.397987, 53.43206 ] } },
{ "type": "Feature", "properties": { "atco_code": "1800SJ48201", "common_name": "Addison Road", "street": "Manchester Road", "area_code": "E08000009", "area_name": "Trafford", "lon": -2.36572, "lat": 53.41671 }, "geometry": { "type": "Point", "coordinates": [ -2.399914, 53.432 ] } },
{ "type": "Feature", "properties": { "atco_code": "1800SJ48141", "common_name": "Air Products", "street": "Manchester Road", "area_code": "E08000009", "area_name": "Trafford", "lon": -2.36572, "lat": 53.41671 }, "geometry": { "type": "Point", "coordinates": [ -2.408297, 53.43203 ] } },
{ "type": "Feature", "properties": { "atco_code": "1800SJ48211", "common_name": "Air Products", "street": "Manchester Road", "area_code": "E08000009", "area_name": "Trafford", "lon": -2.36572, "lat": 53.41671 }, "geometry": { "type": "Point", "coordinates": [ -2.406467, 53.43266 ] } },
{ "type": "Feature", "properties": { "atco_code": "1800SJ12081", "common_name": "Akzo Nobel", "street": "Barton Dock Rd", "area_code": "E08000009", "area_name": "Trafford", "lon": -2.36572, "lat": 53.41671 }, "geometry": { "type": "Point", "coordinates": [ -2.327146, 53.46003 ] } },
{ "type": "Feature", "properties": { "atco_code": "1800SJ11481", "common_name": "Alan Drive", "street": "Arthog Road", "area_code": "E08000009", "area_name": "Trafford", "lon": -2.36572, "lat": 53.41671 }, "geometry": { "type": "Point", "coordinates": [ -2.330949, 53.37003 ] } },
{ "type": "Feature", "properties": { "atco_code": "1800SJ11321", "common_name": "Alan Drive", "street": "Arthog Road", "area_code": "E08000009", "area_name": "Trafford", "lon": -2.36572, "lat": 53.41671 }, "geometry": { "type": "Point", "coordinates": [ -2.330739, 53.36999 ] } },
{ "type": "Feature", "properties": { "atco_code": "1800SJ47231", "common_name": "Alexandra Road", "street": "Marsland Road", "area_code": "E08000009", "area_name": "Trafford", "lon": -2.36572, "lat": 53.41671 }, "geometry": { "type": "Point", "coordinates": [ -2.307209, 53.4188 ] } },
{ "type": "Feature", "properties": { "atco_code": "1800SJ47571", "common_name": "Alexandra Road", "street": "Marsland Road", "area_code": "E08000009", "area_name": "Trafford", "lon": -2.36572, "lat": 53.41671 }, "geometry": { "type": "Point", "coordinates": [ -2.307522, 53.41848 ] } },
{ "type": "Feature", "properties": { "atco_code": "1800SJ41361", "common_name": "All Saints Church", "street": "Hale Road", "area_code": "E08000009", "area_name": "Trafford", "lon": -2.36572, "lat": 53.41671 }, "geometry": { "type": "Point", "coordinates": [ -2.31381, 53.36917 ] } },
{ "type": "Feature", "properties": { "atco_code": "1800SJ41371", "common_name": "All Saints Church", "street": "Hale Road", "area_code": "E08000009", "area_name": "Trafford", "lon": -2.36572, "lat": 53.41671 }, "geometry": { "type": "Point", "coordinates": [ -2.313931, 53.36938 ] } },
{ "type": "Feature", "properties": { "atco_code": "1800SJH2931", "common_name": "Altrincham College of Arts", "street": "Green Lane", "area_code": "E08000009", "area_name": "Trafford", "lon": -2.36572, "lat": 53.41671 }, "geometry": { "type": "Point", "coordinates": [ -2.323584, 53.38377 ] } },
{ "type": "Feature", "properties": { "atco_code": "1800SJH2861", "common_name": "Altrincham Grammar School for Boys", "street": "Marlborough Rd", "area_code": "E08000009", "area_name": "Trafford", "lon": -2.36572, "lat": 53.41671 }, "geometry": { "type": "Point", "coordinates": [ -2.351686, 53.37683 ] } },
{ "type": "Feature", "properties": { "atco_code": "1800SJH2871", "common_name": "Altrincham Grammar School for Boys", "street": "Marlborough Rd", "area_code": "E08000009", "area_name": "Trafford", "lon": -2.36572, "lat": 53.41671 }, "geometry": { "type": "Point", "coordinates": [ -2.351819, 53.37662 ] } },
{ "type": "Feature", "properties": { "atco_code": "1800SJH2881", "common_name": "Altrincham Grammar School For Girls", "street": "Higher Downs", "area_code": "E08000009", "area_name": "Trafford", "lon": -2.36572, "lat": 53.41671 }, "geometry": { "type": "Point", "coordinates": [ -2.358642, 53.38187 ] } },
{ "type": "Feature", "properties": { "atco_code": "1800SJH2891", "common_name": "Altrincham Grammar School for Girls", "street": "Higher Downs", "area_code": "E08000009", "area_name": "Trafford", "lon": -2.36572, "lat": 53.41671 }, "geometry": { "type": "Point", "coordinates": [ -2.359152, 53.38167 ] } },
{ "type": "Feature", "properties": { "atco_code": "1800SJ01741", "common_name": "Altrincham Railway Station", "street": "Station Appr/Ch", "area_code": "E08000009", "area_name": "Trafford", "lon": -2.36572, "lat": 53.41671 }, "geometry": { "type": "Point", "coordinates": [ -2.34662, 53.38799 ] } },
{ "type": "Feature", "properties": { "atco_code": "1800SJ09371", "common_name": "Arderne Road", "street": "Riddings Road", "area_code": "E08000009", "area_name": "Trafford", "lon": -2.36572, "lat": 53.41671 }, "geometry": { "type": "Point", "coordinates": [ -2.328798, 53.40675 ] } },
{ "type": "Feature", "properties": { "atco_code": "1800SJ49261", "common_name": "Arderne Road", "street": "Riddings Road", "area_code": "E08000009", "area_name": "Trafford", "lon": -2.36572, "lat": 53.41671 }, "geometry": { "type": "Point", "coordinates": [ -2.328932, 53.4066 ] } },
{ "type": "Feature", "properties": { "atco_code": "1800SJ03961", "common_name": "Arran Gardens", "street": "Shetland Way", "area_code": "E08000009", "area_name": "Trafford", "lon": -2.36572, "lat": 53.41671 }, "geometry": { "type": "Point", "coordinates": [ -2.354558, 53.46198 ] } },
{ "type": "Feature", "properties": { "atco_code": "1800SJ03951", "common_name": "Arran Gardens", "street": "Shetland Way", "area_code": "E08000009", "area_name": "Trafford", "lon": -2.36572, "lat": 53.41671 }, "geometry": { "type": "Point", "coordinates": [ -2.355055, 53.46194 ] } },
{ "type": "Feature", "properties": { "atco_code": "1800SJ11301", "common_name": "Arthog Road", "street": "Park Road", "area_code": "E08000009", "area_name": "Trafford", "lon": -2.36572, "lat": 53.41671 }, "geometry": { "type": "Point", "coordinates": [ -2.339627, 53.37073 ] } },
{ "type": "Feature", "properties": { "atco_code": "1800SJ11501", "common_name": "Arthog Road", "street": "Park Road", "area_code": "E08000009", "area_name": "Trafford", "lon": -2.36572, "lat": 53.41671 }, "geometry": { "type": "Point", "coordinates": [ -2.339746, 53.37062 ] } },
{ "type": "Feature", "properties": { "atco_code": "1800SJ03681", "common_name": "Ascot Avenue", "street": "Manor Avenue", "area_code": "E08000009", "area_name": "Trafford", "lon": -2.36572, "lat": 53.41671 }, "geometry": { "type": "Point", "coordinates": [ -2.352531, 53.41724 ] } },
{ "type": "Feature", "properties": { "atco_code": "1800SJ03891", "common_name": "Ascot Avenue", "street": "Manor Avenue", "area_code": "E08000009", "area_name": "Trafford", "lon": -2.36572, "lat": 53.41671 }, "geometry": { "type": "Point", "coordinates": [ -2.352664, 53.41695 ] } },
{ "type": "Feature", "properties": { "atco_code": "1800SJ18511", "common_name": "Asda", "street": "George Rich Way", "area_code": "E08000009", "area_name": "Trafford", "lon": -2.36572, "lat": 53.41671 }, "geometry": { "type": "Point", "coordinates": [ -2.362906, 53.39882 ] } },
{ "type": "Feature", "properties": { "atco_code": "1800SJ18551", "common_name": "Asda", "street": "Atlantic Street", "area_code": "E08000009", "area_name": "Trafford", "lon": -2.36572, "lat": 53.41671 }, "geometry": { "type": "Point", "coordinates": [ -2.362549, 53.39747 ] } },
{ "type": "Feature", "properties": { "atco_code": "1800SJ41091", "common_name": "Ash Lane", "street": "Grove Lane", "area_code": "E08000009", "area_name": "Trafford", "lon": -2.36572, "lat": 53.41671 }, "geometry": { "type": "Point", "coordinates": [ -2.312088, 53.38043 ] } },
{ "type": "Feature", "properties": { "atco_code": "1800SJ01601", "common_name": "Ashburton Road West", "street": "Guinness Road", "area_code": "E08000009", "area_name": "Trafford", "lon": -2.36572, "lat": 53.41671 }, "geometry": { "type": "Point", "coordinates": [ -2.333776, 53.47379 ] } },
{ "type": "Feature", "properties": { "atco_code": "1800SJ01611", "common_name": "Ashburton Road West", "street": "Guinness Road", "area_code": "E08000009", "area_name": "Trafford", "lon": -2.36572, "lat": 53.41671 }, "geometry": { "type": "Point", "coordinates": [ -2.333462, 53.47412 ] } },
{ "type": "Feature", "properties": { "atco_code": "1800SJ11891", "common_name": "Ashfield Road", "street": "Stamford Pk Rd", "area_code": "E08000009", "area_name": "Trafford", "lon": -2.36572, "lat": 53.41671 }, "geometry": { "type": "Point", "coordinates": [ -2.345774, 53.38375 ] } },
{ "type": "Feature", "properties": { "atco_code": "1800SJ03451", "common_name": "Ashfield Road", "street": "Cross Street", "area_code": "E08000009", "area_name": "Trafford", "lon": -2.36572, "lat": 53.41671 }, "geometry": { "type": "Point", "coordinates": [ -2.32315, 53.42768 ] } },
{ "type": "Feature", "properties": { "atco_code": "1800SJ03301", "common_name": "Ashfield Road", "street": "Cross Street", "area_code": "E08000009", "area_name": "Trafford", "lon": -2.36572, "lat": 53.41671 }, "geometry": { "type": "Point", "coordinates": [ -2.322759, 53.42768 ] } },
{ "type": "Feature", "properties": { "atco_code": "1800SJ04481", "common_name": "Ashlands", "street": "Ashton Lane", "area_code": "E08000009", "area_name": "Trafford", "lon": -2.36572, "lat": 53.41671 }, "geometry": { "type": "Point", "coordinates": [ -2.33244, 53.42637 ] } },
{ "type": "Feature", "properties": { "atco_code": "1800SJ04221", "common_name": "Ashlands", "street": "Ashton Lane", "area_code": "E08000009", "area_name": "Trafford", "lon": -2.36572, "lat": 53.41671 }, "geometry": { "type": "Point", "coordinates": [ -2.332695, 53.42622 ] } },
{ "type": "Feature", "properties": { "atco_code": "1800SJ49411", "common_name": "Ashton Avenue", "street": "Ellesmere Road", "area_code": "E08000009", "area_name": "Trafford", "lon": -2.36572, "lat": 53.41671 }, "geometry": { "type": "Point", "coordinates": [ -2.345181, 53.39407 ] } },
{ "type": "Feature", "properties": { "atco_code": "1800SJ49381", "common_name": "Ashton Avenue", "street": "Ellesmere Road", "area_code": "E08000009", "area_name": "Trafford", "lon": -2.36572, "lat": 53.41671 }, "geometry": { "type": "Point", "coordinates": [ -2.344954, 53.39392 ] } },
{ "type": "Feature", "properties": { "atco_code": "1800SJ04371", "common_name": "Ashton Lane", "street": "Grosvenor Road", "area_code": "E08000009", "area_name": "Trafford", "lon": -2.36572, "lat": 53.41671 }, "geometry": { "type": "Point", "coordinates": [ -2.337546, 53.42691 ] } },
{ "type": "Feature", "properties": { "atco_code": "1800SJ04471", "common_name": "Ashton Lane", "street": "Grosvenor Road", "area_code": "E08000009", "area_name": "Trafford", "lon": -2.36572, "lat": 53.41671 }, "geometry": { "type": "Point", "coordinates": [ -2.33759, 53.42672 ] } },
{ "type": "Feature", "properties": { "atco_code": "1800SJ04451", "common_name": "Ashton Park", "street": "Grosvenor Road", "area_code": "E08000009", "area_name": "Trafford", "lon": -2.36572, "lat": 53.41671 }, "geometry": { "type": "Point", "coordinates": [ -2.332987, 53.43087 ] } },
{ "type": "Feature", "properties": { "atco_code": "1800SJ30191", "common_name": "Ayres Road", "street": "Seymour Grove", "area_code": "E08000009", "area_name": "Trafford", "lon": -2.36572, "lat": 53.41671 }, "geometry": { "type": "Point", "coordinates": [ -2.274593, 53.45686 ] } },
{ "type": "Feature", "properties": { "atco_code": "1800SJ30201", "common_name": "Ayres Road", "street": "Seymour Grove", "area_code": "E08000009", "area_name": "Trafford", "lon": -2.36572, "lat": 53.41671 }, "geometry": { "type": "Point", "coordinates": [ -2.275156, 53.45782 ] } },
{ "type": "Feature", "properties": { "atco_code": "1800SJ02901", "common_name": "Balmain Road", "street": "Cornhill Road", "area_code": "E08000009", "area_name": "Trafford", "lon": -2.36572, "lat": 53.41671 }, "geometry": { "type": "Point", "coordinates": [ -2.364658, 53.4542 ] } },
{ "type": "Feature", "properties": { "atco_code": "1800SJ10941", "common_name": "Bancroft Road", "street": "Grove Lane", "area_code": "E08000009", "area_name": "Trafford", "lon": -2.36572, "lat": 53.41671 }, "geometry": { "type": "Point", "coordinates": [ -2.331277, 53.38129 ] } },
{ "type": "Feature", "properties": { "atco_code": "1800SJ11071", "common_name": "Bancroft Road", "street": "Grove Lane", "area_code": "E08000009", "area_name": "Trafford", "lon": -2.36572, "lat": 53.41671 }, "geometry": { "type": "Point", "coordinates": [ -2.331502, 53.38123 ] } },
{ "type": "Feature", "properties": { "atco_code": "1800SJ41631", "common_name": "Baptist Church", "street": "Hale Road", "area_code": "E08000009", "area_name": "Trafford", "lon": -2.36572, "lat": 53.41671 }, "geometry": { "type": "Point", "coordinates": [ -2.350313, 53.38177 ] } },
{ "type": "Feature", "properties": { "atco_code": "1800SJ03411", "common_name": "Barkers Lane", "street": "Washway Road", "area_code": "E08000009", "area_name": "Trafford", "lon": -2.36572, "lat": 53.41671 }, "geometry": { "type": "Point", "coordinates": [ -2.329636, 53.42183 ] } },
{ "type": "Feature", "properties": { "atco_code": "1800SJ04381", "common_name": "Barnfield Crescent", "street": "Grosvenor Road", "area_code": "E08000009", "area_name": "Trafford", "lon": -2.36572, "lat": 53.41671 }, "geometry": { "type": "Point", "coordinates": [ -2.335708, 53.42855 ] } },
{ "type": "Feature", "properties": { "atco_code": "1800SJ04461", "common_name": "Barnfield Crescent", "street": "Grosvenor Road", "area_code": "E08000009", "area_name": "Trafford", "lon": -2.36572, "lat": 53.41671 }, "geometry": { "type": "Point", "coordinates": [ -2.334407, 53.42958 ] } },
{ "type": "Feature", "properties": { "atco_code": "1800SJ49391", "common_name": "Barrington Road", "street": "Gaskell Road", "area_code": "E08000009", "area_name": "Trafford", "lon": -2.36572, "lat": 53.41671 }, "geometry": { "type": "Point", "coordinates": [ -2.348467, 53.39316 ] } },
{ "type": "Feature", "properties": { "atco_code": "1800SJ49401", "common_name": "Barrington Road", "street": "Gaskell Road", "area_code": "E08000009", "area_name": "Trafford", "lon": -2.36572, "lat": 53.41671 }, "geometry": { "type": "Point", "coordinates": [ -2.34856, 53.39346 ] } },
{ "type": "Feature", "properties": { "atco_code": "1800SJ10671", "common_name": "Barry Rise", "street": "Park Road", "area_code": "E08000009", "area_name": "Trafford", "lon": -2.36572, "lat": 53.41671 }, "geometry": { "type": "Point", "coordinates": [ -2.373792, 53.37965 ] } },
{ "type": "Feature", "properties": { "atco_code": "1800SJ00241", "common_name": "Barton Embankment", "street": "Trafford Way", "area_code": "E08000009", "area_name": "Trafford", "lon": -2.36572, "lat": 53.41671 }, "geometry": { "type": "Point", "coordinates": [ -2.356383, 53.46947 ] } },
{ "type": "Feature", "properties": { "atco_code": "1800SJ03001", "common_name": "Barton Road", "street": "Broadway", "area_code": "E08000009", "area_name": "Trafford", "lon": -2.36572, "lat": 53.41671 }, "geometry": { "type": "Point", "coordinates": [ -2.358757, 53.45974 ] } },
{ "type": "Feature", "properties": { "atco_code": "1800SJ03131", "common_name": "Barton Road", "street": "Broadway", "area_code": "E08000009", "area_name": "Trafford", "lon": -2.36572, "lat": 53.41671 }, "geometry": { "type": "Point", "coordinates": [ -2.358908, 53.45984 ] } },
{ "type": "Feature", "properties": { "atco_code": "1800SJ11911", "common_name": "Beech Rd", "street": "Hale Road", "area_code": "E08000009", "area_name": "Trafford", "lon": -2.36572, "lat": 53.41671 }, "geometry": { "type": "Point", "coordinates": [ -2.34351, 53.38073 ] } },
{ "type": "Feature", "properties": { "atco_code": "1800SJ17201", "common_name": "Beechfield", "street": "Washway Road", "area_code": "E08000009", "area_name": "Trafford", "lon": -2.36572, "lat": 53.41671 }, "geometry": { "type": "Point", "coordinates": [ -2.339346, 53.41286 ] } },
{ "type": "Feature", "properties": { "atco_code": "1800SJ48681", "common_name": "Bent Lane", "street": "Paddock Lane", "area_code": "E08000009", "area_name": "Trafford", "lon": -2.36572, "lat": 53.41671 }, "geometry": { "type": "Point", "coordinates": [ -2.445848, 53.4002 ] } },
{ "type": "Feature", "properties": { "atco_code": "1800SJ48611", "common_name": "Bent Lane", "street": "Paddock Lane", "area_code": "E08000009", "area_name": "Trafford", "lon": -2.36572, "lat": 53.41671 }, "geometry": { "type": "Point", "coordinates": [ -2.445952, 53.40014 ] } },
{ "type": "Feature", "properties": { "atco_code": "1800SJ03041", "common_name": "Bent Lanes", "street": "Woodhouse Road", "area_code": "E08000009", "area_name": "Trafford", "lon": -2.36572, "lat": 53.41671 }, "geometry": { "type": "Point", "coordinates": [ -2.374814, 53.45999 ] } },
{ "type": "Feature", "properties": { "atco_code": "1800SJH0641", "common_name": "Birch Rd", "street": "Birch Road", "area_code": "E08000009", "area_name": "Trafford", "lon": -2.36572, "lat": 53.41671 }, "geometry": { "type": "Point", "coordinates": [ -2.438434, 53.41785 ] } },
{ "type": "Feature", "properties": { "atco_code": "1800SJ12461", "common_name": "Blessed Thomas Holford", "street": "Urban Road", "area_code": "E08000009", "area_name": "Trafford", "lon": -2.36572, "lat": 53.41671 }, "geometry": { "type": "Point", "coordinates": [ -2.34157, 53.3863 ] } },
{ "type": "Feature", "properties": { "atco_code": "1800SJ40911", "common_name": "Bloomsbury Lane", "street": "Stockport Road", "area_code": "E08000009", "area_name": "Trafford", "lon": -2.36572, "lat": 53.41671 }, "geometry": { "type": "Point", "coordinates": [ -2.321919, 53.3963 ] } },
{ "type": "Feature", "properties": { "atco_code": "1800SJ40961", "common_name": "Bloomsbury Lane", "street": "Stockport Road", "area_code": "E08000009", "area_name": "Trafford", "lon": -2.36572, "lat": 53.41671 }, "geometry": { "type": "Point", "coordinates": [ -2.320901, 53.39682 ] } },
{ "type": "Feature", "properties": { "atco_code": "1800SJ11131", "common_name": "Bonville Road", "street": "Oldfield Road", "area_code": "E08000009", "area_name": "Trafford", "lon": -2.36572, "lat": 53.41671 }, "geometry": { "type": "Point", "coordinates": [ -2.37041, 53.39016 ] } },
{ "type": "Feature", "properties": { "atco_code": "1800SJ10921", "common_name": "Borough Rd", "street": "Stamford Pk Rd", "area_code": "E08000009", "area_name": "Trafford", "lon": -2.36572, "lat": 53.41671 }, "geometry": { "type": "Point", "coordinates": [ -2.345413, 53.38377 ] } },
{ "type": "Feature", "properties": { "atco_code": "1800SJ10741", "common_name": "Bow Green Road", "street": "Langham Road", "area_code": "E08000009", "area_name": "Trafford", "lon": -2.36572, "lat": 53.41671 }, "geometry": { "type": "Point", "coordinates": [ -2.364655, 53.37645 ] } },
{ "type": "Feature", "properties": { "atco_code": "1800SJH1471", "common_name": "Bow Green Road", "street": "Bow Green Road", "area_code": "E08000009", "area_name": "Trafford", "lon": -2.36572, "lat": 53.41671 }, "geometry": { "type": "Point", "coordinates": [ -2.372092, 53.37259 ] } },
{ "type": "Feature", "properties": { "atco_code": "1800SJ10711", "common_name": "Bow Green Road", "street": "Dunham Road", "area_code": "E08000009", "area_name": "Trafford", "lon": -2.36572, "lat": 53.41671 }, "geometry": { "type": "Point", "coordinates": [ -2.381068, 53.3746 ] } },
{ "type": "Feature", "properties": { "atco_code": "1800SJ10701", "common_name": "Bow Green Road", "street": "Dunham Road", "area_code": "E08000009", "area_name": "Trafford", "lon": -2.36572, "lat": 53.41671 }, "geometry": { "type": "Point", "coordinates": [ -2.380886, 53.37444 ] } },
{ "type": "Feature", "properties": { "atco_code": "1800SJH1461", "common_name": "Bow Green Road", "street": "Bow Green Road", "area_code": "E08000009", "area_name": "Trafford", "lon": -2.36572, "lat": 53.41671 }, "geometry": { "type": "Point", "coordinates": [ -2.368635, 53.37613 ] } },
{ "type": "Feature", "properties": { "atco_code": "1800SJ17031", "common_name": "Bow Green Road", "street": "Langham Road", "area_code": "E08000009", "area_name": "Trafford", "lon": -2.36572, "lat": 53.41671 }, "geometry": { "type": "Point", "coordinates": [ -2.364744, 53.37638 ] } },
{ "type": "Feature", "properties": { "atco_code": "1800SJ10761", "common_name": "Bow Lane", "street": "Priory Road", "area_code": "E08000009", "area_name": "Trafford", "lon": -2.36572, "lat": 53.41671 }, "geometry": { "type": "Point", "coordinates": [ -2.363212, 53.36944 ] } },
{ "type": "Feature", "properties": { "atco_code": "1800SJH2421", "common_name": "Bowden Prepatory School", "street": "Cavendish Road", "area_code": "E08000009", "area_name": "Trafford", "lon": -2.36572, "lat": 53.41671 }, "geometry": { "type": "Point", "coordinates": [ -2.352772, 53.381 ] } },
{ "type": "Feature", "properties": { "atco_code": "1800SJ09581", "common_name": "Bowdon Church", "street": "The Firs", "area_code": "E08000009", "area_name": "Trafford", "lon": -2.36572, "lat": 53.41671 }, "geometry": { "type": "Point", "coordinates": [ -2.363891, 53.37858 ] } },
{ "type": "Feature", "properties": { "atco_code": "1800SJ09591", "common_name": "Bowdon Church", "street": "The Firs", "area_code": "E08000009", "area_name": "Trafford", "lon": -2.36572, "lat": 53.41671 }, "geometry": { "type": "Point", "coordinates": [ -2.363711, 53.37863 ] } },
{ "type": "Feature", "properties": { "atco_code": "1800SJH0861", "common_name": "Bowdon Primary School", "street": "Grange Road", "area_code": "E08000009", "area_name": "Trafford", "lon": -2.36572, "lat": 53.41671 }, "geometry": { "type": "Point", "coordinates": [ -2.356803, 53.37227 ] } },
{ "type": "Feature", "properties": { "atco_code": "1800SJ02501", "common_name": "Bowers Avenue", "street": "Davyhulme Road", "area_code": "E08000009", "area_name": "Trafford", "lon": -2.36572, "lat": 53.41671 }, "geometry": { "type": "Point", "coordinates": [ -2.369499, 53.45672 ] } },
{ "type": "Feature", "properties": { "atco_code": "1800SJ02511", "common_name": "Bowers Avenue", "street": "Davyhulme Road", "area_code": "E08000009", "area_name": "Trafford", "lon": -2.36572, "lat": 53.41671 }, "geometry": { "type": "Point", "coordinates": [ -2.369889, 53.45661 ] } },
{ "type": "Feature", "properties": { "atco_code": "1800SJ02951", "common_name": "Bowfell Circle", "street": "Moorside Road", "area_code": "E08000009", "area_name": "Trafford", "lon": -2.36572, "lat": 53.41671 }, "geometry": { "type": "Point", "coordinates": [ -2.364987, 53.4521 ] } },
{ "type": "Feature", "properties": { "atco_code": "1800SJ02961", "common_name": "Bowfell Circle", "street": "Moorside Road", "area_code": "E08000009", "area_name": "Trafford", "lon": -2.36572, "lat": 53.41671 }, "geometry": { "type": "Point", "coordinates": [ -2.364386, 53.45234 ] } },
{ "type": "Feature", "properties": { "atco_code": "1800SJH1491", "common_name": "Bowgreen Farm", "street": "Bow Lane", "area_code": "E08000009", "area_name": "Trafford", "lon": -2.36572, "lat": 53.41671 }, "geometry": { "type": "Point", "coordinates": [ -2.370825, 53.36871 ] } },
{ "type": "Feature", "properties": { "atco_code": "1800SJ48041", "common_name": "Box Walk", "street": "Wood Lane", "area_code": "E08000009", "area_name": "Trafford", "lon": -2.36572, "lat": 53.41671 }, "geometry": { "type": "Point", "coordinates": [ -2.435217, 53.41516 ] } },
{ "type": "Feature", "properties": { "atco_code": "1800SJ32081", "common_name": "Boyer Street", "street": "Talbot Road", "area_code": "E08000009", "area_name": "Trafford", "lon": -2.36572, "lat": 53.41671 }, "geometry": { "type": "Point", "coordinates": [ -2.279984, 53.46143 ] } },
{ "type": "Feature", "properties": { "atco_code": "1800SJH1911", "common_name": "Boyer Street", "street": "Boyer Street", "area_code": "E08000009", "area_name": "Trafford", "lon": -2.36572, "lat": 53.41671 }, "geometry": { "type": "Point", "coordinates": [ -2.279601, 53.46266 ] } },
{ "type": "Feature", "properties": { "atco_code": "1800SJ32071", "common_name": "Boyer Street", "street": "Talbot Road", "area_code": "E08000009", "area_name": "Trafford", "lon": -2.36572, "lat": 53.41671 }, "geometry": { "type": "Point", "coordinates": [ -2.279895, 53.46162 ] } },
{ "type": "Feature", "properties": { "atco_code": "1800SJ12111", "common_name": "Brackenfield Walk", "street": "Aimson Rd East", "area_code": "E08000009", "area_name": "Trafford", "lon": -2.36572, "lat": 53.41671 }, "geometry": { "type": "Point", "coordinates": [ -2.307986, 53.39528 ] } },
{ "type": "Feature", "properties": { "atco_code": "1800SJ04321", "common_name": "Brayton Ave", "street": "Carrington Lane", "area_code": "E08000009", "area_name": "Trafford", "lon": -2.36572, "lat": 53.41671 }, "geometry": { "type": "Point", "coordinates": [ -2.349699, 53.42966 ] } },
{ "type": "Feature", "properties": { "atco_code": "1800SJ04331", "common_name": "Brayton Ave", "street": "Carrington Lane", "area_code": "E08000009", "area_name": "Trafford", "lon": -2.36572, "lat": 53.41671 }, "geometry": { "type": "Point", "coordinates": [ -2.349157, 53.42972 ] } },
{ "type": "Feature", "properties": { "atco_code": "1800SJ49061", "common_name": "Briarfield Road", "street": "Aimson Rd East", "area_code": "E08000009", "area_name": "Trafford", "lon": -2.36572, "lat": 53.41671 }, "geometry": { "type": "Point", "coordinates": [ -2.309147, 53.39564 ] } },
{ "type": "Feature", "properties": { "atco_code": "1800SJ49071", "common_name": "Briarfield Road", "street": "Aimson Rd East", "area_code": "E08000009", "area_name": "Trafford", "lon": -2.36572, "lat": 53.41671 }, "geometry": { "type": "Point", "coordinates": [ -2.30859, 53.39556 ] } },
{ "type": "Feature", "properties": { "atco_code": "1800SJ00771", "common_name": "Bridge Inn", "street": "Dane Road", "area_code": "E08000009", "area_name": "Trafford", "lon": -2.36572, "lat": 53.41671 }, "geometry": { "type": "Point", "coordinates": [ -2.313617, 53.43081 ] } },
{ "type": "Feature", "properties": { "atco_code": "1800SJ01401", "common_name": "Brightgate Way", "street": "Barton Dock Rd", "area_code": "E08000009", "area_name": "Trafford", "lon": -2.36572, "lat": 53.41671 }, "geometry": { "type": "Point", "coordinates": [ -2.32553, 53.4595 ] } },
{ "type": "Feature", "properties": { "atco_code": "1800SJ17481", "common_name": "Broad Lane", "street": "Hale Road", "area_code": "E08000009", "area_name": "Trafford", "lon": -2.36572, "lat": 53.41671 }, "geometry": { "type": "Point", "coordinates": [ -2.322079, 53.37363 ] } },
{ "type": "Feature", "properties": { "atco_code": "1800SJH2621", "common_name": "Broad Road", "street": "Broad Road", "area_code": "E08000009", "area_name": "Trafford", "lon": -2.36572, "lat": 53.41671 }, "geometry": { "type": "Point", "coordinates": [ -2.318055, 53.42457 ] } },
{ "type": "Feature", "properties": { "atco_code": "1800SJ09431", "common_name": "Broadheath Primary", "street": "Sinderland Road", "area_code": "E08000009", "area_name": "Trafford", "lon": -2.36572, "lat": 53.41671 }, "geometry": { "type": "Point", "coordinates": [ -2.361571, 53.40452 ] } },
{ "type": "Feature", "properties": { "atco_code": "1800SJ48411", "common_name": "Broadheath Primary", "street": "Sinderland Road", "area_code": "E08000009", "area_name": "Trafford", "lon": -2.36572, "lat": 53.41671 }, "geometry": { "type": "Point", "coordinates": [ -2.359954, 53.40371 ] } },
{ "type": "Feature", "properties": { "atco_code": "1800SJ04161", "common_name": "Broadoak", "street": "Ashburton Rd W", "area_code": "E08000009", "area_name": "Trafford", "lon": -2.36572, "lat": 53.41671 }, "geometry": { "type": "Point", "coordinates": [ -2.338177, 53.47215 ] } },
{ "type": "Feature", "properties": { "atco_code": "1800SJ03231", "common_name": "Broadoak", "street": "Ashburton Rd W", "area_code": "E08000009", "area_name": "Trafford", "lon": -2.36572, "lat": 53.41671 }, "geometry": { "type": "Point", "coordinates": [ -2.337623, 53.47263 ] } },
{ "type": "Feature", "properties": { "atco_code": "1800SJ48321", "common_name": "Broadoak School", "street": "Warburton Lane", "area_code": "E08000009", "area_name": "Trafford", "lon": -2.36572, "lat": 53.41671 }, "geometry": { "type": "Point", "coordinates": [ -2.431711, 53.41216 ] } },
{ "type": "Feature", "properties": { "atco_code": "1800SJ48331", "common_name": "Broadoak School", "street": "Warburton Lane", "area_code": "E08000009", "area_name": "Trafford", "lon": -2.36572, "lat": 53.41671 }, "geometry": { "type": "Point", "coordinates": [ -2.431818, 53.41233 ] } },
{ "type": "Feature", "properties": { "atco_code": "1800SJ03421", "common_name": "Broadoaks Road", "street": "Washway Road", "area_code": "E08000009", "area_name": "Trafford", "lon": -2.36572, "lat": 53.41671 }, "geometry": { "type": "Point", "coordinates": [ -2.327857, 53.42339 ] } },
{ "type": "Feature", "properties": { "atco_code": "1800SJ03331", "common_name": "Broadoaks Road", "street": "Washway Road", "area_code": "E08000009", "area_name": "Trafford", "lon": -2.36572, "lat": 53.41671 }, "geometry": { "type": "Point", "coordinates": [ -2.327765, 53.42315 ] } },
{ "type": "Feature", "properties": { "atco_code": "1800SJ48101", "common_name": "Broadway", "street": "Manchester Road", "area_code": "E08000009", "area_name": "Trafford", "lon": -2.36572, "lat": 53.41671 }, "geometry": { "type": "Point", "coordinates": [ -2.419526, 53.42136 ] } },
{ "type": "Feature", "properties": { "atco_code": "1800SJ48251", "common_name": "Broadway", "street": "Manchester Road", "area_code": "E08000009", "area_name": "Trafford", "lon": -2.36572, "lat": 53.41671 }, "geometry": { "type": "Point", "coordinates": [ -2.421148, 53.42112 ] } },
{ "type": "Feature", "properties": { "atco_code": "1800SJH0391", "common_name": "Broadway", "street": "Broadway", "area_code": "E08000009", "area_name": "Trafford", "lon": -2.36572, "lat": 53.41671 }, "geometry": { "type": "Point", "coordinates": [ -2.415961, 53.41848 ] } },
{ "type": "Feature", "properties": { "atco_code": "1800SJ41431", "common_name": "Broadway", "street": "Hale Road", "area_code": "E08000009", "area_name": "Trafford", "lon": -2.36572, "lat": 53.41671 }, "geometry": { "type": "Point", "coordinates": [ -2.323121, 53.37423 ] } },
{ "type": "Feature", "properties": { "atco_code": "1800SJ03031", "common_name": "Broadway", "street": "Woodhouse Road", "area_code": "E08000009", "area_name": "Trafford", "lon": -2.36572, "lat": 53.41671 }, "geometry": { "type": "Point", "coordinates": [ -2.373755, 53.45943 ] } },
{ "type": "Feature", "properties": { "atco_code": "1800SJH0131", "common_name": "Brook Rd", "street": "Brook Road", "area_code": "E08000009", "area_name": "Trafford", "lon": -2.36572, "lat": 53.41671 }, "geometry": { "type": "Point", "coordinates": [ -2.374633, 53.44968 ] } },
{ "type": "Feature", "properties": { "atco_code": "1800SJ02851", "common_name": "Brook Road", "street": "Moorside Road", "area_code": "E08000009", "area_name": "Trafford", "lon": -2.36572, "lat": 53.41671 }, "geometry": { "type": "Point", "coordinates": [ -2.374745, 53.4522 ] } },
{ "type": "Feature", "properties": { "atco_code": "1800SJ02841", "common_name": "Brook Road", "street": "Moorside Road", "area_code": "E08000009", "area_name": "Trafford", "lon": -2.36572, "lat": 53.41671 }, "geometry": { "type": "Point", "coordinates": [ -2.375499, 53.45227 ] } },
{ "type": "Feature", "properties": { "atco_code": "1800SJ30021", "common_name": "Brook's Bar", "street": "Upp Chorlton Rd", "area_code": "E08000009", "area_name": "Trafford", "lon": -2.36572, "lat": 53.41671 }, "geometry": { "type": "Point", "coordinates": [ -2.259135, 53.45839 ] } },
{ "type": "Feature", "properties": { "atco_code": "1800SJ49291", "common_name": "Brookfield Drive", "street": "Park Road", "area_code": "E08000009", "area_name": "Trafford", "lon": -2.36572, "lat": 53.41671 }, "geometry": { "type": "Point", "coordinates": [ -2.32778, 53.40162 ] } },
{ "type": "Feature", "properties": { "atco_code": "1800SJ49161", "common_name": "Brookfield Drive", "street": "Park Road", "area_code": "E08000009", "area_name": "Trafford", "lon": -2.36572, "lat": 53.41671 }, "geometry": { "type": "Point", "coordinates": [ -2.328111, 53.40156 ] } },
{ "type": "Feature", "properties": { "atco_code": "1800SJ41391", "common_name": "Brooks Drive", "street": "Hale Road", "area_code": "E08000009", "area_name": "Trafford", "lon": -2.36572, "lat": 53.41671 }, "geometry": { "type": "Point", "coordinates": [ -2.303686, 53.36582 ] } },
{ "type": "Feature", "properties": { "atco_code": "1800SJ41621", "common_name": "Broom Road", "street": "Hale Road", "area_code": "E08000009", "area_name": "Trafford", "lon": -2.36572, "lat": 53.41671 }, "geometry": { "type": "Point", "coordinates": [ -2.344051, 53.38074 ] } },
{ "type": "Feature", "properties": { "atco_code": "1800SJ41611", "common_name": "Broomfield Lane", "street": "Hale Road", "area_code": "E08000009", "area_name": "Trafford", "lon": -2.36572, "lat": 53.41671 }, "geometry": { "type": "Point", "coordinates": [ -2.34104, 53.38016 ] } },
{ "type": "Feature", "properties": { "atco_code": "1800SJ04311", "common_name": "Buck Lane", "street": "Carrington Lane", "area_code": "E08000009", "area_name": "Trafford", "lon": -2.36572, "lat": 53.41671 }, "geometry": { "type": "Point", "coordinates": [ -2.345511, 53.42917 ] } },
{ "type": "Feature", "properties": { "atco_code": "1800SJ04341", "common_name": "Buck Lane", "street": "Carrington Lane", "area_code": "E08000009", "area_name": "Trafford", "lon": -2.36572, "lat": 53.41671 }, "geometry": { "type": "Point", "coordinates": [ -2.344711, 53.42894 ] } },
{ "type": "Feature", "properties": { "atco_code": "1800SJ41041", "common_name": "Bulls Head", "street": "Wicker Lane", "area_code": "E08000009", "area_name": "Trafford", "lon": -2.36572, "lat": 53.41671 }, "geometry": { "type": "Point", "coordinates": [ -2.316127, 53.36958 ] } },
{ "type": "Feature", "properties": { "atco_code": "1800SJ41191", "common_name": "Bulls Head", "street": "Wicker Lane", "area_code": "E08000009", "area_name": "Trafford", "lon": -2.36572, "lat": 53.41671 }, "geometry": { "type": "Point", "coordinates": [ -2.316231, 53.36935 ] } },
{ "type": "Feature", "properties": { "atco_code": "1800SJ02601", "common_name": "Calderbank Avenue", "street": "Woodsend Road", "area_code": "E08000009", "area_name": "Trafford", "lon": -2.36572, "lat": 53.41671 }, "geometry": { "type": "Point", "coordinates": [ -2.38859, 53.45787 ] } },
{ "type": "Feature", "properties": { "atco_code": "1800SJ02611", "common_name": "Calderbank Avenue", "street": "Woodsend Road", "area_code": "E08000009", "area_name": "Trafford", "lon": -2.36572, "lat": 53.41671 }, "geometry": { "type": "Point", "coordinates": [ -2.389538, 53.45771 ] } },
{ "type": "Feature", "properties": { "atco_code": "1800SJ01471", "common_name": "Canal Bridge", "street": "Mosley Road", "area_code": "E08000009", "area_name": "Trafford", "lon": -2.36572, "lat": 53.41671 }, "geometry": { "type": "Point", "coordinates": [ -2.317744, 53.45945 ] } },
{ "type": "Feature", "properties": { "atco_code": "1800SJ01541", "common_name": "Canal Bridge", "street": "Mosley Road", "area_code": "E08000009", "area_name": "Trafford", "lon": -2.36572, "lat": 53.41671 }, "geometry": { "type": "Point", "coordinates": [ -2.317546, 53.45924 ] } },
{ "type": "Feature", "properties": { "atco_code": "1800SJ01811", "common_name": "Canalside North", "street": "John Gilbert Wy", "area_code": "E08000009", "area_name": "Trafford", "lon": -2.36572, "lat": 53.41671 }, "geometry": { "type": "Point", "coordinates": [ -2.302583, 53.46448 ] } },
{ "type": "Feature", "properties": { "atco_code": "1800SJ01171", "common_name": "Canterbury Road", "street": "Crofts Bank Rd", "area_code": "E08000009", "area_name": "Trafford", "lon": -2.36572, "lat": 53.41671 }, "geometry": { "type": "Point", "coordinates": [ -2.356051, 53.45504 ] } },
{ "type": "Feature", "properties": { "atco_code": "1800SJ02911", "common_name": "Canterbury Road", "street": "Cornhill Rd", "area_code": "E08000009", "area_name": "Trafford", "lon": -2.36572, "lat": 53.41671 }, "geometry": { "type": "Point", "coordinates": [ -2.363817, 53.45441 ] } },
{ "type": "Feature", "properties": { "atco_code": "1800SJ01191", "common_name": "Canterbury Road", "street": "Crofts Bank Rd", "area_code": "E08000009", "area_name": "Trafford", "lon": -2.36572, "lat": 53.41671 }, "geometry": { "type": "Point", "coordinates": [ -2.355534, 53.4544 ] } },
{ "type": "Feature", "properties": { "atco_code": "1800SJ01961", "common_name": "Carborundum", "street": "Trafford Pk Rd", "area_code": "E08000009", "area_name": "Trafford", "lon": -2.36572, "lat": 53.41671 }, "geometry": { "type": "Point", "coordinates": [ -2.314456, 53.47115 ] } },
{ "type": "Feature", "properties": { "atco_code": "1800SJ01711", "common_name": "Carborundum", "street": "Trafford Pk Rd", "area_code": "E08000009", "area_name": "Trafford", "lon": -2.36572, "lat": 53.41671 }, "geometry": { "type": "Point", "coordinates": [ -2.313882, 53.47094 ] } },
{ "type": "Feature", "properties": { "atco_code": "1800SJ41501", "common_name": "Carlton Road", "street": "Hale Road", "area_code": "E08000009", "area_name": "Trafford", "lon": -2.36572, "lat": 53.41671 }, "geometry": { "type": "Point", "coordinates": [ -2.322397, 53.37386 ] } },
{ "type": "Feature", "properties": { "atco_code": "1800SJ04061", "common_name": "Carnall Leisure Centre", "street": "Kingsway Park", "area_code": "E08000009", "area_name": "Trafford", "lon": -2.36572, "lat": 53.41671 }, "geometry": { "type": "Point", "coordinates": [ -2.342222, 53.45817 ] } },
{ "type": "Feature", "properties": { "atco_code": "1800SJ04031", "common_name": "Carnall Leisure Centre", "street": "Kingsway Park", "area_code": "E08000009", "area_name": "Trafford", "lon": -2.36572, "lat": 53.41671 }, "geometry": { "type": "Point", "coordinates": [ -2.342827, 53.45848 ] } },
{ "type": "Feature", "properties": { "atco_code": "1800SJ41131", "common_name": "Carr Road", "street": "Delahays Road", "area_code": "E08000009", "area_name": "Trafford", "lon": -2.36572, "lat": 53.41671 }, "geometry": { "type": "Point", "coordinates": [ -2.324218, 53.37815 ] } },
{ "type": "Feature", "properties": { "atco_code": "1800SJ41141", "common_name": "Carr Road", "street": "Delahays Road", "area_code": "E08000009", "area_name": "Trafford", "lon": -2.36572, "lat": 53.41671 }, "geometry": { "type": "Point", "coordinates": [ -2.324575, 53.37774 ] } },
{ "type": "Feature", "properties": { "atco_code": "1800SJ48711", "common_name": "Carrgreen Lane", "street": "Dunham Road", "area_code": "E08000009", "area_name": "Trafford", "lon": -2.36572, "lat": 53.41671 }, "geometry": { "type": "Point", "coordinates": [ -2.430179, 53.39754 ] } },
{ "type": "Feature", "properties": { "atco_code": "1800SJ48581", "common_name": "Carrgreen Lane", "street": "Dunham Road", "area_code": "E08000009", "area_name": "Trafford", "lon": -2.36572, "lat": 53.41671 }, "geometry": { "type": "Point", "coordinates": [ -2.430284, 53.3975 ] } },
{ "type": "Feature", "properties": { "atco_code": "1800SJ03611", "common_name": "Carrington Lane", "street": "Manor Avenue", "area_code": "E08000009", "area_name": "Trafford", "lon": -2.36572, "lat": 53.41671 }, "geometry": { "type": "Point", "coordinates": [ -2.353115, 53.42969 ] } },
{ "type": "Feature", "properties": { "atco_code": "1800SJ03501", "common_name": "Carrington Rd", "street": "Carrington Rd", "area_code": "E08000009", "area_name": "Trafford", "lon": -2.36572, "lat": 53.41671 }, "geometry": { "type": "Point", "coordinates": [ -2.385723, 53.4423 ] } },
{ "type": "Feature", "properties": { "atco_code": "1800SJ03491", "common_name": "Carrington Rd", "street": "Carrington Road", "area_code": "E08000009", "area_name": "Trafford", "lon": -2.36572, "lat": 53.41671 }, "geometry": { "type": "Point", "coordinates": [ -2.384987, 53.44244 ] } },
{ "type": "Feature", "properties": { "atco_code": "1800SJ03851", "common_name": "Catterick Avenue", "street": "Firsway", "area_code": "E08000009", "area_name": "Trafford", "lon": -2.36572, "lat": 53.41671 }, "geometry": { "type": "Point", "coordinates": [ -2.360997, 53.41322 ] } },
{ "type": "Feature", "properties": { "atco_code": "1800SJ03721", "common_name": "Catterick Avenue", "street": "Firsway", "area_code": "E08000009", "area_name": "Trafford", "lon": -2.36572, "lat": 53.41671 }, "geometry": { "type": "Point", "coordinates": [ -2.361041, 53.41301 ] } },
{ "type": "Feature", "properties": { "atco_code": "1800SJ00401", "common_name": "Cavendish Road", "street": "Chester Road", "area_code": "E08000009", "area_name": "Trafford", "lon": -2.36572, "lat": 53.41671 }, "geometry": { "type": "Point", "coordinates": [ -2.297054, 53.45572 ] } },
{ "type": "Feature", "properties": { "atco_code": "1800SJ00741", "common_name": "Cavendish Road", "street": "Winchester Road", "area_code": "E08000009", "area_name": "Trafford", "lon": -2.36572, "lat": 53.41671 }, "geometry": { "type": "Point", "coordinates": [ -2.345036, 53.45234 ] } },
{ "type": "Feature", "properties": { "atco_code": "1800SJ41471", "common_name": "Cemetery", "street": "Hale Road", "area_code": "E08000009", "area_name": "Trafford", "lon": -2.36572, "lat": 53.41671 }, "geometry": { "type": "Point", "coordinates": [ -2.332807, 53.37895 ] } },
{ "type": "Feature", "properties": { "atco_code": "1800SJ41341", "common_name": "Cemetery", "street": "Hale Road", "area_code": "E08000009", "area_name": "Trafford", "lon": -2.36572, "lat": 53.41671 }, "geometry": { "type": "Point", "coordinates": [ -2.333619, 53.37893 ] } },
{ "type": "Feature", "properties": { "atco_code": "1800SJH0461", "common_name": "Central Rd", "street": "Central Road", "area_code": "E08000009", "area_name": "Trafford", "lon": -2.36572, "lat": 53.41671 }, "geometry": { "type": "Point", "coordinates": [ -2.424511, 53.41579 ] } },
{ "type": "Feature", "properties": { "atco_code": "1800SJ03691", "common_name": "Central Road", "street": "Mcr New Road", "area_code": "E08000009", "area_name": "Trafford", "lon": -2.36572, "lat": 53.41671 }, "geometry": { "type": "Point", "coordinates": [ -2.426939, 53.41936 ] } },
{ "type": "Feature", "properties": { "atco_code": "1800SJ48261", "common_name": "Central Road", "street": "M/Cr New Road", "area_code": "E08000009", "area_name": "Trafford", "lon": -2.36572, "lat": 53.41671 }, "geometry": { "type": "Point", "coordinates": [ -2.426398, 53.41944 ] } },
{ "type": "Feature", "properties": { "atco_code": "1800SJ11361", "common_name": "Chapel Drive", "street": "Chapel Lane", "area_code": "E08000009", "area_name": "Trafford", "lon": -2.36572, "lat": 53.41671 }, "geometry": { "type": "Point", "coordinates": [ -2.31204, 53.3635 ] } },
{ "type": "Feature", "properties": { "atco_code": "1800SJ11451", "common_name": "Chapel Drive", "street": "Chapel Lane", "area_code": "E08000009", "area_name": "Trafford", "lon": -2.36572, "lat": 53.41671 }, "geometry": { "type": "Point", "coordinates": [ -2.312129, 53.36343 ] } },
{ "type": "Feature", "properties": { "atco_code": "1800SJ00031", "common_name": "Chapel Lane", "street": "Chester Road", "area_code": "E08000009", "area_name": "Trafford", "lon": -2.36572, "lat": 53.41671 }, "geometry": { "type": "Point", "coordinates": [ -2.310378, 53.44279 ] } },
{ "type": "Feature", "properties": { "atco_code": "1800SJ11441", "common_name": "Chapel Lane", "street": "Greengate", "area_code": "E08000009", "area_name": "Trafford", "lon": -2.36572, "lat": 53.41671 }, "geometry": { "type": "Point", "coordinates": [ -2.307886, 53.36048 ] } },
{ "type": "Feature", "properties": { "atco_code": "1800SJ11341", "common_name": "Chapel Lane", "street": "Hawley Lane", "area_code": "E08000009", "area_name": "Trafford", "lon": -2.36572, "lat": 53.41671 }, "geometry": { "type": "Point", "coordinates": [ -2.319137, 53.36814 ] } },
{ "type": "Feature", "properties": { "atco_code": "1800SJH0531", "common_name": "Chapel Ln", "street": "Chapel Lane", "area_code": "E08000009", "area_name": "Trafford", "lon": -2.36572, "lat": 53.41671 }, "geometry": { "type": "Point", "coordinates": [ -2.427048, 53.4152 ] } },
{ "type": "Feature", "properties": { "atco_code": "1800SJ03291", "common_name": "Chapel Road", "street": "Cross Street", "area_code": "E08000009", "area_name": "Trafford", "lon": -2.36572, "lat": 53.41671 }, "geometry": { "type": "Point", "coordinates": [ -2.321682, 53.42858 ] } },
{ "type": "Feature", "properties": { "atco_code": "1800SJH1531", "common_name": "Charcoal Road", "street": "Charcoal Road", "area_code": "E08000009", "area_name": "Trafford", "lon": -2.36572, "lat": 53.41671 }, "geometry": { "type": "Point", "coordinates": [ -2.390391, 53.38323 ] } },
{ "type": "Feature", "properties": { "atco_code": "1800SJH1631", "common_name": "Charcoal Road", "street": "Charcoal Road", "area_code": "E08000009", "area_name": "Trafford", "lon": -2.36572, "lat": 53.41671 }, "geometry": { "type": "Point", "coordinates": [ -2.375197, 53.38042 ] } },
{ "type": "Feature", "properties": { "atco_code": "1800SJ00931", "common_name": "Chatsworth Road", "street": "Barton Road", "area_code": "E08000009", "area_name": "Trafford", "lon": -2.36572, "lat": 53.41671 }, "geometry": { "type": "Point", "coordinates": [ -2.323514, 53.45377 ] } },
{ "type": "Feature", "properties": { "atco_code": "1800SJ04661", "common_name": "Chatsworth Road", "street": "Barton Road", "area_code": "E08000009", "area_name": "Trafford", "lon": -2.36572, "lat": 53.41671 }, "geometry": { "type": "Point", "coordinates": [ -2.321945, 53.45345 ] } },
{ "type": "Feature", "properties": { "atco_code": "1800SJ03741", "common_name": "Chepstow Avenue", "street": "Firsway", "area_code": "E08000009", "area_name": "Trafford", "lon": -2.36572, "lat": 53.41671 }, "geometry": { "type": "Point", "coordinates": [ -2.361939, 53.41777 ] } },
{ "type": "Feature", "properties": { "atco_code": "1800SJ03831", "common_name": "Chepstow Avenue", "street": "Firsway", "area_code": "E08000009", "area_name": "Trafford", "lon": -2.36572, "lat": 53.41671 }, "geometry": { "type": "Point", "coordinates": [ -2.361935, 53.41734 ] } },
{ "type": "Feature", "properties": { "atco_code": "1800SJ47851", "common_name": "Cheriton Avenue", "street": "Priory Road", "area_code": "E08000009", "area_name": "Trafford", "lon": -2.36572, "lat": 53.41671 }, "geometry": { "type": "Point", "coordinates": [ -2.309898, 53.42655 ] } },
{ "type": "Feature", "properties": { "atco_code": "1800SJ48451", "common_name": "Cheshire Cheese", "street": "Manchester Road", "area_code": "E08000009", "area_name": "Trafford", "lon": -2.36572, "lat": 53.41671 }, "geometry": { "type": "Point", "coordinates": [ -2.352691, 53.40028 ] } },
{ "type": "Feature", "properties": { "atco_code": "1800SB30291", "common_name": "Chester Rd", "street": "Chester Rd", "area_code": "E08000009", "area_name": "Trafford", "lon": -2.36572, "lat": 53.41671 }, "geometry": { "type": "Point", "coordinates": [ -2.266324, 53.46874 ] } },
{ "type": "Feature", "properties": { "atco_code": "1800SJ30451", "common_name": "Chester Road", "street": "City Road", "area_code": "E08000009", "area_name": "Trafford", "lon": -2.36572, "lat": 53.41671 }, "geometry": { "type": "Point", "coordinates": [ -2.265418, 53.46605 ] } },
{ "type": "Feature", "properties": { "atco_code": "1800SJ16961", "common_name": "Chester Road", "street": "Talbot Road", "area_code": "E08000009", "area_name": "Trafford", "lon": -2.36572, "lat": 53.41671 }, "geometry": { "type": "Point", "coordinates": [ -2.29845, 53.45295 ] } },
{ "type": "Feature", "properties": { "atco_code": "1800SJ01031", "common_name": "Chester Road", "street": "Chapel Lane", "area_code": "E08000009", "area_name": "Trafford", "lon": -2.36572, "lat": 53.41671 }, "geometry": { "type": "Point", "coordinates": [ -2.311329, 53.44321 ] } },
{ "type": "Feature", "properties": { "atco_code": "1800SJ00451", "common_name": "Chester Road", "street": "City Road", "area_code": "E08000009", "area_name": "Trafford", "lon": -2.36572, "lat": 53.41671 }, "geometry": { "type": "Point", "coordinates": [ -2.265538, 53.46591 ] } },
{ "type": "Feature", "properties": { "atco_code": "1800SJ00861", "common_name": "Chester Road", "street": "Davyhulme Rd E", "area_code": "E08000009", "area_name": "Trafford", "lon": -2.36572, "lat": 53.41671 }, "geometry": { "type": "Point", "coordinates": [ -2.303527, 53.45111 ] } },
{ "type": "Feature", "properties": { "atco_code": "1800SJ16941", "common_name": "Chester Road", "street": "Talbot Road", "area_code": "E08000009", "area_name": "Trafford", "lon": -2.36572, "lat": 53.41671 }, "geometry": { "type": "Point", "coordinates": [ -2.298316, 53.45315 ] } },
{ "type": "Feature", "properties": { "atco_code": "1800SJ00871", "common_name": "Chester Road", "street": "Davyhulme Rd E", "area_code": "E08000009", "area_name": "Trafford", "lon": -2.36572, "lat": 53.41671 }, "geometry": { "type": "Point", "coordinates": [ -2.303073, 53.45078 ] } },
{ "type": "Feature", "properties": { "atco_code": "1800SJ08711", "common_name": "Chester Road", "street": "White City Way", "area_code": "E08000009", "area_name": "Trafford", "lon": -2.36572, "lat": 53.41671 }, "geometry": { "type": "Point", "coordinates": [ -2.281752, 53.46223 ] } },
{ "type": "Feature", "properties": { "atco_code": "1800SJ00181", "common_name": "Chill Factore", "street": "Trafford Way", "area_code": "E08000009", "area_name": "Trafford", "lon": -2.36572, "lat": 53.41671 }, "geometry": { "type": "Point", "coordinates": [ -2.36126, 53.46898 ] } },
{ "type": "Feature", "properties": { "atco_code": "1800SB14271", "common_name": "Chorlton Rd", "street": "Moss Ln West", "area_code": "E08000009", "area_name": "Trafford", "lon": -2.36572, "lat": 53.41671 }, "geometry": { "type": "Point", "coordinates": [ -2.256115, 53.45954 ] } },
{ "type": "Feature", "properties": { "atco_code": "1800SJ10731", "common_name": "Church Brow", "street": "Park Road", "area_code": "E08000009", "area_name": "Trafford", "lon": -2.36572, "lat": 53.41671 }, "geometry": { "type": "Point", "coordinates": [ -2.367792, 53.37774 ] } },
{ "type": "Feature", "properties": { "atco_code": "1800SJ04351", "common_name": "Church Lane", "street": "Ashton Lane", "area_code": "E08000009", "area_name": "Trafford", "lon": -2.36572, "lat": 53.41671 }, "geometry": { "type": "Point", "coordinates": [ -2.340054, 53.42805 ] } },
{ "type": "Feature", "properties": { "atco_code": "1800SJ04241", "common_name": "Church Lane", "street": "Ashton Lane", "area_code": "E08000009", "area_name": "Trafford", "lon": -2.36572, "lat": 53.41671 }, "geometry": { "type": "Point", "coordinates": [ -2.339749, 53.42762 ] } },
{ "type": "Feature", "properties": { "atco_code": "1800SJ03191", "common_name": "Church Rectory", "street": "Redclyffe Road", "area_code": "E08000009", "area_name": "Trafford", "lon": -2.36572, "lat": 53.41671 }, "geometry": { "type": "Point", "coordinates": [ -2.352054, 53.47239 ] } },
{ "type": "Feature", "properties": { "atco_code": "1800SJ17581", "common_name": "Church Street", "street": "Oldfield Road", "area_code": "E08000009", "area_name": "Trafford", "lon": -2.36572, "lat": 53.41671 }, "geometry": { "type": "Point", "coordinates": [ -2.352931, 53.3929 ] } },
{ "type": "Feature", "properties": { "atco_code": "1800SJ01121", "common_name": "Ciss Lane", "street": "Stretford Road", "area_code": "E08000009", "area_name": "Trafford", "lon": -2.36572, "lat": 53.41671 }, "geometry": { "type": "Point", "coordinates": [ -2.347155, 53.44624 ] } },
{ "type": "Feature", "properties": { "atco_code": "1800SJ01231", "common_name": "Ciss Lane", "street": "Stretford Road", "area_code": "E08000009", "area_name": "Trafford", "lon": -2.36572, "lat": 53.41671 }, "geometry": { "type": "Point", "coordinates": [ -2.346629, 53.44642 ] } },
{ "type": "Feature", "properties": { "atco_code": "1800SJ30281", "common_name": "City Road", "street": "Chester Road", "area_code": "E08000009", "area_name": "Trafford", "lon": -2.36572, "lat": 53.41671 }, "geometry": { "type": "Point", "coordinates": [ -2.266762, 53.4666 ] } },
{ "type": "Feature", "properties": { "atco_code": "1800SJ30271", "common_name": "City Road", "street": "Chester Road", "area_code": "E08000009", "area_name": "Trafford", "lon": -2.36572, "lat": 53.41671 }, "geometry": { "type": "Point", "coordinates": [ -2.266431, 53.46662 ] } },
{ "type": "Feature", "properties": { "atco_code": "1800SJ47381", "common_name": "Claremont Road", "street": "Ashfield Road", "area_code": "E08000009", "area_name": "Trafford", "lon": -2.36572, "lat": 53.41671 }, "geometry": { "type": "Point", "coordinates": [ -2.320308, 53.42596 ] } },
{ "type": "Feature", "properties": { "atco_code": "1800SJ49491", "common_name": "Cloverley", "street": "Brooklands Road", "area_code": "E08000009", "area_name": "Trafford", "lon": -2.36572, "lat": 53.41671 }, "geometry": { "type": "Point", "coordinates": [ -2.321127, 53.41286 ] } },
{ "type": "Feature", "properties": { "atco_code": "1800SJ30121", "common_name": "College Road", "street": "Upp Chorlton Rd", "area_code": "E08000009", "area_name": "Trafford", "lon": -2.36572, "lat": 53.41671 }, "geometry": { "type": "Point", "coordinates": [ -2.270147, 53.45163 ] } },
{ "type": "Feature", "properties": { "atco_code": "1800SJ48281", "common_name": "Columbine Walk", "street": "Central Road", "area_code": "E08000009", "area_name": "Trafford", "lon": -2.36572, "lat": 53.41671 }, "geometry": { "type": "Point", "coordinates": [ -2.422693, 53.41606 ] } },
{ "type": "Feature", "properties": { "atco_code": "1800SJ48241", "common_name": "Common Lane", "street": "Manchester Road", "area_code": "E08000009", "area_name": "Trafford", "lon": -2.36572, "lat": 53.41671 }, "geometry": { "type": "Point", "coordinates": [ -2.414921, 53.426 ] } },
{ "type": "Feature", "properties": { "atco_code": "1800SJ48111", "common_name": "Common Lane", "street": "Manchester Road", "area_code": "E08000009", "area_name": "Trafford", "lon": -2.36572, "lat": 53.41671 }, "geometry": { "type": "Point", "coordinates": [ -2.415017, 53.42658 ] } },
{ "type": "Feature", "properties": { "atco_code": "1800SJ48291", "common_name": "Community Centre", "street": "Central Road", "area_code": "E08000009", "area_name": "Trafford", "lon": -2.36572, "lat": 53.41671 }, "geometry": { "type": "Point", "coordinates": [ -2.42559, 53.41683 ] } },
{ "type": "Feature", "properties": { "atco_code": "1800SJ00681", "common_name": "Community Centre", "street": "Humphrey Lane", "area_code": "E08000009", "area_name": "Trafford", "lon": -2.36572, "lat": 53.41671 }, "geometry": { "type": "Point", "coordinates": [ -2.332039, 53.4501 ] } },
{ "type": "Feature", "properties": { "atco_code": "1800SJ09401", "common_name": "Conservative Club", "street": "Heyes Lane", "area_code": "E08000009", "area_name": "Trafford", "lon": -2.36572, "lat": 53.41671 }, "geometry": { "type": "Point", "coordinates": [ -2.321508, 53.40557 ] } },
{ "type": "Feature", "properties": { "atco_code": "1800SJ49231", "common_name": "Conservative Club", "street": "Heyes Lane", "area_code": "E08000009", "area_name": "Trafford", "lon": -2.36572, "lat": 53.41671 }, "geometry": { "type": "Point", "coordinates": [ -2.321599, 53.40567 ] } },
{ "type": "Feature", "properties": { "atco_code": "1800SB18341", "common_name": "Cornbrook Metrolink Stop", "street": "Bridgewater Way", "area_code": "E08000009", "area_name": "Trafford", "lon": -2.36572, "lat": 53.41671 }, "geometry": { "type": "Point", "coordinates": [ -2.267608, 53.46936 ] } },
{ "type": "Feature", "properties": { "atco_code": "1800SJ30401", "common_name": "Cornbrook Street", "street": "Chorlton Road", "area_code": "E08000009", "area_name": "Trafford", "lon": -2.36572, "lat": 53.41671 }, "geometry": { "type": "Point", "coordinates": [ -2.258188, 53.46111 ] } },
{ "type": "Feature", "properties": { "atco_code": "1800SJ30411", "common_name": "Cornbrook Street", "street": "Chorlton Road", "area_code": "E08000009", "area_name": "Trafford", "lon": -2.36572, "lat": 53.41671 }, "geometry": { "type": "Point", "coordinates": [ -2.257967, 53.46183 ] } },
{ "type": "Feature", "properties": { "atco_code": "1800SJ00321", "common_name": "Cornbrook Street", "street": "Stretford Road", "area_code": "E08000009", "area_name": "Trafford", "lon": -2.36572, "lat": 53.41671 }, "geometry": { "type": "Point", "coordinates": [ -2.262053, 53.46495 ] } },
{ "type": "Feature", "properties": { "atco_code": "1800SJ30511", "common_name": "Cornbrook Street", "street": "Stretford Road", "area_code": "E08000009", "area_name": "Trafford", "lon": -2.36572, "lat": 53.41671 }, "geometry": { "type": "Point", "coordinates": [ -2.263571, 53.46453 ] } },
{ "type": "Feature", "properties": { "atco_code": "1800SJ02491", "common_name": "Cornhill Road", "street": "Davyhulme Road", "area_code": "E08000009", "area_name": "Trafford", "lon": -2.36572, "lat": 53.41671 }, "geometry": { "type": "Point", "coordinates": [ -2.363491, 53.45678 ] } },
{ "type": "Feature", "properties": { "atco_code": "1800SJ02481", "common_name": "Cornhill Road", "street": "Davyhulme Road", "area_code": "E08000009", "area_name": "Trafford", "lon": -2.36572, "lat": 53.41671 }, "geometry": { "type": "Point", "coordinates": [ -2.363837, 53.45684 ] } },
{ "type": "Feature", "properties": { "atco_code": "1800SJ11381", "common_name": "Crabtree Avenue", "street": "Greengate", "area_code": "E08000009", "area_name": "Trafford", "lon": -2.36572, "lat": 53.41671 }, "geometry": { "type": "Point", "coordinates": [ -2.305871, 53.36243 ] } },
{ "type": "Feature", "properties": { "atco_code": "1800SJH1041", "common_name": "Craddock Rd", "street": "Craddock Rd", "area_code": "E08000009", "area_name": "Trafford", "lon": -2.36572, "lat": 53.41671 }, "geometry": { "type": "Point", "coordinates": [ -2.315623, 53.41117 ] } },
{ "type": "Feature", "properties": { "atco_code": "1800SJH2921", "common_name": "Craddock Road", "street": "Craddock Road", "area_code": "E08000009", "area_name": "Trafford", "lon": -2.36572, "lat": 53.41671 }, "geometry": { "type": "Point", "coordinates": [ -2.311804, 53.41137 ] } },
{ "type": "Feature", "properties": { "atco_code": "1800SJ47921", "common_name": "Craven Road", "street": "Sinderland Road", "area_code": "E08000009", "area_name": "Trafford", "lon": -2.36572, "lat": 53.41671 }, "geometry": { "type": "Point", "coordinates": [ -2.358218, 53.40293 ] } },
{ "type": "Feature", "properties": { "atco_code": "1800SJ01071", "common_name": "Cressingham Road", "street": "Urmston Lane", "area_code": "E08000009", "area_name": "Trafford", "lon": -2.36572, "lat": 53.41671 }, "geometry": { "type": "Point", "coordinates": [ -2.325318, 53.44556 ] } },
{ "type": "Feature", "properties": { "atco_code": "1800SJ17711", "common_name": "Cresta Court Hotel", "street": "Woodlands Road", "area_code": "E08000009", "area_name": "Trafford", "lon": -2.36572, "lat": 53.41671 }, "geometry": { "type": "Point", "coordinates": [ -2.349572, 53.39045 ] } },
{ "type": "Feature", "properties": { "atco_code": "1800SJ09661", "common_name": "Cresta Court Hotel", "street": "Woodlands Road", "area_code": "E08000009", "area_name": "Trafford", "lon": -2.36572, "lat": 53.41671 }, "geometry": { "type": "Point", "coordinates": [ -2.349424, 53.39069 ] } },
{ "type": "Feature", "properties": { "atco_code": "1800SJ02991", "common_name": "Crofts Bank Road", "street": "Moorside Road", "area_code": "E08000009", "area_name": "Trafford", "lon": -2.36572, "lat": 53.41671 }, "geometry": { "type": "Point", "coordinates": [ -2.355319, 53.45213 ] } },
{ "type": "Feature", "properties": { "atco_code": "1800SJ00831", "common_name": "Crofts Bank Road", "street": "Winchester Road", "area_code": "E08000009", "area_name": "Trafford", "lon": -2.36572, "lat": 53.41671 }, "geometry": { "type": "Point", "coordinates": [ -2.353757, 53.45252 ] } },
{ "type": "Feature", "properties": { "atco_code": "1800SJ32221", "common_name": "Cromwell Road", "street": "Kings Road", "area_code": "E08000009", "area_name": "Trafford", "lon": -2.36572, "lat": 53.41671 }, "geometry": { "type": "Point", "coordinates": [ -2.293314, 53.45066 ] } },
{ "type": "Feature", "properties": { "atco_code": "1800SJH1131", "common_name": "Cross Lane West", "street": "Cross Lane West", "area_code": "E08000009", "area_name": "Trafford", "lon": -2.36572, "lat": 53.41671 }, "geometry": { "type": "Point", "coordinates": [ -2.42755, 53.41431 ] } },
{ "type": "Feature", "properties": { "atco_code": "1800SJ47361", "common_name": "Cross Street", "street": "Ashfield Road", "area_code": "E08000009", "area_name": "Trafford", "lon": -2.36572, "lat": 53.41671 }, "geometry": { "type": "Point", "coordinates": [ -2.322737, 53.42681 ] } },
{ "type": "Feature", "properties": { "atco_code": "1800SJ47371", "common_name": "Cross Street", "street": "Ashfield Road", "area_code": "E08000009", "area_name": "Trafford", "lon": -2.36572, "lat": 53.41671 }, "geometry": { "type": "Point", "coordinates": [ -2.322904, 53.42705 ] } },
{ "type": "Feature", "properties": { "atco_code": "1800SJ03481", "common_name": "Crossford Bridge", "street": "Chester Road", "area_code": "E08000009", "area_name": "Trafford", "lon": -2.36572, "lat": 53.41671 }, "geometry": { "type": "Point", "coordinates": [ -2.316634, 53.43385 ] } },
{ "type": "Feature", "properties": { "atco_code": "1800SJ00261", "common_name": "Crossford Bridge", "street": "Cross Street", "area_code": "E08000009", "area_name": "Trafford", "lon": -2.36572, "lat": 53.41671 }, "geometry": { "type": "Point", "coordinates": [ -2.316659, 53.43314 ] } },
{ "type": "Feature", "properties": { "atco_code": "1800SJ47771", "common_name": "Cumberland Road", "street": "Derbyshire Rd S", "area_code": "E08000009", "area_name": "Trafford", "lon": -2.36572, "lat": 53.41671 }, "geometry": { "type": "Point", "coordinates": [ -2.308691, 53.41571 ] } },
{ "type": "Feature", "properties": { "atco_code": "1800SJ47631", "common_name": "Cumberland Road", "street": "Derbyshire Rd South", "area_code": "E08000009", "area_name": "Trafford", "lon": -2.36572, "lat": 53.41671 }, "geometry": { "type": "Point", "coordinates": [ -2.308889, 53.41612 ] } },
{ "type": "Feature", "properties": { "atco_code": "1800SJ47861", "common_name": "Dane Road", "street": "Priory Road", "area_code": "E08000009", "area_name": "Trafford", "lon": -2.36572, "lat": 53.41671 }, "geometry": { "type": "Point", "coordinates": [ -2.308231, 53.42912 ] } },
{ "type": "Feature", "properties": { "atco_code": "1800SJ47811", "common_name": "Dane Road", "street": "Priory Road", "area_code": "E08000009", "area_name": "Trafford", "lon": -2.36572, "lat": 53.41671 }, "geometry": { "type": "Point", "coordinates": [ -2.30826, 53.42896 ] } },
{ "type": "Feature", "properties": { "atco_code": "1800SJ03471", "common_name": "Dane Road", "street": "Cross Street", "area_code": "E08000009", "area_name": "Trafford", "lon": -2.36572, "lat": 53.41671 }, "geometry": { "type": "Point", "coordinates": [ -2.318486, 53.43184 ] } },
{ "type": "Feature", "properties": { "atco_code": "1800SJ03281", "common_name": "Dane Road", "street": "Cross Street", "area_code": "E08000009", "area_name": "Trafford", "lon": -2.36572, "lat": 53.41671 }, "geometry": { "type": "Point", "coordinates": [ -2.31911, 53.43079 ] } },
{ "type": "Feature", "properties": { "atco_code": "1800SJ00761", "common_name": "Danefield Road", "street": "Dane Road", "area_code": "E08000009", "area_name": "Trafford", "lon": -2.36572, "lat": 53.41671 }, "geometry": { "type": "Point", "coordinates": [ -2.31422, 53.431 ] } },
{ "type": "Feature", "properties": { "atco_code": "1800SJ02191", "common_name": "Dartford Road", "street": "Church Road", "area_code": "E08000009", "area_name": "Trafford", "lon": -2.36572, "lat": 53.41671 }, "geometry": { "type": "Point", "coordinates": [ -2.359364, 53.44603 ] } },
{ "type": "Feature", "properties": { "atco_code": "1800SJ00531", "common_name": "Dartford Road", "street": "Church Road", "area_code": "E08000009", "area_name": "Trafford", "lon": -2.36572, "lat": 53.41671 }, "geometry": { "type": "Point", "coordinates": [ -2.360881, 53.44561 ] } },
{ "type": "Feature", "properties": { "atco_code": "1800SJ18501", "common_name": "Davenport Lane", "street": "George Rich Way", "area_code": "E08000009", "area_name": "Trafford", "lon": -2.36572, "lat": 53.41671 }, "geometry": { "type": "Point", "coordinates": [ -2.355632, 53.39939 ] } },
{ "type": "Feature", "properties": { "atco_code": "1800SJ18561", "common_name": "Davenport Lane", "street": "Atlantic Street", "area_code": "E08000009", "area_name": "Trafford", "lon": -2.36572, "lat": 53.41671 }, "geometry": { "type": "Point", "coordinates": [ -2.356948, 53.39853 ] } },
{ "type": "Feature", "properties": { "atco_code": "1800SJ02931", "common_name": "Davyhulme Circle", "street": "Davyhulme Circl", "area_code": "E08000009", "area_name": "Trafford", "lon": -2.36572, "lat": 53.41671 }, "geometry": { "type": "Point", "coordinates": [ -2.357849, 53.45746 ] } },
{ "type": "Feature", "properties": { "atco_code": "1800SJ01181", "common_name": "Davyhulme Circle", "street": "Crofts Bank Rd", "area_code": "E08000009", "area_name": "Trafford", "lon": -2.36572, "lat": 53.41671 }, "geometry": { "type": "Point", "coordinates": [ -2.35682, 53.45692 ] } },
{ "type": "Feature", "properties": { "atco_code": "1800SJ02921", "common_name": "Davyhulme Circle", "street": "Davyhulme Road", "area_code": "E08000009", "area_name": "Trafford", "lon": -2.36572, "lat": 53.41671 }, "geometry": { "type": "Point", "coordinates": [ -2.358255, 53.45735 ] } },
{ "type": "Feature", "properties": { "atco_code": "1800SJ16421", "common_name": "Davyhulme Library", "street": "Hayeswater Road", "area_code": "E08000009", "area_name": "Trafford", "lon": -2.36572, "lat": 53.41671 }, "geometry": { "type": "Point", "coordinates": [ -2.358536, 53.4568 ] } },
{ "type": "Feature", "properties": { "atco_code": "1800SJ16431", "common_name": "Davyhulme Library", "street": "Hayeswater Road", "area_code": "E08000009", "area_name": "Trafford", "lon": -2.36572, "lat": 53.41671 }, "geometry": { "type": "Point", "coordinates": [ -2.358852, 53.4568 ] } },
{ "type": "Feature", "properties": { "atco_code": "1800SJ03921", "common_name": "Davyhulme Park", "street": "Canterbury Road", "area_code": "E08000009", "area_name": "Trafford", "lon": -2.36572, "lat": 53.41671 }, "geometry": { "type": "Point", "coordinates": [ -2.353836, 53.45478 ] } },
{ "type": "Feature", "properties": { "atco_code": "1800SJ03071", "common_name": "Davyhulme Road", "street": "Woodhouse Road", "area_code": "E08000009", "area_name": "Trafford", "lon": -2.36572, "lat": 53.41671 }, "geometry": { "type": "Point", "coordinates": [ -2.384742, 53.45872 ] } },
{ "type": "Feature", "properties": { "atco_code": "1800SJ01341", "common_name": "Davyhulme Road", "street": "Park Road", "area_code": "E08000009", "area_name": "Trafford", "lon": -2.36572, "lat": 53.41671 }, "geometry": { "type": "Point", "coordinates": [ -2.316992, 53.45353 ] } },
{ "type": "Feature", "properties": { "atco_code": "1800SJ02531", "common_name": "Davyhulme Road", "street": "Woodhouse Road", "area_code": "E08000009", "area_name": "Trafford", "lon": -2.36572, "lat": 53.41671 }, "geometry": { "type": "Point", "coordinates": [ -2.373428, 53.45655 ] } },
{ "type": "Feature", "properties": { "atco_code": "1800SJ05851", "common_name": "Davyhulme Road", "street": "Park Road", "area_code": "E08000009", "area_name": "Trafford", "lon": -2.36572, "lat": 53.41671 }, "geometry": { "type": "Point", "coordinates": [ -2.315852, 53.4522 ] } },
{ "type": "Feature", "properties": { "atco_code": "1800SJ00111", "common_name": "Davyhulme Road East", "street": "Chester Road", "area_code": "E08000009", "area_name": "Trafford", "lon": -2.36572, "lat": 53.41671 }, "geometry": { "type": "Point", "coordinates": [ -2.302722, 53.45021 ] } },
{ "type": "Feature", "properties": { "atco_code": "1800SJ00881", "common_name": "Davyhulme Road East", "street": "Moss Road", "area_code": "E08000009", "area_name": "Trafford", "lon": -2.36572, "lat": 53.41671 }, "geometry": { "type": "Point", "coordinates": [ -2.310201, 53.4516 ] } },
{ "type": "Feature", "properties": { "atco_code": "1800SJ00421", "common_name": "Davyhulme Road East", "street": "Chester Road", "area_code": "E08000009", "area_name": "Trafford", "lon": -2.36572, "lat": 53.41671 }, "geometry": { "type": "Point", "coordinates": [ -2.302299, 53.44999 ] } },
{ "type": "Feature", "properties": { "atco_code": "1800SJ12391", "common_name": "Dawlish Road", "street": "Firs Road", "area_code": "E08000009", "area_name": "Trafford", "lon": -2.36572, "lat": 53.41671 }, "geometry": { "type": "Point", "coordinates": [ -2.345522, 53.42686 ] } },
{ "type": "Feature", "properties": { "atco_code": "1800SJ48471", "common_name": "De Quincey Road", "street": "Manchester Road", "area_code": "E08000009", "area_name": "Trafford", "lon": -2.36572, "lat": 53.41671 }, "geometry": { "type": "Point", "coordinates": [ -2.346834, 53.40683 ] } },
{ "type": "Feature", "properties": { "atco_code": "1800SJ49361", "common_name": "Deansgate Lane", "street": "Brook Lane", "area_code": "E08000009", "area_name": "Trafford", "lon": -2.36572, "lat": 53.41671 }, "geometry": { "type": "Point", "coordinates": [ -2.338814, 53.39704 ] } },
{ "type": "Feature", "properties": { "atco_code": "1800SJ49431", "common_name": "Deansgate Lane", "street": "Brook Lane", "area_code": "E08000009", "area_name": "Trafford", "lon": -2.36572, "lat": 53.41671 }, "geometry": { "type": "Point", "coordinates": [ -2.338574, 53.3972 ] } },
{ "type": "Feature", "properties": { "atco_code": "1800SJ49041", "common_name": "Dee Avenue", "street": "Greystoke Ave", "area_code": "E08000009", "area_name": "Trafford", "lon": -2.36572, "lat": 53.41671 }, "geometry": { "type": "Point", "coordinates": [ -2.305602, 53.39206 ] } },
{ "type": "Feature", "properties": { "atco_code": "1800SJ41121", "common_name": "Delahays Road", "street": "Grove Lane", "area_code": "E08000009", "area_name": "Trafford", "lon": -2.36572, "lat": 53.41671 }, "geometry": { "type": "Point", "coordinates": [ -2.322744, 53.38003 ] } },
{ "type": "Feature", "properties": { "atco_code": "1800SJ41321", "common_name": "Delahays Road", "street": "Hale Road", "area_code": "E08000009", "area_name": "Trafford", "lon": -2.36572, "lat": 53.41671 }, "geometry": { "type": "Point", "coordinates": [ -2.326777, 53.37674 ] } },
{ "type": "Feature", "properties": { "atco_code": "1800SJ08611", "common_name": "Delahays Road", "street": "Grove Lane", "area_code": "E08000009", "area_name": "Trafford", "lon": -2.36572, "lat": 53.41671 }, "geometry": { "type": "Point", "coordinates": [ -2.323136, 53.38023 ] } },
{ "type": "Feature", "properties": { "atco_code": "1800SJ41491", "common_name": "Delahays Road", "street": "Hale Road", "area_code": "E08000009", "area_name": "Trafford", "lon": -2.36572, "lat": 53.41671 }, "geometry": { "type": "Point", "coordinates": [ -2.326341, 53.37666 ] } },
{ "type": "Feature", "properties": { "atco_code": "1800SJ01441", "common_name": "Derbyshire Lane", "street": "Park Road", "area_code": "E08000009", "area_name": "Trafford", "lon": -2.36572, "lat": 53.41671 }, "geometry": { "type": "Point", "coordinates": [ -2.3146, 53.44977 ] } },
{ "type": "Feature", "properties": { "atco_code": "1800SJ00101", "common_name": "Derbyshire Lane", "street": "Chester Road", "area_code": "E08000009", "area_name": "Trafford", "lon": -2.36572, "lat": 53.41671 }, "geometry": { "type": "Point", "coordinates": [ -2.304038, 53.44888 ] } },
{ "type": "Feature", "properties": { "atco_code": "1800SJ01331", "common_name": "Derbyshire Lane", "street": "Park Road", "area_code": "E08000009", "area_name": "Trafford", "lon": -2.36572, "lat": 53.41671 }, "geometry": { "type": "Point", "coordinates": [ -2.315409, 53.45136 ] } },
{ "type": "Feature", "properties": { "atco_code": "1800SJH1051", "common_name": "Derbyshire Rd South", "street": "Derbyshire Rd S", "area_code": "E08000009", "area_name": "Trafford", "lon": -2.36572, "lat": 53.41671 }, "geometry": { "type": "Point", "coordinates": [ -2.307669, 53.41166 ] } },
{ "type": "Feature", "properties": { "atco_code": "1800SJH2911", "common_name": "Derbyshire Rd South", "street": "Derbyshire Rd South", "area_code": "E08000009", "area_name": "Trafford", "lon": -2.36572, "lat": 53.41671 }, "geometry": { "type": "Point", "coordinates": [ -2.307875, 53.41313 ] } },
{ "type": "Feature", "properties": { "atco_code": "1800SJH1001", "common_name": "Derbyshire Rd Sth", "street": "Norris Road", "area_code": "E08000009", "area_name": "Trafford", "lon": -2.36572, "lat": 53.41671 }, "geometry": { "type": "Point", "coordinates": [ -2.309411, 53.41331 ] } },
{ "type": "Feature", "properties": { "atco_code": "1800SJ47271", "common_name": "Derbyshire Road", "street": "Northenden Road", "area_code": "E08000009", "area_name": "Trafford", "lon": -2.36572, "lat": 53.41671 }, "geometry": { "type": "Point", "coordinates": [ -2.311733, 53.42231 ] } },
{ "type": "Feature", "properties": { "atco_code": "1800SJ47951", "common_name": "Drake Road", "street": "Barlow Road", "area_code": "E08000009", "area_name": "Trafford", "lon": -2.36572, "lat": 53.41671 }, "geometry": { "type": "Point", "coordinates": [ -2.365908, 53.4034 ] } },
{ "type": "Feature", "properties": { "atco_code": "1800SJ48371", "common_name": "Drake Road", "street": "Barlow Road", "area_code": "E08000009", "area_name": "Trafford", "lon": -2.36572, "lat": 53.41671 }, "geometry": { "type": "Point", "coordinates": [ -2.365622, 53.40336 ] } },
{ "type": "Feature", "properties": { "atco_code": "1800SJ10691", "common_name": "Dunham House", "street": "Charcoal Road", "area_code": "E08000009", "area_name": "Trafford", "lon": -2.36572, "lat": 53.41671 }, "geometry": { "type": "Point", "coordinates": [ -2.381, 53.38215 ] } },
{ "type": "Feature", "properties": { "atco_code": "1800SJ10681", "common_name": "Dunham House", "street": "Charcoal Road", "area_code": "E08000009", "area_name": "Trafford", "lon": -2.36572, "lat": 53.41671 }, "geometry": { "type": "Point", "coordinates": [ -2.381647, 53.38222 ] } },
{ "type": "Feature", "properties": { "atco_code": "1800SJ10911", "common_name": "Dunham Massey", "street": "Woodhouse Lane", "area_code": "E08000009", "area_name": "Trafford", "lon": -2.36572, "lat": 53.41671 }, "geometry": { "type": "Point", "coordinates": [ -2.404557, 53.38531 ] } },
{ "type": "Feature", "properties": { "atco_code": "1800SJ10901", "common_name": "Dunham Massey", "street": "Woodhouse Lane", "area_code": "E08000009", "area_name": "Trafford", "lon": -2.36572, "lat": 53.41671 }, "geometry": { "type": "Point", "coordinates": [ -2.404767, 53.38523 ] } },
{ "type": "Feature", "properties": { "atco_code": "1800SJ10721", "common_name": "Dunham Road", "street": "Park Road", "area_code": "E08000009", "area_name": "Trafford", "lon": -2.36572, "lat": 53.41671 }, "geometry": { "type": "Point", "coordinates": [ -2.374367, 53.38005 ] } },
{ "type": "Feature", "properties": { "atco_code": "1800SJ16881", "common_name": "Dunham Town", "street": "Woodhouse Lane", "area_code": "E08000009", "area_name": "Trafford", "lon": -2.36572, "lat": 53.41671 }, "geometry": { "type": "Point", "coordinates": [ -2.393031, 53.38428 ] } },
{ "type": "Feature", "properties": { "atco_code": "1800SJ00541", "common_name": "Dunham Town", "street": "Woodhouse Lane", "area_code": "E08000009", "area_name": "Trafford", "lon": -2.36572, "lat": 53.41671 }, "geometry": { "type": "Point", "coordinates": [ -2.393137, 53.38435 ] } },
{ "type": "Feature", "properties": { "atco_code": "1800SJ48491", "common_name": "Eastway", "street": "Washway Road", "area_code": "E08000009", "area_name": "Trafford", "lon": -2.36572, "lat": 53.41671 }, "geometry": { "type": "Point", "coordinates": [ -2.341677, 53.41092 ] } },
{ "type": "Feature", "properties": { "atco_code": "1800SJ48621", "common_name": "Egerton Avenue", "street": "Paddock Lane", "area_code": "E08000009", "area_name": "Trafford", "lon": -2.36572, "lat": 53.41671 }, "geometry": { "type": "Point", "coordinates": [ -2.452544, 53.40191 ] } },
{ "type": "Feature", "properties": { "atco_code": "1800SJ48671", "common_name": "Egerton Avenue", "street": "Paddock Lane", "area_code": "E08000009", "area_name": "Trafford", "lon": -2.36572, "lat": 53.41671 }, "geometry": { "type": "Point", "coordinates": [ -2.452003, 53.40199 ] } },
{ "type": "Feature", "properties": { "atco_code": "1800SJ04051", "common_name": "Egerton High School", "street": "Kingsway Park", "area_code": "E08000009", "area_name": "Trafford", "lon": -2.36572, "lat": 53.41671 }, "geometry": { "type": "Point", "coordinates": [ -2.343902, 53.45919 ] } },
{ "type": "Feature", "properties": { "atco_code": "1800SJ04041", "common_name": "Egerton High School", "street": "Kingsway Park", "area_code": "E08000009", "area_name": "Trafford", "lon": -2.36572, "lat": 53.41671 }, "geometry": { "type": "Point", "coordinates": [ -2.344055, 53.45947 ] } },
{ "type": "Feature", "properties": { "atco_code": "1800SJ02061", "common_name": "Eleventh Street", "street": "Second Avenue", "area_code": "E08000009", "area_name": "Trafford", "lon": -2.36572, "lat": 53.41671 }, "geometry": { "type": "Point", "coordinates": [ -2.307978, 53.46693 ] } },
{ "type": "Feature", "properties": { "atco_code": "1800SJ09111", "common_name": "Eleventh Street", "street": "Second Avenue", "area_code": "E08000009", "area_name": "Trafford", "lon": -2.36572, "lat": 53.41671 }, "geometry": { "type": "Point", "coordinates": [ -2.308157, 53.46671 ] } },
{ "type": "Feature", "properties": { "atco_code": "1800SJ15691", "common_name": "Eleventh Street", "street": "Fifth Avenue", "area_code": "E08000009", "area_name": "Trafford", "lon": -2.36572, "lat": 53.41671 }, "geometry": { "type": "Point", "coordinates": [ -2.312405, 53.46669 ] } },
{ "type": "Feature", "properties": { "atco_code": "1800SJ15701", "common_name": "Eleventh Street", "street": "Fifth Avenue", "area_code": "E08000009", "area_name": "Trafford", "lon": -2.36572, "lat": 53.41671 }, "geometry": { "type": "Point", "coordinates": [ -2.312235, 53.46609 ] } },
{ "type": "Feature", "properties": { "atco_code": "1800SJ03181", "common_name": "Ellesmere Circle", "street": "Redclyffe Road", "area_code": "E08000009", "area_name": "Trafford", "lon": -2.36572, "lat": 53.41671 }, "geometry": { "type": "Point", "coordinates": [ -2.350249, 53.4709 ] } },
{ "type": "Feature", "properties": { "atco_code": "1800SJ03171", "common_name": "Ellesmere Circle", "street": "Trafford Blvd", "area_code": "E08000009", "area_name": "Trafford", "lon": -2.36572, "lat": 53.41671 }, "geometry": { "type": "Point", "coordinates": [ -2.351276, 53.46946 ] } },
{ "type": "Feature", "properties": { "atco_code": "1800SJ03201", "common_name": "Ellesmere Circle", "street": "Redclyffe Road", "area_code": "E08000009", "area_name": "Trafford", "lon": -2.36572, "lat": 53.41671 }, "geometry": { "type": "Point", "coordinates": [ -2.350706, 53.47158 ] } },
{ "type": "Feature", "properties": { "atco_code": "1800SJ11211", "common_name": "Ellesmere Road", "street": "Barrington Road", "area_code": "E08000009", "area_name": "Trafford", "lon": -2.36572, "lat": 53.41671 }, "geometry": { "type": "Point", "coordinates": [ -2.350496, 53.39484 ] } },
{ "type": "Feature", "properties": { "atco_code": "1800SJ09501", "common_name": "Elmsway", "street": "Hawley Lane", "area_code": "E08000009", "area_name": "Trafford", "lon": -2.36572, "lat": 53.41671 }, "geometry": { "type": "Point", "coordinates": [ -2.31867, 53.36797 ] } },
{ "type": "Feature", "properties": { "atco_code": "1800SJ04511", "common_name": "Elton Road", "street": "Woodhouse Lane", "area_code": "E08000009", "area_name": "Trafford", "lon": -2.36572, "lat": 53.41671 }, "geometry": { "type": "Point", "coordinates": [ -2.347071, 53.41199 ] } },
{ "type": "Feature", "properties": { "atco_code": "1800SJ04541", "common_name": "Elton Road", "street": "Woodhouse Lane", "area_code": "E08000009", "area_name": "Trafford", "lon": -2.36572, "lat": 53.41671 }, "geometry": { "type": "Point", "coordinates": [ -2.346441, 53.41217 ] } },
{ "type": "Feature", "properties": { "atco_code": "1800SJ04251", "common_name": "Ennerdale Dr", "street": "Carrington Lane", "area_code": "E08000009", "area_name": "Trafford", "lon": -2.36572, "lat": 53.41671 }, "geometry": { "type": "Point", "coordinates": [ -2.343288, 53.42784 ] } },
{ "type": "Feature", "properties": { "atco_code": "1800SJH2991", "common_name": "Epping Drive", "street": "Epping Drive", "area_code": "E08000009", "area_name": "Trafford", "lon": -2.36572, "lat": 53.41671 }, "geometry": { "type": "Point", "coordinates": [ -2.357591, 53.42858 ] } },
{ "type": "Feature", "properties": { "atco_code": "1800SJH2981", "common_name": "Epping Drive", "street": "Epping Drive", "area_code": "E08000009", "area_name": "Trafford", "lon": -2.36572, "lat": 53.41671 }, "geometry": { "type": "Point", "coordinates": [ -2.354471, 53.42988 ] } },
{ "type": "Feature", "properties": { "atco_code": "1800SJ03841", "common_name": "Epsom Avenue", "street": "Firsway", "area_code": "E08000009", "area_name": "Trafford", "lon": -2.36572, "lat": 53.41671 }, "geometry": { "type": "Point", "coordinates": [ -2.362132, 53.41565 ] } },
{ "type": "Feature", "properties": { "atco_code": "1800SJ03731", "common_name": "Epsom Avenue", "street": "Firsway", "area_code": "E08000009", "area_name": "Trafford", "lon": -2.36572, "lat": 53.41671 }, "geometry": { "type": "Point", "coordinates": [ -2.362284, 53.41594 ] } },
{ "type": "Feature", "properties": { "atco_code": "1800SJ00631", "common_name": "Erskine St", "street": "Stretford Rd", "area_code": "E08000009", "area_name": "Trafford", "lon": -2.36572, "lat": 53.41671 }, "geometry": { "type": "Point", "coordinates": [ -2.260005, 53.4652 ] } },
{ "type": "Feature", "properties": { "atco_code": "1800SJ04071", "common_name": "Event City", "street": "Barton Dock Road", "area_code": "E08000009", "area_name": "Trafford", "lon": -2.36572, "lat": 53.41671 }, "geometry": { "type": "Point", "coordinates": [ -2.3401, 53.46457 ] } },
{ "type": "Feature", "properties": { "atco_code": "1800SJ04091", "common_name": "Event City", "street": "Barton Dock Road", "area_code": "E08000009", "area_name": "Trafford", "lon": -2.36572, "lat": 53.41671 }, "geometry": { "type": "Point", "coordinates": [ -2.33992, 53.46483 ] } },
{ "type": "Feature", "properties": { "atco_code": "1800SJ02461", "common_name": "Exeter Road", "street": "Lostock Road", "area_code": "E08000009", "area_name": "Trafford", "lon": -2.36572, "lat": 53.41671 }, "geometry": { "type": "Point", "coordinates": [ -2.353105, 53.45751 ] } },
{ "type": "Feature", "properties": { "atco_code": "1800SJ02451", "common_name": "Exeter Road", "street": "Lostock Road", "area_code": "E08000009", "area_name": "Trafford", "lon": -2.36572, "lat": 53.41671 }, "geometry": { "type": "Point", "coordinates": [ -2.352548, 53.45752 ] } },
{ "type": "Feature", "properties": { "atco_code": "1800SJ04211", "common_name": "Fairbairn House", "street": "Ashton Lane", "area_code": "E08000009", "area_name": "Trafford", "lon": -2.36572, "lat": 53.41671 }, "geometry": { "type": "Point", "coordinates": [ -2.327759, 53.42615 ] } },
{ "type": "Feature", "properties": { "atco_code": "1800SJ10611", "common_name": "Fairbank House", "street": "Ashley Road", "area_code": "E08000009", "area_name": "Trafford", "lon": -2.36572, "lat": 53.41671 }, "geometry": { "type": "Point", "coordinates": [ -2.352339, 53.38318 ] } },
{ "type": "Feature", "properties": { "atco_code": "1800SJ01991", "common_name": "Fifth Avenue", "street": "Village Way", "area_code": "E08000009", "area_name": "Trafford", "lon": -2.36572, "lat": 53.41671 }, "geometry": { "type": "Point", "coordinates": [ -2.310979, 53.46737 ] } },
{ "type": "Feature", "properties": { "atco_code": "1800SJ01981", "common_name": "Fifth Avenue", "street": "Village Way", "area_code": "E08000009", "area_name": "Trafford", "lon": -2.36572, "lat": 53.41671 }, "geometry": { "type": "Point", "coordinates": [ -2.313659, 53.46723 ] } },
{ "type": "Feature", "properties": { "atco_code": "1800SJ03801", "common_name": "Fir Tree Avenue", "street": "Firsway", "area_code": "E08000009", "area_name": "Trafford", "lon": -2.36572, "lat": 53.41671 }, "geometry": { "type": "Point", "coordinates": [ -2.355186, 53.42173 ] } },
{ "type": "Feature", "properties": { "atco_code": "1800SJ03771", "common_name": "Fir Tree Avenue", "street": "Firsway", "area_code": "E08000009", "area_name": "Trafford", "lon": -2.36572, "lat": 53.41671 }, "geometry": { "type": "Point", "coordinates": [ -2.354768, 53.42209 ] } },
{ "type": "Feature", "properties": { "atco_code": "1800SJ03651", "common_name": "Firs Road", "street": "Manor Avenue", "area_code": "E08000009", "area_name": "Trafford", "lon": -2.36572, "lat": 53.41671 }, "geometry": { "type": "Point", "coordinates": [ -2.353501, 53.42355 ] } },
{ "type": "Feature", "properties": { "atco_code": "1800SJ03711", "common_name": "Firsway", "street": "Cherry Lane", "area_code": "E08000009", "area_name": "Trafford", "lon": -2.36572, "lat": 53.41671 }, "geometry": { "type": "Point", "coordinates": [ -2.359468, 53.41196 ] } },
{ "type": "Feature", "properties": { "atco_code": "1800SJ03911", "common_name": "Firsway", "street": "Manor Avenue", "area_code": "E08000009", "area_name": "Trafford", "lon": -2.36572, "lat": 53.41671 }, "geometry": { "type": "Point", "coordinates": [ -2.353491, 53.42232 ] } },
{ "type": "Feature", "properties": { "atco_code": "1800SJ03861", "common_name": "Firsway", "street": "Cherry Lane", "area_code": "E08000009", "area_name": "Trafford", "lon": -2.36572, "lat": 53.41671 }, "geometry": { "type": "Point", "coordinates": [ -2.359319, 53.41222 ] } },
{ "type": "Feature", "properties": { "atco_code": "1800SJ01081", "common_name": "Firwood Avenue", "street": "Urmston Lane", "area_code": "E08000009", "area_name": "Trafford", "lon": -2.36572, "lat": 53.41671 }, "geometry": { "type": "Point", "coordinates": [ -2.328481, 53.44571 ] } },
{ "type": "Feature", "properties": { "atco_code": "1800SJ01281", "common_name": "Firwood Avenue", "street": "Urmston Lane", "area_code": "E08000009", "area_name": "Trafford", "lon": -2.36572, "lat": 53.41671 }, "geometry": { "type": "Point", "coordinates": [ -2.327443, 53.44581 ] } },
{ "type": "Feature", "properties": { "atco_code": "1800SJH0061", "common_name": "Flixton Rd", "street": "Flixton Rd", "area_code": "E08000009", "area_name": "Trafford", "lon": -2.36572, "lat": 53.41671 }, "geometry": { "type": "Point", "coordinates": [ -2.38913, 53.43951 ] } },
{ "type": "Feature", "properties": { "atco_code": "1800SJH0151", "common_name": "Flixton Rd", "street": "Flixton Road", "area_code": "E08000009", "area_name": "Trafford", "lon": -2.36572, "lat": 53.41671 }, "geometry": { "type": "Point", "coordinates": [ -2.386456, 53.43513 ] } },
{ "type": "Feature", "properties": { "atco_code": "1800SJH1261", "common_name": "Flixton Rd", "street": "Flixton Road", "area_code": "E08000009", "area_name": "Trafford", "lon": -2.36572, "lat": 53.41671 }, "geometry": { "type": "Point", "coordinates": [ -2.385435, 53.43369 ] } },
{ "type": "Feature", "properties": { "atco_code": "1800SJH1251", "common_name": "Flixton Rd", "street": "Flixton Road", "area_code": "E08000009", "area_name": "Trafford", "lon": -2.36572, "lat": 53.41671 }, "geometry": { "type": "Point", "coordinates": [ -2.388014, 53.4376 ] } },
{ "type": "Feature", "properties": { "atco_code": "1800SJ02681", "common_name": "Flixton Road", "street": "Irlam Road", "area_code": "E08000009", "area_name": "Trafford", "lon": -2.36572, "lat": 53.41671 }, "geometry": { "type": "Point", "coordinates": [ -2.381574, 53.44799 ] } },
{ "type": "Feature", "properties": { "atco_code": "1800SJ08521", "common_name": "Flixton Road", "street": "Irlam Road", "area_code": "E08000009", "area_name": "Trafford", "lon": -2.36572, "lat": 53.41671 }, "geometry": { "type": "Point", "coordinates": [ -2.38177, 53.44799 ] } },
{ "type": "Feature", "properties": { "atco_code": "1800SJ03511", "common_name": "Flixton Terminus", "street": "Carrington Road", "area_code": "E08000009", "area_name": "Trafford", "lon": -2.36572, "lat": 53.41671 }, "geometry": { "type": "Point", "coordinates": [ -2.387699, 53.44102 ] } },
{ "type": "Feature", "properties": { "atco_code": "1800SJ02271", "common_name": "Flixton Village", "street": "Flixton Road", "area_code": "E08000009", "area_name": "Trafford", "lon": -2.36572, "lat": 53.41671 }, "geometry": { "type": "Point", "coordinates": [ -2.38421, 53.44474 ] } },
{ "type": "Feature", "properties": { "atco_code": "1800SJ02281", "common_name": "Flixton Village", "street": "Flixton Road", "area_code": "E08000009", "area_name": "Trafford", "lon": -2.36572, "lat": 53.41671 }, "geometry": { "type": "Point", "coordinates": [ -2.384073, 53.44455 ] } },
{ "type": "Feature", "properties": { "atco_code": "1800SJ10931", "common_name": "Football Ground", "street": "Stamford Pk Rd", "area_code": "E08000009", "area_name": "Trafford", "lon": -2.36572, "lat": 53.41671 }, "geometry": { "type": "Point", "coordinates": [ -2.33711, 53.38314 ] } },
{ "type": "Feature", "properties": { "atco_code": "1800SJ40991", "common_name": "Football Ground", "street": "Moss Lane", "area_code": "E08000009", "area_name": "Trafford", "lon": -2.36572, "lat": 53.41671 }, "geometry": { "type": "Point", "coordinates": [ -2.336752, 53.38358 ] } },
{ "type": "Feature", "properties": { "atco_code": "1800SJ11881", "common_name": "Football Ground", "street": "Moss Lane", "area_code": "E08000009", "area_name": "Trafford", "lon": -2.36572, "lat": 53.41671 }, "geometry": { "type": "Point", "coordinates": [ -2.336252, 53.38306 ] } },
{ "type": "Feature", "properties": { "atco_code": "1800SJ04651", "common_name": "Fountains Road", "street": "Winchester Road", "area_code": "E08000009", "area_name": "Trafford", "lon": -2.36572, "lat": 53.41671 }, "geometry": { "type": "Point", "coordinates": [ -2.335414, 53.45234 ] } },
{ "type": "Feature", "properties": { "atco_code": "1800SJ49471", "common_name": "Framingham Road", "street": "Brooklands Road", "area_code": "E08000009", "area_name": "Trafford", "lon": -2.36572, "lat": 53.41671 }, "geometry": { "type": "Point", "coordinates": [ -2.316788, 53.408 ] } },
{ "type": "Feature", "properties": { "atco_code": "1800SJ17781", "common_name": "Friars Court", "street": "Sibson Road", "area_code": "E08000009", "area_name": "Trafford", "lon": -2.36572, "lat": 53.41671 }, "geometry": { "type": "Point", "coordinates": [ -2.323569, 53.42334 ] } },
{ "type": "Feature", "properties": { "atco_code": "1800SJ17761", "common_name": "Furness Road", "street": "Winchester Road", "area_code": "E08000009", "area_name": "Trafford", "lon": -2.36572, "lat": 53.41671 }, "geometry": { "type": "Point", "coordinates": [ -2.345911, 53.4525 ] } },
{ "type": "Feature", "properties": { "atco_code": "1800SJH1481", "common_name": "Gaddum Rd", "street": "Bow Lane", "area_code": "E08000009", "area_name": "Trafford", "lon": -2.36572, "lat": 53.41671 }, "geometry": { "type": "Point", "coordinates": [ -2.370537, 53.37185 ] } },
{ "type": "Feature", "properties": { "atco_code": "1800SJ11201", "common_name": "Garrick Playhouse", "street": "Barrington Road", "area_code": "E08000009", "area_name": "Trafford", "lon": -2.36572, "lat": 53.41671 }, "geometry": { "type": "Point", "coordinates": [ -2.350131, 53.39437 ] } },
{ "type": "Feature", "properties": { "atco_code": "1800SJ48541", "common_name": "George Richards Way", "street": "Manchester Road", "area_code": "E08000009", "area_name": "Trafford", "lon": -2.36572, "lat": 53.41671 }, "geometry": { "type": "Point", "coordinates": [ -2.352282, 53.39985 ] } },
{ "type": "Feature", "properties": { "atco_code": "1800SJ02331", "common_name": "Girls High School", "street": "Flixton Road", "area_code": "E08000009", "area_name": "Trafford", "lon": -2.36572, "lat": 53.41671 }, "geometry": { "type": "Point", "coordinates": [ -2.370968, 53.44898 ] } },
{ "type": "Feature", "properties": { "atco_code": "1800SJ02341", "common_name": "Girls High School", "street": "Flixton Road", "area_code": "E08000009", "area_name": "Trafford", "lon": -2.36572, "lat": 53.41671 }, "geometry": { "type": "Point", "coordinates": [ -2.371855, 53.44886 ] } },
{ "type": "Feature", "properties": { "atco_code": "1800SJ04401", "common_name": "Glen Avenue", "street": "Glebelands Road", "area_code": "E08000009", "area_name": "Trafford", "lon": -2.36572, "lat": 53.41671 }, "geometry": { "type": "Point", "coordinates": [ -2.329336, 53.43169 ] } },
{ "type": "Feature", "properties": { "atco_code": "1800SJ04441", "common_name": "Glen Avenue", "street": "Glebelands Road", "area_code": "E08000009", "area_name": "Trafford", "lon": -2.36572, "lat": 53.41671 }, "geometry": { "type": "Point", "coordinates": [ -2.329756, 53.4315 ] } },
{ "type": "Feature", "properties": { "atco_code": "1800SJ02261", "common_name": "Golf Club", "street": "Church Road", "area_code": "E08000009", "area_name": "Trafford", "lon": -2.36572, "lat": 53.41671 }, "geometry": { "type": "Point", "coordinates": [ -2.375588, 53.44191 ] } },
{ "type": "Feature", "properties": { "atco_code": "1800SJ02251", "common_name": "Golf Club", "street": "Church Road", "area_code": "E08000009", "area_name": "Trafford", "lon": -2.36572, "lat": 53.41671 }, "geometry": { "type": "Point", "coordinates": [ -2.375, 53.44184 ] } },
{ "type": "Feature", "properties": { "atco_code": "1800SJ32161", "common_name": "Gorse Ave", "street": "Greatstone Rd", "area_code": "E08000009", "area_name": "Trafford", "lon": -2.36572, "lat": 53.41671 }, "geometry": { "type": "Point", "coordinates": [ -2.289837, 53.45521 ] } },
{ "type": "Feature", "properties": { "atco_code": "1800SJ32151", "common_name": "Gorse Ave", "street": "Greatstone Road", "area_code": "E08000009", "area_name": "Trafford", "lon": -2.36572, "lat": 53.41671 }, "geometry": { "type": "Point", "coordinates": [ -2.290138, 53.45525 ] } },
{ "type": "Feature", "properties": { "atco_code": "1800SJ16921", "common_name": "Gorse Hill Park", "street": "Talbot Road", "area_code": "E08000009", "area_name": "Trafford", "lon": -2.36572, "lat": 53.41671 }, "geometry": { "type": "Point", "coordinates": [ -2.294472, 53.45474 ] } },
{ "type": "Feature", "properties": { "atco_code": "1800SJ16931", "common_name": "Gorse Hill Park", "street": "Talbot Road", "area_code": "E08000009", "area_name": "Trafford", "lon": -2.36572, "lat": 53.41671 }, "geometry": { "type": "Point", "coordinates": [ -2.294938, 53.45466 ] } },
{ "type": "Feature", "properties": { "atco_code": "1800SJ48721", "common_name": "Gorsey Lane", "street": "Dunham Road", "area_code": "E08000009", "area_name": "Trafford", "lon": -2.36572, "lat": 53.41671 }, "geometry": { "type": "Point", "coordinates": [ -2.419352, 53.3945 ] } },
{ "type": "Feature", "properties": { "atco_code": "1800SJ11111", "common_name": "Gorsey Lane", "street": "Oldfield Road", "area_code": "E08000009", "area_name": "Trafford", "lon": -2.36572, "lat": 53.41671 }, "geometry": { "type": "Point", "coordinates": [ -2.363368, 53.39123 ] } },
{ "type": "Feature", "properties": { "atco_code": "1800SJ11171", "common_name": "Gorsey Lane", "street": "Oldfield Road", "area_code": "E08000009", "area_name": "Trafford", "lon": -2.36572, "lat": 53.41671 }, "geometry": { "type": "Point", "coordinates": [ -2.364287, 53.39149 ] } },
{ "type": "Feature", "properties": { "atco_code": "1800SJ48571", "common_name": "Gorsey Lane", "street": "Dunham Road", "area_code": "E08000009", "area_name": "Trafford", "lon": -2.36572, "lat": 53.41671 }, "geometry": { "type": "Point", "coordinates": [ -2.41929, 53.39437 ] } },
{ "type": "Feature", "properties": { "atco_code": "1800SJ41481", "common_name": "Grange Avenue", "street": "Hale Road", "area_code": "E08000009", "area_name": "Trafford", "lon": -2.36572, "lat": 53.41671 }, "geometry": { "type": "Point", "coordinates": [ -2.328469, 53.3778 ] } },
{ "type": "Feature", "properties": { "atco_code": "1800SJ47551", "common_name": "Gratrix Lane", "street": "Northenden Road", "area_code": "E08000009", "area_name": "Trafford", "lon": -2.36572, "lat": 53.41671 }, "geometry": { "type": "Point", "coordinates": [ -2.293159, 53.41929 ] } },
{ "type": "Feature", "properties": { "atco_code": "1800SJ41351", "common_name": "Graysands Road", "street": "Hale Road", "area_code": "E08000009", "area_name": "Trafford", "lon": -2.36572, "lat": 53.41671 }, "geometry": { "type": "Point", "coordinates": [ -2.33696, 53.37944 ] } },
{ "type": "Feature", "properties": { "atco_code": "1800SJ41461", "common_name": "Graysands Road", "street": "Hale Road", "area_code": "E08000009", "area_name": "Trafford", "lon": -2.36572, "lat": 53.41671 }, "geometry": { "type": "Point", "coordinates": [ -2.336555, 53.37948 ] } },
{ "type": "Feature", "properties": { "atco_code": "1800SJ32181", "common_name": "Greatstone Road", "street": "The Quadrant", "area_code": "E08000009", "area_name": "Trafford", "lon": -2.36572, "lat": 53.41671 }, "geometry": { "type": "Point", "coordinates": [ -2.286834, 53.45197 ] } },
{ "type": "Feature", "properties": { "atco_code": "1800SJ00391", "common_name": "Greatstone Road", "street": "Chester Road", "area_code": "E08000009", "area_name": "Trafford", "lon": -2.36572, "lat": 53.41671 }, "geometry": { "type": "Point", "coordinates": [ -2.292933, 53.45874 ] } },
{ "type": "Feature", "properties": { "atco_code": "1800SJ32171", "common_name": "Greatstone Road", "street": "The Quadrant", "area_code": "E08000009", "area_name": "Trafford", "lon": -2.36572, "lat": 53.41671 }, "geometry": { "type": "Point", "coordinates": [ -2.286645, 53.453 ] } },
{ "type": "Feature", "properties": { "atco_code": "1800SJ00151", "common_name": "Greatstone Road", "street": "Chester Road", "area_code": "E08000009", "area_name": "Trafford", "lon": -2.36572, "lat": 53.41671 }, "geometry": { "type": "Point", "coordinates": [ -2.29283, 53.45901 ] } },