{
"type": "FeatureCollection",
"crs": { "type": "name", "properties": { "name": "urn:ogc:def:crs:OGC:1.3:CRS84" } },
"features": [
{ "type": "Feature", "properties": { "name": "Alexandra Park JCP", "address": "91 Moss Lane East, Moss Side, Manchester, M15 5JB", "marker-color": "#fc6721", "marker-size": "medium" }, "geometry": { "type": "Point", "coordinates": [ -2.2519663, 53.4604097 ] } },
{ "type": "Feature", "properties": { "name": "Altrincham JCP", "address": "Robert House, 80 Manchester Road, Altrincham, WA14 4PU", "marker-color": "#fc6721", "marker-size": "medium" }, "geometry": { "type": "Point", "coordinates": [ -2.3520253, 53.3960363 ] } },
{ "type": "Feature", "properties": { "name": "Ashton Under Lyne JCP", "address": "101 Old Street, Ashton-under-Lyne, OL6 6BJ", "marker-color": "#fc6721", "marker-size": "medium" }, "geometry": { "type": "Point", "coordinates": [ -2.0950357, 53.4877854 ] } },
{ "type": "Feature", "properties": { "name": "Ashton-in-Makerfield JCP", "address": "17-19 Gerard Street, Ashton-in-Makerfield, Wigan, WN4 9AB", "marker-color": "#fc6721", "marker-size": "medium" }, "geometry": { "type": "Point", "coordinates": [ -2.636758, 53.4871831 ] } },
{ "type": "Feature", "properties": { "name": "Bolton (Great Moor St.) JCP", "address": "Great Moor Street, Bolton, BL3 6DT", "marker-color": "#fc6721", "marker-size": "medium" }, "geometry": { "type": "Point", "coordinates": [ -2.431129, 53.57565 ] } },
{ "type": "Feature", "properties": { "name": "Bolton (Blackhorse St.) JCP", "address": "52 Blackhorse Street, Bolton, BL1 1SX", "marker-color": "#fc6721", "marker-size": "medium" }, "geometry": { "type": "Point", "coordinates": [ -2.432266, 53.577386 ] } },
{ "type": "Feature", "properties": { "name": "Bury JCP", "address": "Silver Street, Bury, BL9 0DP", "marker-color": "#fc6721", "marker-size": "medium" }, "geometry": { "type": "Point", "coordinates": [ -2.2995534, 53.5916059 ] } },
{ "type": "Feature", "properties": { "name": "Cheetham Hill JCP", "address": "36 Crescent Road, Cheetham Hill, Manchester, M8 9DQ", "marker-color": "#fc6721", "marker-size": "medium" }, "geometry": { "type": "Point", "coordinates": [ -2.2429123, 53.5121615 ] } },
{ "type": "Feature", "properties": { "name": "Didsbury JCP", "address": "Danesmore Road 95-97, Palatine Road, West Didsbury, Manchester, M20 3JQ", "marker-color": "#fc6721", "marker-size": "medium" }, "geometry": { "type": "Point", "coordinates": [ -2.2354529, 53.4259596 ] } },
{ "type": "Feature", "properties": { "name": "Eccles JCP", "address": "Peel House, Monton Road, Eccles, M30 0NA", "marker-color": "#fc6721", "marker-size": "medium" }, "geometry": { "type": "Point", "coordinates": [ -2.339101, 53.48437 ] } },
{ "type": "Feature", "properties": { "name": "Heywood JCP", "address": "Taylor Street, Heywood, OL10 1ED", "marker-color": "#fc6721", "marker-size": "medium" }, "geometry": { "type": "Point", "coordinates": [ -2.2208558, 53.5922715 ] } },
{ "type": "Feature", "properties": { "name": "Hyde JCP", "address": "Beech House, New Beech Street, Hyde, SK14 2LS", "marker-color": "#fc6721", "marker-size": "medium" }, "geometry": { "type": "Point", "coordinates": [ -2.078741, 53.45232 ] } },
{ "type": "Feature", "properties": { "name": "Irlam JCP", "address": "Irlam Library, Hurst Fold, Liverpool Road, Irlam, M44 6FD", "marker-color": "#fc6721", "marker-size": "medium" }, "geometry": { "type": "Point", "coordinates": [ -2.41241, 53.45227 ] } },
{ "type": "Feature", "properties": { "name": "Leigh JCP", "address": "Roydale House, 2-10 Windermere Road, Leigh, WN7 1UT", "marker-color": "#fc6721", "marker-size": "medium" }, "geometry": { "type": "Point", "coordinates": [ -2.519841, 53.499701 ] } },
{ "type": "Feature", "properties": { "name": "Longsight JCP", "address": "123 Clarence Road, Longsight, M13 0ZL", "marker-color": "#fc6721", "marker-size": "medium" }, "geometry": { "type": "Point", "coordinates": [ -2.2065433, 53.4553612 ] } },
{ "type": "Feature", "properties": { "name": "Middleton JCP", "address": "Othen House, 7 Oldham Road, Manchester, M24 1BX", "marker-color": "#fc6721", "marker-size": "medium" }, "geometry": { "type": "Point", "coordinates": [ -2.1966895, 53.5482054 ] } },
{ "type": "Feature", "properties": { "name": "Newton Heath JCP", "address": "1009 Oldham Road, Newton Heath, M40 2EP", "marker-color": "#fc6721", "marker-size": "medium" }, "geometry": { "type": "Point", "coordinates": [ -2.1869268, 53.5023792 ] } },
{ "type": "Feature", "properties": { "name": "Oldham JCP", "address": "Tweedale House, 75 Union Street, Oldham, OL1 1LH", "marker-color": "#fc6721", "marker-size": "medium" }, "geometry": { "type": "Point", "coordinates": [ -2.1133446, 53.5403106 ] } },
{ "type": "Feature", "properties": { "name": "Openshaw JCP", "address": "Cornwall Street, Openshaw, M11 2WR", "marker-color": "#fc6721", "marker-size": "medium" }, "geometry": { "type": "Point", "coordinates": [ -2.173748, 53.4722984 ] } },
{ "type": "Feature", "properties": { "name": "Prestwich JCP", "address": "1 Rectory Lane, Prestwich, M25 1BP", "marker-color": "#fc6721", "marker-size": "medium" }, "geometry": { "type": "Point", "coordinates": [ -2.281793, 53.53163 ] } },
{ "type": "Feature", "properties": { "name": "Rochdale JCP", "address": "2 Fleece Street, Rochdale, OL16 1LT", "marker-color": "#fc6721", "marker-size": "medium" }, "geometry": { "type": "Point", "coordinates": [ -2.1568065, 53.6163708 ] } },
{ "type": "Feature", "properties": { "name": "Rusholme JCP", "address": "96 Wilmslow Road, Rusholme, M14 5BJ", "marker-color": "#fc6721", "marker-size": "medium" }, "geometry": { "type": "Point", "coordinates": [ -2.2245273, 53.4539393 ] } },
{ "type": "Feature", "properties": { "name": "Salford JCP", "address": "2 Paddington Close, Salford, M6 5PL", "marker-color": "#fc6721", "marker-size": "medium" }, "geometry": { "type": "Point", "coordinates": [ -2.284072, 53.48669 ] } },
{ "type": "Feature", "properties": { "name": "Stockport JCP", "address": "Heron House, Wellington Street, Stockport, SK1 3BE", "marker-color": "#fc6721", "marker-size": "medium" }, "geometry": { "type": "Point", "coordinates": [ -2.159193, 53.4082933 ] } },
{ "type": "Feature", "properties": { "name": "Stretford JCP", "address": "Arndale House, Chester Road, Stretford, Manchester, M32 9ED", "marker-color": "#fc6721", "marker-size": "medium" }, "geometry": { "type": "Point", "coordinates": [ -2.3088952, 53.44481 ] } },
{ "type": "Feature", "properties": { "name": "Wigan JCP", "address": "Brocol House, 71 King Street, Wigan, WN1 1EA", "marker-color": "#fc6721", "marker-size": "medium" }, "geometry": { "type": "Point", "coordinates": [ -2.6297798, 53.5434497 ] } },
{ "type": "Feature", "properties": { "name": "Worsley JCP", "address": "5 Worsley Court, High Street, Walkden, Worsley, Manchester, M28 3AD", "marker-color": "#fc6721", "marker-size": "medium" }, "geometry": { "type": "Point", "coordinates": [ -2.400303, 53.524205 ] } },
{ "type": "Feature", "properties": { "name": "Wythenshawe JCP", "address": "Simon House, Wavell Road, Wythenshawe, Manchester, M22 5RA", "marker-color": "#fc6721", "marker-size": "medium" }, "geometry": { "type": "Point", "coordinates": [ -2.2584307, 53.3785687 ] } }
]
}
