{
"type": "FeatureCollection",
"name": "trafford_fast_food_outlets",
"crs": { "type": "name", "properties": { "name": "urn:ogc:def:crs:OGC:1.3:CRS84" } },
"features": [
{ "type": "Feature", "properties": { "name": "Alfresco", "type": "Takeaway/sandwich shop", "address": " 18 Northenden Road, Sale", "postcode": "M33 3BR", "area_name": "Trafford" }, "geometry": { "type": "Point", "coordinates": [ -2.316966, 53.423824 ] } },
{ "type": "Feature", "properties": { "name": "Allens Fried Chicken", "type": "Takeaway/sandwich shop", "address": " 1 Marsland Road, Sale", "postcode": "M33 3HP", "area_name": "Trafford" }, "geometry": { "type": "Point", "coordinates": [ -2.30482, 53.419298 ] } },
{ "type": "Feature", "properties": { "name": "Altrincham Fish Bar", "type": "Takeaway/sandwich shop", "address": " 42 Greenwood Street, Altrincham, Cheshire", "postcode": "WA14 1RZ", "area_name": "Trafford" }, "geometry": { "type": "Point", "coordinates": [ -2.352173, 53.386728 ] } },
{ "type": "Feature", "properties": { "name": "Amirah Balti", "type": "Takeaway/sandwich shop", "address": " 15 Station Road, Urmston, Manchester", "postcode": "M41 9JG", "area_name": "Trafford" }, "geometry": { "type": "Point", "coordinates": [ -2.352646, 53.44749 ] } },
{ "type": "Feature", "properties": { "name": "Bando's Ltd", "type": "Takeaway/sandwich shop", "address": " 2 Seymour Grove, Old Trafford, Manchester", "postcode": "M16 0LH", "area_name": "Trafford" }, "geometry": { "type": "Point", "coordinates": [ -2.276745, 53.461316 ] } },
{ "type": "Feature", "properties": { "name": "Banga Curries", "type": "Takeaway/sandwich shop", "address": " 102a Higher Road, Urmston, Manchester", "postcode": "M41 9AP", "area_name": "Trafford" }, "geometry": { "type": "Point", "coordinates": [ -2.34839, 53.448122 ] } },
{ "type": "Feature", "properties": { "name": "Barburrito", "type": "Takeaway/sandwich shop", "address": "2 The Orient,  Trafford Park, Manchester", "postcode": "M17 8EH", "area_name": "Trafford" }, "geometry": { "type": "Point", "coordinates": [ -2.34902, 53.466187 ] } },
{ "type": "Feature", "properties": { "name": "Bean Coffee Manchester No8 Ltd", "type": "Takeaway/sandwich shop", "address": "Jackson House, Sibson Road, Sale", "postcode": "M33 7RR", "area_name": "Trafford" }, "geometry": { "type": "Point", "coordinates": [ -2.3260839, 53.4236094 ] } },
{ "type": "Feature", "properties": { "name": "Bebe's Takeaway", "type": "Takeaway/sandwich shop", "address": " 104 Stamford New Road, Altrincham", "postcode": "WA14 1DG", "area_name": "Trafford" }, "geometry": { "type": "Point", "coordinates": [ -2.35082793235779, 53.385913848877003 ] } },
{ "type": "Feature", "properties": { "name": "Beirut Lebanese Restaurant", "type": "Takeaway/sandwich shop", "address": " 351 Stockport Road, Timperley, Altrincham", "postcode": "WA15 7UG", "area_name": "Trafford" }, "geometry": { "type": "Point", "coordinates": [ -2.3191312, 53.3974984 ] } },
{ "type": "Feature", "properties": { "name": "Bonsai / Smashed Burger", "type": "Takeaway/sandwich shop", "address": " 908 Chester Road, Stretford, Manchester", "postcode": "M32 0PA", "area_name": "Trafford" }, "geometry": { "type": "Point", "coordinates": [ -2.299406, 53.453963 ] } },
{ "type": "Feature", "properties": { "name": "Boost Juice Bars", "type": "Takeaway/sandwich shop", "address": " 127 Peel Avenue, Trafford Centre, Trafford Park", "postcode": "M17 8BN", "area_name": "Trafford" }, "geometry": { "type": "Point", "coordinates": [ -2.3466736, 53.4648988 ] } },
{ "type": "Feature", "properties": { "name": "Burger Stop", "type": "Takeaway/sandwich shop", "address": " 80 School Road, Sale", "postcode": "M33 7XB", "area_name": "Trafford" }, "geometry": { "type": "Point", "coordinates": [ -2.323781, 53.425532 ] } },
{ "type": "Feature", "properties": { "name": "Canadian Charcoal Pit", "type": "Takeaway/sandwich shop", "address": " 6 Church Street, Altrincham, Cheshire", "postcode": "WA14 4DW", "area_name": "Trafford" }, "geometry": { "type": "Point", "coordinates": [ -2.349928, 53.389809 ] } },
{ "type": "Feature", "properties": { "name": "Canton Taste Chinese", "type": "Takeaway/sandwich shop", "address": " 116 Flixton Road, Urmston, Manchester", "postcode": "M41 5AL", "area_name": "Trafford" }, "geometry": { "type": "Point", "coordinates": [ -2.360467, 53.448329 ] } },
{ "type": "Feature", "properties": { "name": "Caprinos", "type": "Takeaway/sandwich shop", "address": " 344 Manchester Road, Altrincham", "postcode": "WA14 5NH", "area_name": "Trafford" }, "geometry": { "type": "Point", "coordinates": [ -2.346576, 53.406601 ] } },
{ "type": "Feature", "properties": { "name": "Caribbean Creations @ Delicia", "type": "Takeaway/sandwich shop", "address": " 1 Florence Street, Sale", "postcode": "M33 7LA", "area_name": "Trafford" }, "geometry": { "type": "Point", "coordinates": [ -2.3192808, 53.431466 ] } },
{ "type": "Feature", "properties": { "name": "Ceresis", "type": "Takeaway/sandwich shop", "address": " 166 Northenden Road, Sale", "postcode": "M33 3HE", "area_name": "Trafford" }, "geometry": { "type": "Point", "coordinates": [ -2.304674, 53.41999 ] } },
{ "type": "Feature", "properties": { "name": "Champions", "type": "Takeaway/sandwich shop", "address": " 678 Chester Road, Stretford, Manchester", "postcode": "M32 0SF", "area_name": "Trafford" }, "geometry": { "type": "Point", "coordinates": [ -2.288629, 53.461396 ] } },
{ "type": "Feature", "properties": { "name": "Charlie's Fish and Chip Shop", "type": "Takeaway/sandwich shop", "address": "Charlies Chips, Hilton Avenue, Urmston, Manchester", "postcode": "M41 0TP", "area_name": "Trafford" }, "geometry": { "type": "Point", "coordinates": [ -2.35341095924377, 53.449085235595703 ] } },
{ "type": "Feature", "properties": { "name": "Chicken Shack", "type": "Takeaway/sandwich shop", "address": " 3 Moss Lane West, Old Trafford, Manchester", "postcode": "M15 5PQ", "area_name": "Trafford" }, "geometry": { "type": "Point", "coordinates": [ -2.257603, 53.4591562 ] } },
{ "type": "Feature", "properties": { "name": "China Town", "type": "Takeaway/sandwich shop", "address": " 167 Broadway, Davyhulme, Manchester", "postcode": "M41 7NW", "area_name": "Trafford" }, "geometry": { "type": "Point", "coordinates": [ -2.372471, 53.458971 ] } },
{ "type": "Feature", "properties": { "name": "Chinese Kitchen", "type": "Takeaway/sandwich shop", "address": " 12 Deansgate Lane, Timperley, Altrincham", "postcode": "WA15 6SB", "area_name": "Trafford" }, "geometry": { "type": "Point", "coordinates": [ -2.34011101722717, 53.397586822509801 ] } },
{ "type": "Feature", "properties": { "name": "Chopsticks House", "type": "Takeaway/sandwich shop", "address": " 30 Moss Lane, Altrincham", "postcode": "WA15 8HW", "area_name": "Trafford" }, "geometry": { "type": "Point", "coordinates": [ -2.3440624, 53.3859957 ] } },
{ "type": "Feature", "properties": { "name": "Chopstix Noodle Bar", "type": "Takeaway/sandwich shop", "address": " 9 The Orient, Trafford Centre, Trafford Park", "postcode": "M17 8EH", "area_name": "Trafford" }, "geometry": { "type": "Point", "coordinates": [ -2.3488037, 53.4656656 ] } },
{ "type": "Feature", "properties": { "name": "Coral", "type": "Takeaway/sandwich shop", "address": " 212 Manchester Road, Altrincham", "postcode": "WA14 5LU", "area_name": "Trafford" }, "geometry": { "type": "Point", "coordinates": [ -2.3521112, 53.4011357 ] } },
{ "type": "Feature", "properties": { "name": "Costa's Fish & Chips", "type": "Takeaway/sandwich shop", "address": " 35 Hale Road, Altrincham", "postcode": "WA14 2EY", "area_name": "Trafford" }, "geometry": { "type": "Point", "coordinates": [ -2.348885, 53.381767 ] } },
{ "type": "Feature", "properties": { "name": "Craven Road Fish & Chips", "type": "Takeaway/sandwich shop", "address": " 34A Craven Road, Broadheath Altrincham, Cheshire", "postcode": "WA14 5JD", "area_name": "Trafford" }, "geometry": { "type": "Point", "coordinates": [ -2.359537, 53.402382 ] } },
{ "type": "Feature", "properties": { "name": "Crepe Castle", "type": "Takeaway/sandwich shop", "address": " 159 Derbyshire Road South, Sale", "postcode": "M33 3JY", "area_name": "Trafford" }, "geometry": { "type": "Point", "coordinates": [ -2.3071304, 53.4099701 ] } },
{ "type": "Feature", "properties": { "name": "Deens fried Chicken", "type": "Takeaway/sandwich shop", "address": " 29 Ayres Road, Old Trafford, Manchester", "postcode": "M16 9WA", "area_name": "Trafford" }, "geometry": { "type": "Point", "coordinates": [ -2.262936, 53.459262 ] } },
{ "type": "Feature", "properties": { "name": "Deluxe Fried Chicken", "type": "Takeaway/sandwich shop", "address": " 70 Park Road, Timperley, Altrincham", "postcode": "WA14 5AB", "area_name": "Trafford" }, "geometry": { "type": "Point", "coordinates": [ -2.341007, 53.404217 ] } },
{ "type": "Feature", "properties": { "name": "Domino's Pizza", "type": "Takeaway/sandwich shop", "address": " 30 Stamford New Road, Altrincham, Cheshire", "postcode": "WA14 1EJ", "area_name": "Trafford" }, "geometry": { "type": "Point", "coordinates": [ -2.348407, 53.387683 ] } },
{ "type": "Feature", "properties": { "name": "Domino's Pizza", "type": "Takeaway/sandwich shop", "address": " 1a Sinderland Road, Altrincham", "postcode": "WA14 5EU", "area_name": "Trafford" }, "geometry": { "type": "Point", "coordinates": [ -2.353749, 53.400988 ] } },
{ "type": "Feature", "properties": { "name": "Domino's Pizza", "type": "Takeaway/sandwich shop", "address": " 25 Flixton Road, Urmston, Manchester", "postcode": "M41 5AW", "area_name": "Trafford" }, "geometry": { "type": "Point", "coordinates": [ -2.355408, 53.448263 ] } },
{ "type": "Feature", "properties": { "name": "Domino's Pizza", "type": "Takeaway/sandwich shop", "address": " 446 Flixton Road, Flixton, Manchester", "postcode": "M41 6QT", "area_name": "Trafford" }, "geometry": { "type": "Point", "coordinates": [ -2.38440299034119, 53.444488525390597 ] } },
{ "type": "Feature", "properties": { "name": "Domino's Pizzas", "type": "Takeaway/sandwich shop", "address": " 45 Washway Road, Sale", "postcode": "M33 7AB", "area_name": "Trafford" }, "geometry": { "type": "Point", "coordinates": [ -2.327301, 53.42341 ] } },
{ "type": "Feature", "properties": { "name": "Dot Goods", "type": "Takeaway/sandwich shop", "address": " 103 Manchester Road, Altrincham", "postcode": "WA14 4RL", "area_name": "Trafford" }, "geometry": { "type": "Point", "coordinates": [ -2.352396, 53.3973957 ] } },
{ "type": "Feature", "properties": { "name": "Dr. Falafel", "type": "Takeaway/sandwich shop", "address": " 2a Seymour Grove, Old Trafford, Manchester", "postcode": "M16 0LH", "area_name": "Trafford" }, "geometry": { "type": "Point", "coordinates": [ -2.276745, 53.461298 ] } },
{ "type": "Feature", "properties": { "name": "Dragon Star", "type": "Takeaway/sandwich shop", "address": " 28 Davyhulme Road East, Stretford, Manchester", "postcode": "M32 0DW", "area_name": "Trafford" }, "geometry": { "type": "Point", "coordinates": [ -2.303377, 53.451131 ] } },
{ "type": "Feature", "properties": { "name": "Dynasty", "type": "Takeaway/sandwich shop", "address": " 101 Wood Lane, Timperley, Altrincham", "postcode": "WA15 7PG", "area_name": "Trafford" }, "geometry": { "type": "Point", "coordinates": [ -2.320117, 53.388688 ] } },
{ "type": "Feature", "properties": { "name": "e'CK", "type": "Takeaway/sandwich shop", "address": " 10 The Circle, Stretford, Manchester", "postcode": "M32 9TR", "area_name": "Trafford" }, "geometry": { "type": "Point", "coordinates": [ -2.336501, 53.456516 ] } },
{ "type": "Feature", "properties": { "name": "Eastern Revive Indian Kicthen", "type": "Takeaway/sandwich shop", "address": " 188 Ashley Road, Hale, Altrincham", "postcode": "WA15 9SF", "area_name": "Trafford" }, "geometry": { "type": "Point", "coordinates": [ -2.34608101844788, 53.377029418945298 ] } },
{ "type": "Feature", "properties": { "name": "Elijoâ€™s", "type": "Takeaway/sandwich shop", "address": " 86 Park Road, Timperley, Altrincham", "postcode": "WA14 5AB", "area_name": "Trafford" }, "geometry": { "type": "Point", "coordinates": [ -2.341007, 53.404217 ] } },
{ "type": "Feature", "properties": { "name": "Emilios Takeaway", "type": "Takeaway/sandwich shop", "address": " 197 Marsland Road, Sale", "postcode": "M33 3ND", "area_name": "Trafford" }, "geometry": { "type": "Point", "coordinates": [ -2.320484, 53.417334 ] } },
{ "type": "Feature", "properties": { "name": "Emma's Sweet Emporium", "type": "Takeaway/sandwich shop", "address": "Cedar Technology Centre, Atlantic Street, Altrincham", "postcode": "WA14 5DZ", "area_name": "Trafford" }, "geometry": { "type": "Point", "coordinates": [ -2.366873, 53.396715 ] } },
{ "type": "Feature", "properties": { "name": "Express Woks Cooking", "type": "Takeaway/sandwich shop", "address": " 215 Woodhouse Lane East, Timperley, Altrincham", "postcode": "WA15 6AS", "area_name": "Trafford" }, "geometry": { "type": "Point", "coordinates": [ -2.3223929, 53.4071702 ] } },
{ "type": "Feature", "properties": { "name": "Frankies chicken and pizza", "type": "Takeaway/sandwich shop", "address": " 680 Chester Road, Stretford, Manchester", "postcode": "M32 0SF", "area_name": "Trafford" }, "geometry": { "type": "Point", "coordinates": [ -2.288629, 53.461396 ] } },
{ "type": "Feature", "properties": { "name": "Gemini Chinese Takeaway", "type": "Takeaway/sandwich shop", "address": " 20 Seymour Grove, Old Trafford, Manchester", "postcode": "M16 0LH", "area_name": "Trafford" }, "geometry": { "type": "Point", "coordinates": [ -2.276745, 53.461316 ] } },
{ "type": "Feature", "properties": { "name": "Gold Lion", "type": "Takeaway/sandwich shop", "address": " 4 North Parade, Sale, Cheshire", "postcode": "M33 3JS", "area_name": "Trafford" }, "geometry": { "type": "Point", "coordinates": [ -2.308508, 53.413339 ] } },
{ "type": "Feature", "properties": { "name": "Golden Apple", "type": "Takeaway/sandwich shop", "address": " 38 Davyhulme Road East, Stretford, Manchester", "postcode": "M32 0DW", "area_name": "Trafford" }, "geometry": { "type": "Point", "coordinates": [ -2.303377, 53.451131 ] } },
{ "type": "Feature", "properties": { "name": "Golden Bowl Takeaway Limited", "type": "Takeaway/sandwich shop", "address": " 11 Hope Road, Sale", "postcode": "M33 3AB", "area_name": "Trafford" }, "geometry": { "type": "Point", "coordinates": [ -2.31922, 53.423386 ] } },
{ "type": "Feature", "properties": { "name": "Good Fortune", "type": "Takeaway/sandwich shop", "address": " 194 Marsland Road, Sale", "postcode": "M33 3NE", "area_name": "Trafford" }, "geometry": { "type": "Point", "coordinates": [ -2.320276, 53.417756 ] } },
{ "type": "Feature", "properties": { "name": "Greggs", "type": "Takeaway/sandwich shop", "address": " Unit 1B Longwood Road, Trafford Park, Manchester", "postcode": "M17 1PZ", "area_name": "Trafford" }, "geometry": { "type": "Point", "coordinates": [ -2.32358407974243, 53.466960906982401 ] } },
{ "type": "Feature", "properties": { "name": "Greggs", "type": "Takeaway/sandwich shop", "address": "Circle Service Station, The Circle, Stretford, Manchester", "postcode": "M32 9TR", "area_name": "Trafford" }, "geometry": { "type": "Point", "coordinates": [ -2.336501, 53.456516 ] } },
{ "type": "Feature", "properties": { "name": "Hou Wei", "type": "Takeaway/sandwich shop", "address": " 896 Chester Road, Stretford, Manchester", "postcode": "M32 0PA", "area_name": "Trafford" }, "geometry": { "type": "Point", "coordinates": [ -2.299406, 53.453963 ] } },
{ "type": "Feature", "properties": { "name": "I Call Myself Sanchez", "type": "Takeaway/sandwich shop", "address": "10 Kings Court, Railway Street, Altrincham", "postcode": "WA14 2RD", "area_name": "Trafford" }, "geometry": { "type": "Point", "coordinates": [ -2.3522794, 53.3851538 ] } },
{ "type": "Feature", "properties": { "name": "Indulge Your Senses", "type": "Takeaway/sandwich shop", "address": " 222 Stockport Road, Timperley, Altrincham", "postcode": "WA15 7UA", "area_name": "Trafford" }, "geometry": { "type": "Point", "coordinates": [ -2.3200597, 53.3969836 ] } },
{ "type": "Feature", "properties": { "name": "Jin Ho Fish and Chips", "type": "Takeaway/sandwich shop", "address": " 266 Upper Chorlton Road, Old Trafford, Manchester", "postcode": "M16 0BN", "area_name": "Trafford" }, "geometry": { "type": "Point", "coordinates": [ -2.272296, 53.450873 ] } },
{ "type": "Feature", "properties": { "name": "Jolly House", "type": "Takeaway/sandwich shop", "address": " 4 The Circle, Stretford, Manchester", "postcode": "M32 9TR", "area_name": "Trafford" }, "geometry": { "type": "Point", "coordinates": [ -2.336501, 53.456516 ] } },
{ "type": "Feature", "properties": { "name": "Joy's House", "type": "Takeaway/sandwich shop", "address": " 136 Northenden Road, Sale, Cheshire", "postcode": "M33 3HE", "area_name": "Trafford" }, "geometry": { "type": "Point", "coordinates": [ -2.304674, 53.419991 ] } },
{ "type": "Feature", "properties": { "name": "Kew Foo", "type": "Takeaway/sandwich shop", "address": " 348 Manchester Road, Altrincham", "postcode": "WA14 5NH", "area_name": "Trafford" }, "geometry": { "type": "Point", "coordinates": [ -2.346576, 53.4066 ] } },
{ "type": "Feature", "properties": { "name": "KFC", "type": "Takeaway/sandwich shop", "address": " 9 The Orient, The Trafford Centre, Manchester", "postcode": "M17 9EF", "area_name": "Trafford" }, "geometry": { "type": "Point", "coordinates": [ -2.32889, 53.46778 ] } },
{ "type": "Feature", "properties": { "name": "Ko Bo Bo", "type": "Takeaway/sandwich shop", "address": " 161 Northenden Road, Sale", "postcode": "M33 2HS", "area_name": "Trafford" }, "geometry": { "type": "Point", "coordinates": [ -2.3027944, 53.4200216 ] } },
{ "type": "Feature", "properties": { "name": "Koo's Cantonese Takeaway", "type": "Takeaway/sandwich shop", "address": " 18 Eastway, Sale", "postcode": "M33 4DX", "area_name": "Trafford" }, "geometry": { "type": "Point", "coordinates": [ -2.340248, 53.410879 ] } },
{ "type": "Feature", "properties": { "name": "Lighthouse Fish Bar", "type": "Takeaway/sandwich shop", "address": " 14 North Parade, Sale", "postcode": "M33 3JS", "area_name": "Trafford" }, "geometry": { "type": "Point", "coordinates": [ -2.308508, 53.413339 ] } },
{ "type": "Feature", "properties": { "name": "Lotus Fast Food", "type": "Takeaway/sandwich shop", "address": " 177 Canterbury Road, Davyhulme, Manchester", "postcode": "M41 0SE", "area_name": "Trafford" }, "geometry": { "type": "Point", "coordinates": [ -2.345195, 53.455143 ] } },
{ "type": "Feature", "properties": { "name": "Lou Macaris Chip Shop", "type": "Takeaway/sandwich shop", "address": " 684 Chester Road, Stretford, Manchester", "postcode": "M32 0SF", "area_name": "Trafford" }, "geometry": { "type": "Point", "coordinates": [ -2.288629, 53.461396 ] } },
{ "type": "Feature", "properties": { "name": "Luca's Snack shack", "type": "Takeaway/sandwich shop", "address": "Unit 5 Stretford Motorway Estate, Caledonia Way, Trafford Park, Manchester", "postcode": "M32 0ZH", "area_name": "Trafford" }, "geometry": { "type": "Point", "coordinates": [ -2.329592, 53.462818 ] } },
{ "type": "Feature", "properties": { "name": "Lucky Cherry", "type": "Takeaway/sandwich shop", "address": " 156 Washway Road, Sale", "postcode": "M33 6RH", "area_name": "Trafford" }, "geometry": { "type": "Point", "coordinates": [ -2.330579, 53.421144 ] } },
{ "type": "Feature", "properties": { "name": "Lucy's", "type": "Takeaway/sandwich shop", "address": " 477 Moorside Road, Flixton, Manchester", "postcode": "M41 8TW", "area_name": "Trafford" }, "geometry": { "type": "Point", "coordinates": [ -2.391387, 53.452429 ] } },
{ "type": "Feature", "properties": { "name": "M33 Sandwich Bar", "type": "Takeaway/sandwich shop", "address": " 35 Northenden Road, Sale", "postcode": "M33 2DH", "area_name": "Trafford" }, "geometry": { "type": "Point", "coordinates": [ -2.316562, 53.4240576 ] } },
{ "type": "Feature", "properties": { "name": "Madras Spice", "type": "Takeaway/sandwich shop", "address": " 180 Northenden Road, Sale", "postcode": "M33 2SR", "area_name": "Trafford" }, "geometry": { "type": "Point", "coordinates": [ -2.302625, 53.419699 ] } },
{ "type": "Feature", "properties": { "name": "McDonald's Restaurants", "type": "Takeaway/sandwich shop", "address": " 1235 Chester Road, Stretford, Manchester", "postcode": "M32 8NB", "area_name": "Trafford" }, "geometry": { "type": "Point", "coordinates": [ -2.30933, 53.443655 ] } },
{ "type": "Feature", "properties": { "name": "Miami Fried Chicken", "type": "Takeaway/sandwich shop", "address": " 2 The Circle, Stretford, Manchester", "postcode": "M32 9TR", "area_name": "Trafford" }, "geometry": { "type": "Point", "coordinates": [ -2.336501, 53.456516 ] } },
{ "type": "Feature", "properties": { "name": "Millies Cookies", "type": "Takeaway/sandwich shop", "address": " 108 Peel Avenue, The Trafford Centre, Manchester", "postcode": "M17 8BL", "area_name": "Trafford" }, "geometry": { "type": "Point", "coordinates": [ -2.34902, 53.466187 ] } },
{ "type": "Feature", "properties": { "name": "Millies Cookies", "type": "Takeaway/sandwich shop", "address": "13 The Orient,  Trafford Centre, Trafford", "postcode": "M17 8BL", "area_name": "Trafford" }, "geometry": { "type": "Point", "coordinates": [ -2.34902, 53.466187 ] } },
{ "type": "Feature", "properties": { "name": "Mizan Tandoori", "type": "Takeaway/sandwich shop", "address": " 3 Bowfell Road, Urmston, Manchester", "postcode": "M41 5RW", "area_name": "Trafford" }, "geometry": { "type": "Point", "coordinates": [ -2.366352, 53.451538 ] } },
{ "type": "Feature", "properties": { "name": "MLK Burgers", "type": "Takeaway/sandwich shop", "address": " 625 Stretford Road, Old Trafford, Manchester", "postcode": "M16 0QA", "area_name": "Trafford" }, "geometry": { "type": "Point", "coordinates": [ -2.2754846, 53.4621275 ] } },
{ "type": "Feature", "properties": { "name": "Monty's", "type": "Takeaway/sandwich shop", "address": " 130 Seamons Road, Altrincham", "postcode": "WA14 4LJ", "area_name": "Trafford" }, "geometry": { "type": "Point", "coordinates": [ -2.370871, 53.392981 ] } },
{ "type": "Feature", "properties": { "name": "Mr Yu", "type": "Takeaway/sandwich shop", "address": " 2 James Street, Sale, Cheshire", "postcode": "M33 3HN", "area_name": "Trafford" }, "geometry": { "type": "Point", "coordinates": [ -2.303537, 53.420848 ] } },
{ "type": "Feature", "properties": { "name": "Neptune", "type": "Takeaway/sandwich shop", "address": " 181a Moorside Road, Flixton, Manchester", "postcode": "M41 5SJ", "area_name": "Trafford" }, "geometry": { "type": "Point", "coordinates": [ -2.370723, 53.452099 ] } },
{ "type": "Feature", "properties": { "name": "Off The Wheaton Track Deli", "type": "Takeaway/sandwich shop", "address": " 8-10 Oxford Road, Altrincham", "postcode": "WA14 2DY", "area_name": "Trafford" }, "geometry": { "type": "Point", "coordinates": [ -2.351743, 53.383826 ] } },
{ "type": "Feature", "properties": { "name": "Oriental Stretford", "type": "Takeaway/sandwich shop", "address": " 914 Chester Road, Stretford, Manchester", "postcode": "M32 0PA", "area_name": "Trafford" }, "geometry": { "type": "Point", "coordinates": [ -2.299406, 53.453963 ] } },
{ "type": "Feature", "properties": { "name": "Panku Altrincham", "type": "Takeaway/sandwich shop", "address": " 90 George Richards Way, Altrincham", "postcode": "WA14 5ZR", "area_name": "Trafford" }, "geometry": { "type": "Point", "coordinates": [ -2.362885, 53.39999 ] } },
{ "type": "Feature", "properties": { "name": "Pany's Fish Bar", "type": "Takeaway/sandwich shop", "address": " 157 Northenden Road, Sale, Cheshire", "postcode": "M33 2HS", "area_name": "Trafford" }, "geometry": { "type": "Point", "coordinates": [ -2.303245, 53.42004 ] } },
{ "type": "Feature", "properties": { "name": "Papa Johns", "type": "Takeaway/sandwich shop", "address": " 2 Shaftesbury Avenue, Timperley, Altrincham", "postcode": "WA15 7LY", "area_name": "Trafford" }, "geometry": { "type": "Point", "coordinates": [ -2.3284382, 53.3914239 ] } },
{ "type": "Feature", "properties": { "name": "Papa Johns Perfect Pizza", "type": "Takeaway/sandwich shop", "address": " 388 Washway Road, Sale", "postcode": "M33 4JH", "area_name": "Trafford" }, "geometry": { "type": "Point", "coordinates": [ -2.345432, 53.40833 ] } },
{ "type": "Feature", "properties": { "name": "Partington Fish Bar and Grill", "type": "Takeaway/sandwich shop", "address": "Unit 1 Partington Shopping Centre, Central Road, Partington", "postcode": "M31 4FL", "area_name": "Trafford" }, "geometry": { "type": "Point", "coordinates": [ -2.425447, 53.417688 ] } },
{ "type": "Feature", "properties": { "name": "Pearl Garden", "type": "Takeaway/sandwich shop", "address": " 171 Moorside Road, Urmston, Manchester", "postcode": "M41 5SJ", "area_name": "Trafford" }, "geometry": { "type": "Point", "coordinates": [ -2.370724, 53.4521 ] } },
{ "type": "Feature", "properties": { "name": "Pig on a Spit", "type": "Takeaway/sandwich shop", "address": " Carrington Business Park, Manchester Road, Carrington", "postcode": "M31 4DD", "area_name": "Trafford" }, "geometry": { "type": "Point", "coordinates": [ -2.400171, 53.430585 ] } },
{ "type": "Feature", "properties": { "name": "Pinocchios", "type": "Takeaway/sandwich shop", "address": " 10 Station Road, Urmston, Manchester", "postcode": "M41 9JN", "area_name": "Trafford" }, "geometry": { "type": "Point", "coordinates": [ -2.353096, 53.447354 ] } },
{ "type": "Feature", "properties": { "name": "Pix Pizza", "type": "Takeaway/sandwich shop", "address": " 19 Shaws Road, Altrincham", "postcode": "WA14 1QU", "area_name": "Trafford" }, "geometry": { "type": "Point", "coordinates": [ -2.351173, 53.387558 ] } },
{ "type": "Feature", "properties": { "name": "Pizza Express / Mac & Wings", "type": "Takeaway/sandwich shop", "address": "Spring House, 142 Ashley Road, Hale, Altrincham", "postcode": "WA14 2UN", "area_name": "Trafford" }, "geometry": { "type": "Point", "coordinates": [ -2.3480889, 53.3783258 ] } },
{ "type": "Feature", "properties": { "name": "Pizza Hut", "type": "Takeaway/sandwich shop", "address": " 396 Washway Road, Sale, Cheshire", "postcode": "M33 4JH", "area_name": "Trafford" }, "geometry": { "type": "Point", "coordinates": [ -2.345432, 53.40833 ] } },
{ "type": "Feature", "properties": { "name": "Pizza Point", "type": "Takeaway/sandwich shop", "address": " 272 Kings Road, Stretford, Manchester", "postcode": "M16 0HH", "area_name": "Trafford" }, "geometry": { "type": "Point", "coordinates": [ -2.28541, 53.453017 ] } },
{ "type": "Feature", "properties": { "name": "Pound Bakery", "type": "Takeaway/sandwich shop", "address": " 47 Stretford Mall, Stretford, Manchester", "postcode": "M32 9BB", "area_name": "Trafford" }, "geometry": { "type": "Point", "coordinates": [ -2.310832, 53.445215 ] } },
{ "type": "Feature", "properties": { "name": "Poundbakery", "type": "Takeaway/sandwich shop", "address": " 171 Canterbury Road, Urmston, Manchester", "postcode": "M41 0SE", "area_name": "Trafford" }, "geometry": { "type": "Point", "coordinates": [ -2.345195, 53.455143 ] } },
{ "type": "Feature", "properties": { "name": "Red Dragon", "type": "Takeaway/sandwich shop", "address": " 1 Bowfell Road, Urmston, Manchester", "postcode": "M41 5RW", "area_name": "Trafford" }, "geometry": { "type": "Point", "coordinates": [ -2.366352, 53.451538 ] } },
{ "type": "Feature", "properties": { "name": "Riddings Tandoori", "type": "Takeaway/sandwich shop", "address": " 30 Riddings Road, Timperley, Altrincham", "postcode": "WA15 6BP", "area_name": "Trafford" }, "geometry": { "type": "Point", "coordinates": [ -2.331307, 53.404433 ] } },
{ "type": "Feature", "properties": { "name": "Sajan Takeaway", "type": "Takeaway/sandwich shop", "address": " 14 Northenden Road, Sale, Cheshire", "postcode": "M33 3BR", "area_name": "Trafford" }, "geometry": { "type": "Point", "coordinates": [ -2.316966, 53.423824 ] } },
{ "type": "Feature", "properties": { "name": "Sam Daily Deli", "type": "Takeaway/sandwich shop", "address": " 68 Park Road, Timperley, Altrincham", "postcode": "WA14 5AB", "area_name": "Trafford" }, "geometry": { "type": "Point", "coordinates": [ -2.341006, 53.404216 ] } },
{ "type": "Feature", "properties": { "name": "Sayers", "type": "Takeaway/sandwich shop", "address": " Unit 5 Partington Shopping Centre, Partington", "postcode": "M31 4EL", "area_name": "Trafford" }, "geometry": { "type": "Point", "coordinates": [ -2.425437, 53.418174 ] } },
{ "type": "Feature", "properties": { "name": "Sayers", "type": "Takeaway/sandwich shop", "address": " 20 Green Lane, Sale, Cheshire", "postcode": "M33 5PP", "area_name": "Trafford" }, "geometry": { "type": "Point", "coordinates": [ -2.341873, 53.429652 ] } },
{ "type": "Feature", "properties": { "name": "Seaway Fish And Chips", "type": "Takeaway/sandwich shop", "address": " 18 Green Lane, Sale", "postcode": "M33 5PP", "area_name": "Trafford" }, "geometry": { "type": "Point", "coordinates": [ -2.341873, 53.429652 ] } },
{ "type": "Feature", "properties": { "name": "Silver Palace", "type": "Takeaway/sandwich shop", "address": " 22 Moss Road, Stretford, Manchester", "postcode": "M32 0AH", "area_name": "Trafford" }, "geometry": { "type": "Point", "coordinates": [ -2.310033, 53.451221 ] } },
{ "type": "Feature", "properties": { "name": "Smash Pizza Co.", "type": "Takeaway/sandwich shop", "address": " 361 Stockport Road, Timperley, Altrincham", "postcode": "WA15 7UG", "area_name": "Trafford" }, "geometry": { "type": "Point", "coordinates": [ -2.3187106, 53.3975714 ] } },
{ "type": "Feature", "properties": { "name": "Sorento Pizzeria", "type": "Takeaway/sandwich shop", "address": " 19-21 Green Lane, Sale, Cheshire", "postcode": "M33 5PN", "area_name": "Trafford" }, "geometry": { "type": "Point", "coordinates": [ -2.3424, 53.429668 ] } },
{ "type": "Feature", "properties": { "name": "Spice of India", "type": "Takeaway/sandwich shop", "address": " 95 Higher Road, Urmston, Manchester", "postcode": "M41 9AP", "area_name": "Trafford" }, "geometry": { "type": "Point", "coordinates": [ -2.34839, 53.448122 ] } },
{ "type": "Feature", "properties": { "name": "Spices of Kashmir", "type": "Takeaway/sandwich shop", "address": "89a-89b, 89a Ayres Road, Old Trafford, Manchester", "postcode": "M16 7GS", "area_name": "Trafford" }, "geometry": { "type": "Point", "coordinates": [ -2.2672981, 53.4584698 ] } },
{ "type": "Feature", "properties": { "name": "Spicey Chef", "type": "Takeaway/sandwich shop", "address": " 398 Barton Road, Stretford, Manchester", "postcode": "M32 9RW", "area_name": "Trafford" }, "geometry": { "type": "Point", "coordinates": [ -2.32587, 53.454613 ] } },
{ "type": "Feature", "properties": { "name": "Spudulike by James Martin", "type": "Takeaway/sandwich shop", "address": " 3 The Orient, Trafford Centre, Trafford Park", "postcode": "M17 8EH", "area_name": "Trafford" }, "geometry": { "type": "Point", "coordinates": [ -2.34880399703979, 53.465663909912102 ] } },
{ "type": "Feature", "properties": { "name": "Starving Man", "type": "Takeaway/sandwich shop", "address": " 10 Lloyd Street, Altrincham, Cheshire", "postcode": "WA14 2DE", "area_name": "Trafford" }, "geometry": { "type": "Point", "coordinates": [ -2.351581, 53.38424 ] } },
{ "type": "Feature", "properties": { "name": "Stretford Balti", "type": "Takeaway/sandwich shop", "address": " 230 Derbyshire Lane West, Stretford, Manchester", "postcode": "M32 9LD", "area_name": "Trafford" }, "geometry": { "type": "Point", "coordinates": [ -2.320799, 53.45113 ] } },
{ "type": "Feature", "properties": { "name": "Subway", "type": "Takeaway/sandwich shop", "address": "Within, BP Petrol Station, Stretford Circle, Audley Avenue Stretford", "postcode": "M32 9TR", "area_name": "Trafford" }, "geometry": { "type": "Point", "coordinates": [ -2.336501, 53.456516 ] } },
{ "type": "Feature", "properties": { "name": "Subway & Eden news", "type": "Takeaway/sandwich shop", "address": " 24-26 Flixton Road, Urmston, Manchester", "postcode": "M41 5AA", "area_name": "Trafford" }, "geometry": { "type": "Point", "coordinates": [ -2.3546115, 53.4485971 ] } },
{ "type": "Feature", "properties": { "name": "Subway Timperley", "type": "Takeaway/sandwich shop", "address": " 332 Manchester Road, Altrincham", "postcode": "WA14 5NH", "area_name": "Trafford" }, "geometry": { "type": "Point", "coordinates": [ -2.3468299, 53.4063735 ] } },
{ "type": "Feature", "properties": { "name": "Tastebuds (UK) Ltd", "type": "Takeaway/sandwich shop", "address": " 1 School Road, Sale", "postcode": "M33 7XY", "area_name": "Trafford" }, "geometry": { "type": "Point", "coordinates": [ -2.319786, 53.424607 ] } },
{ "type": "Feature", "properties": { "name": "Tele Pizza", "type": "Takeaway/sandwich shop", "address": " 29 Flixton Road, Urmston, Manchester", "postcode": "M41 5AW", "area_name": "Trafford" }, "geometry": { "type": "Point", "coordinates": [ -2.355408, 53.448263 ] } },
{ "type": "Feature", "properties": { "name": "That Pizza Place Ltd", "type": "Takeaway/sandwich shop", "address": " 323 Hale Road, Hale Barns Altrincham, Cheshire", "postcode": "WA15 8SS", "area_name": "Trafford" }, "geometry": { "type": "Point", "coordinates": [ -2.313722, 53.369488 ] } },
{ "type": "Feature", "properties": { "name": "The Cabin", "type": "Takeaway/sandwich shop", "address": " 150 Grove Lane, Timperley Altrincham, Cheshire", "postcode": "WA15 6PD", "area_name": "Trafford" }, "geometry": { "type": "Point", "coordinates": [ -2.323052, 53.39695 ] } },
{ "type": "Feature", "properties": { "name": "The First Chinese Takeaway", "type": "Takeaway/sandwich shop", "address": " 139 Glebelands Road, Sale, Cheshire", "postcode": "M33 6LP", "area_name": "Trafford" }, "geometry": { "type": "Point", "coordinates": [ -2.329335, 53.431485 ] } },
{ "type": "Feature", "properties": { "name": "The Flamin Chicken", "type": "Takeaway/sandwich shop", "address": " 119 Washway Road, Sale", "postcode": "M33 7TY", "area_name": "Trafford" }, "geometry": { "type": "Point", "coordinates": [ -2.329961, 53.421011 ] } },
{ "type": "Feature", "properties": { "name": "The Good Catch", "type": "Takeaway/sandwich shop", "address": " 160 Stamford Park Road, Hale Altrincham, Cheshire", "postcode": "WA15 8AL", "area_name": "Trafford" }, "geometry": { "type": "Point", "coordinates": [ -2.336762, 53.382953 ] } },
{ "type": "Feature", "properties": { "name": "The Grill", "type": "Takeaway/sandwich shop", "address": " 132 Moss Lane, Timperley, Altrincham", "postcode": "WA15 6JL", "area_name": "Trafford" }, "geometry": { "type": "Point", "coordinates": [ -2.33355689048767, 53.399879455566399 ] } },
{ "type": "Feature", "properties": { "name": "The New Don", "type": "Takeaway/sandwich shop", "address": " 2 Church Street, Altrincham", "postcode": "WA14 4DW", "area_name": "Trafford" }, "geometry": { "type": "Point", "coordinates": [ -2.349928, 53.389809 ] } },
{ "type": "Feature", "properties": { "name": "The Shake Lab", "type": "Takeaway/sandwich shop", "address": " 107 The Orient, Trafford Centre, Trafford Park", "postcode": "M17 8EH", "area_name": "Trafford" }, "geometry": { "type": "Point", "coordinates": [ -2.34902, 53.466187 ] } },
{ "type": "Feature", "properties": { "name": "The Sunrise Patisserie", "type": "Takeaway/sandwich shop", "address": "The Market Hall, Greenwood Street, Altrincham", "postcode": "WA14 1SA", "area_name": "Trafford" }, "geometry": { "type": "Point", "coordinates": [ -2.351894, 53.387475 ] } },
{ "type": "Feature", "properties": { "name": "The Village Chippy", "type": "Takeaway/sandwich shop", "address": " 400 Third Avenue, Trafford PArk", "postcode": "M17 1JE", "area_name": "Trafford" }, "geometry": { "type": "Point", "coordinates": [ -2.310246, 53.466034 ] } },
{ "type": "Feature", "properties": { "name": "Theo's Fine Kettle Of Fish", "type": "Takeaway/sandwich shop", "address": " 4 Shaftesbury Avenue, Timperley Altrincham, Cheshire", "postcode": "WA15 7LY", "area_name": "Trafford" }, "geometry": { "type": "Point", "coordinates": [ -2.328258, 53.391435 ] } },
{ "type": "Feature", "properties": { "name": "Tibetan Kitchen", "type": "Takeaway/sandwich shop", "address": " 254 Upper Chorlton Road, Old Trafford, Manchester", "postcode": "M16 0BN", "area_name": "Trafford" }, "geometry": { "type": "Point", "coordinates": [ -2.272296, 53.450873 ] } },
{ "type": "Feature", "properties": { "name": "Timperley Fish Bar", "type": "Takeaway/sandwich shop", "address": " 216 Stockport Road, Timperley, Altrincham", "postcode": "WA15 7UA", "area_name": "Trafford" }, "geometry": { "type": "Point", "coordinates": [ -2.320585, 53.396839 ] } },
{ "type": "Feature", "properties": { "name": "Treasure Chinese Takeaway", "type": "Takeaway/sandwich shop", "address": " 58 Norway Street, Stretford, Manchester", "postcode": "M32 0JW", "area_name": "Trafford" }, "geometry": { "type": "Point", "coordinates": [ -2.3026949, 53.4548079 ] } },
{ "type": "Feature", "properties": { "name": "Turkish Grill (Sale)", "type": "Takeaway/sandwich shop", "address": " 49 Washway Road, Sale", "postcode": "M33 7AB", "area_name": "Trafford" }, "geometry": { "type": "Point", "coordinates": [ -2.327301, 53.42341 ] } },
{ "type": "Feature", "properties": { "name": "Unagi", "type": "Takeaway/sandwich shop", "address": "8 Crown Industrial Estate, Canal Road, Timperley, Altrincham", "postcode": "WA14 1TF", "area_name": "Trafford" }, "geometry": { "type": "Point", "coordinates": [ -2.342038, 53.401544 ] } },
{ "type": "Feature", "properties": { "name": "Us Four", "type": "Takeaway/sandwich shop", "address": "Former Ticket Office Brooklands Metro Station, Marsland Road, Sale", "postcode": "M33 3SQ", "area_name": "Trafford" }, "geometry": { "type": "Point", "coordinates": [ -2.325249, 53.416844 ] } },
{ "type": "Feature", "properties": { "name": "Vegan Sting Ltd", "type": "Takeaway/sandwich shop", "address": " 674 Chester Road, Stretford, Manchester", "postcode": "M32 0SF", "area_name": "Trafford" }, "geometry": { "type": "Point", "coordinates": [ -2.288629, 53.461396 ] } },
{ "type": "Feature", "properties": { "name": "Vivianne", "type": "Takeaway/sandwich shop", "address": " 72 School Road, Sale, Cheshire", "postcode": "M33 7XB", "area_name": "Trafford" }, "geometry": { "type": "Point", "coordinates": [ -2.323781, 53.425532 ] } },
{ "type": "Feature", "properties": { "name": "WA14 Fish and Chips", "type": "Takeaway/sandwich shop", "address": " 120 Ashley Road, Hale, Altrincham", "postcode": "WA14 2UN", "area_name": "Trafford" }, "geometry": { "type": "Point", "coordinates": [ -2.34905409812927, 53.3785400390625 ] } },
{ "type": "Feature", "properties": { "name": "Wing Sing", "type": "Takeaway/sandwich shop", "address": " 32 Riddings Road, Timperley Altrincham, Cheshire", "postcode": "WA15 6BP", "area_name": "Trafford" }, "geometry": { "type": "Point", "coordinates": [ -2.331307, 53.404433 ] } },
{ "type": "Feature", "properties": { "name": "Wing Wah", "type": "Takeaway/sandwich shop", "address": " 68 Old Crofts Bank, Davyhulme, Manchester", "postcode": "M41 7AB", "area_name": "Trafford" }, "geometry": { "type": "Point", "coordinates": [ -2.357326, 53.456168 ] } },
{ "type": "Feature", "properties": { "name": "Wok 191 Chinese Takeaway", "type": "Takeaway/sandwich shop", "address": " 191 Woodsend Road, Flixton, Manchester", "postcode": "M41 8QW", "area_name": "Trafford" }, "geometry": { "type": "Point", "coordinates": [ -2.39400196075439, 53.456771850585902 ] } },
{ "type": "Feature", "properties": { "name": "Wrap it in NW limited", "type": "Takeaway/sandwich shop", "address": "392 Lloyd House, Third Avenue, Trafford Park, Manchester", "postcode": "M17 1JE", "area_name": "Trafford" }, "geometry": { "type": "Point", "coordinates": [ -2.310246, 53.466034 ] } },
{ "type": "Feature", "properties": { "name": "YO! To Go (Inside Tesco)", "type": "Takeaway/sandwich shop", "address": "Tesco, Manor Road, Altrincham", "postcode": "WA15 9QT", "area_name": "Trafford" }, "geometry": { "type": "Point", "coordinates": [ -2.345889, 53.384922 ] } },
{ "type": "Feature", "properties": { "name": "Armaans Kitchen", "type": "Takeaway/sandwich shop", "address": " 5 Ashton Lane, Sale", "postcode": "M33 6WT", "area_name": "Trafford" }, "geometry": { "type": "Point", "coordinates": [ -2.32635593414307, 53.425712585449197 ] } },
{ "type": "Feature", "properties": { "name": "Ashiana Takeaway", "type": "Takeaway/sandwich shop", "address": " 262 Upper Chorlton Road, Old Trafford, Manchester", "postcode": "M16 0BN", "area_name": "Trafford" }, "geometry": { "type": "Point", "coordinates": [ -2.272296, 53.450873 ] } },
{ "type": "Feature", "properties": { "name": "Beijing", "type": "Takeaway/sandwich shop", "address": " 79 Great Stone Road, Stretford, Manchester", "postcode": "M32 8GR", "area_name": "Trafford" }, "geometry": { "type": "Point", "coordinates": [ -2.286284, 53.453015 ] } },
{ "type": "Feature", "properties": { "name": "Canada Grill", "type": "Takeaway/sandwich shop", "address": " 138 Ashley Road, Hale Altrincham, Cheshire", "postcode": "WA14 2UN", "area_name": "Trafford" }, "geometry": { "type": "Point", "coordinates": [ -2.349054, 53.37854 ] } },
{ "type": "Feature", "properties": { "name": "Caribbean Sunrise Foods Ltd", "type": "Takeaway/sandwich shop", "address": " 9 Moss Lane West, Old Trafford, Manchester", "postcode": "M15 5PQ", "area_name": "Trafford" }, "geometry": { "type": "Point", "coordinates": [ -2.2574526, 53.4591924 ] } },
{ "type": "Feature", "properties": { "name": "Chau's", "type": "Takeaway/sandwich shop", "address": " 6 Lostock Road, Davyhulme, Manchester", "postcode": "M41 0PS", "area_name": "Trafford" }, "geometry": { "type": "Point", "coordinates": [ -2.3559682, 53.4578153 ] } },
{ "type": "Feature", "properties": { "name": "China Town Takeaway", "type": "Takeaway/sandwich shop", "address": " 153 Barton Road, Stretford, Manchester", "postcode": "M32 8DN", "area_name": "Trafford" }, "geometry": { "type": "Point", "coordinates": [ -2.314259, 53.446446 ] } },
{ "type": "Feature", "properties": { "name": "Darbar Balti Tandoori", "type": "Takeaway/sandwich shop", "address": " 187 Woodsend Road, Urmston, Manchester", "postcode": "M41 8QW", "area_name": "Trafford" }, "geometry": { "type": "Point", "coordinates": [ -2.394002, 53.456771 ] } },
{ "type": "Feature", "properties": { "name": "Double Dragon", "type": "Takeaway/sandwich shop", "address": " 1a Moss Lane West, Old Trafford, Manchester", "postcode": "M15 5PQ", "area_name": "Trafford" }, "geometry": { "type": "Point", "coordinates": [ -2.256508, 53.459744 ] } },
{ "type": "Feature", "properties": { "name": "Dreamtime Cafe", "type": "Takeaway/sandwich shop", "address": " 68 Manchester Road, Altrincham", "postcode": "WA14 4PJ", "area_name": "Trafford" }, "geometry": { "type": "Point", "coordinates": [ -2.351896, 53.39499 ] } },
{ "type": "Feature", "properties": { "name": "Eat East", "type": "Takeaway/sandwich shop", "address": " 3 Peter Street, Altrincham", "postcode": "WA14 2DZ", "area_name": "Trafford" }, "geometry": { "type": "Point", "coordinates": [ -2.351501, 53.383647 ] } },
{ "type": "Feature", "properties": { "name": "Fast & Fresh", "type": "Takeaway/sandwich shop", "address": " 94 Kings Road, Old Trafford, Manchester", "postcode": "M16 9NG", "area_name": "Trafford" }, "geometry": { "type": "Point", "coordinates": [ -2.2689083, 53.4558774 ] } },
{ "type": "Feature", "properties": { "name": "Feng Sheng", "type": "Takeaway/sandwich shop", "address": " 412 Flixton Road, Urmston, Manchester", "postcode": "M41 6QY", "area_name": "Trafford" }, "geometry": { "type": "Point", "coordinates": [ -2.383624, 53.446558 ] } },
{ "type": "Feature", "properties": { "name": "Freddys Kitchen", "type": "Takeaway/sandwich shop", "address": " 22 Plymouth Road, Sale", "postcode": "M33 5JD", "area_name": "Trafford" }, "geometry": { "type": "Point", "coordinates": [ -2.3514226, 53.4270338 ] } },
{ "type": "Feature", "properties": { "name": "Golden Dragon", "type": "Takeaway/sandwich shop", "address": " 91 Manchester Road, Altrincham", "postcode": "WA14 4RJ", "area_name": "Trafford" }, "geometry": { "type": "Point", "coordinates": [ -2.352436, 53.396803 ] } },
{ "type": "Feature", "properties": { "name": "Grand Slice", "type": "Takeaway/sandwich shop", "address": " 48 Coppice Avenue, Sale", "postcode": "M33 4WB", "area_name": "Trafford" }, "geometry": { "type": "Point", "coordinates": [ -2.348783, 53.415277 ] } },
{ "type": "Feature", "properties": { "name": "Green Fork", "type": "Takeaway/sandwich shop", "address": "394 Lloyd House, Third Avenue, Trafford Park, Manchester", "postcode": "M17 1JE", "area_name": "Trafford" }, "geometry": { "type": "Point", "coordinates": [ -2.310246, 53.466034 ] } },
{ "type": "Feature", "properties": { "name": "Happy House", "type": "Takeaway/sandwich shop", "address": " 6 Woodfield Road, Broadheath Altrincham, Cheshire", "postcode": "WA14 4EU", "area_name": "Trafford" }, "geometry": { "type": "Point", "coordinates": [ -2.352997, 53.397198 ] } },
{ "type": "Feature", "properties": { "name": "Lucky Wok", "type": "Takeaway/sandwich shop", "address": " 24 Cross Street, Sale", "postcode": "M33 7AE", "area_name": "Trafford" }, "geometry": { "type": "Point", "coordinates": [ -2.324493, 53.426096 ] } },
{ "type": "Feature", "properties": { "name": "Lusso Lunch", "type": "Takeaway/sandwich shop", "address": " 170 Northenden Road, Sale", "postcode": "M33 3HE", "area_name": "Trafford" }, "geometry": { "type": "Point", "coordinates": [ -2.3039967, 53.4198208 ] } },
{ "type": "Feature", "properties": { "name": "Mella Pizza /Perfect Fried Chicken", "type": "Takeaway/sandwich shop", "address": " 3 Marsland Road, Sale", "postcode": "M33 3HP", "area_name": "Trafford" }, "geometry": { "type": "Point", "coordinates": [ -2.304819, 53.419298 ] } },
{ "type": "Feature", "properties": { "name": "Milano", "type": "Takeaway/sandwich shop", "address": " 63 Flixton Road, Urmston, Manchester", "postcode": "M41 5AN", "area_name": "Trafford" }, "geometry": { "type": "Point", "coordinates": [ -2.358613, 53.448038 ] } },
{ "type": "Feature", "properties": { "name": "New Rainbow", "type": "Takeaway/sandwich shop", "address": " 214 Church Road, Flixton, Manchester", "postcode": "M41 9DX", "area_name": "Trafford" }, "geometry": { "type": "Point", "coordinates": [ -2.36549, 53.444125 ] } },
{ "type": "Feature", "properties": { "name": "Park View", "type": "Takeaway/sandwich shop", "address": " 50 Washway Road, Sale", "postcode": "M33 7QZ", "area_name": "Trafford" }, "geometry": { "type": "Point", "coordinates": [ -2.327471, 53.423993 ] } },
{ "type": "Feature", "properties": { "name": "Peter Pan", "type": "Takeaway/sandwich shop", "address": " 173 Church Road, Urmston, Manchester", "postcode": "M41 6EA", "area_name": "Trafford" }, "geometry": { "type": "Point", "coordinates": [ -2.367645, 53.442609 ] } },
{ "type": "Feature", "properties": { "name": "Pinocchios", "type": "Takeaway/sandwich shop", "address": " 73 Cross Street, Sale", "postcode": "M33 7HF", "area_name": "Trafford" }, "geometry": { "type": "Point", "coordinates": [ -2.323316, 53.427735 ] } },
{ "type": "Feature", "properties": { "name": "Riverbank Coffee", "type": "Takeaway/sandwich shop", "address": "Newcroft Meadow Farm, Torbay Road, Urmston, Manchester", "postcode": "M41 9WL", "area_name": "Trafford" }, "geometry": { "type": "Point", "coordinates": [ -2.3337103, 53.4389704 ] } },
{ "type": "Feature", "properties": { "name": "Route 66", "type": "Takeaway/sandwich shop", "address": " 61 Briarfield Road, Timperley, Altrincham", "postcode": "WA15 7DD", "area_name": "Trafford" }, "geometry": { "type": "Point", "coordinates": [ -2.311665, 53.392423 ] } },
{ "type": "Feature", "properties": { "name": "Samuels", "type": "Takeaway/sandwich shop", "address": " 164 Northenden Road, Sale", "postcode": "M33 3HE", "area_name": "Trafford" }, "geometry": { "type": "Point", "coordinates": [ -2.304223, 53.4199011 ] } },
{ "type": "Feature", "properties": { "name": "Sayers", "type": "Takeaway/sandwich shop", "address": " 230 Stockport Road, Timperley, Altrincham", "postcode": "WA15 7UN", "area_name": "Trafford" }, "geometry": { "type": "Point", "coordinates": [ -2.319353, 53.3970035 ] } },
{ "type": "Feature", "properties": { "name": "Shamnah", "type": "Takeaway/sandwich shop", "address": " 471 Moorside Road, Flixton, Manchester", "postcode": "M41 8TW", "area_name": "Trafford" }, "geometry": { "type": "Point", "coordinates": [ -2.3915808, 53.4524182 ] } },
{ "type": "Feature", "properties": { "name": "Shere Khan Express", "type": "Takeaway/sandwich shop", "address": " 6 The Orient, The Trafford Centre, Manchester", "postcode": "M17 8EH", "area_name": "Trafford" }, "geometry": { "type": "Point", "coordinates": [ -2.34902, 53.466187 ] } },
{ "type": "Feature", "properties": { "name": "Shiva Indian Takeaway", "type": "Takeaway/sandwich shop", "address": " 83 Great Stone Road, Stretford, Manchester", "postcode": "M32 8GR", "area_name": "Trafford" }, "geometry": { "type": "Point", "coordinates": [ -2.286284, 53.453015 ] } },
{ "type": "Feature", "properties": { "name": "Spice of India", "type": "Takeaway/sandwich shop", "address": " 13 Marsland Road, Sale, Cheshire", "postcode": "M33 3HP", "area_name": "Trafford" }, "geometry": { "type": "Point", "coordinates": [ -2.30482, 53.419298 ] } },
{ "type": "Feature", "properties": { "name": "Subway", "type": "Takeaway/sandwich shop", "address": " 682 Chester Road, Stretford, Manchester", "postcode": "M32 0SF", "area_name": "Trafford" }, "geometry": { "type": "Point", "coordinates": [ -2.288629, 53.461396 ] } },
{ "type": "Feature", "properties": { "name": "Taste India", "type": "Takeaway/sandwich shop", "address": " 383 Stockport Road, Timperley Altrincham, Cheshire", "postcode": "WA15 7UR", "area_name": "Trafford" }, "geometry": { "type": "Point", "coordinates": [ -2.317225, 53.398008 ] } },
{ "type": "Feature", "properties": { "name": "The Fat Pizza", "type": "Takeaway/sandwich shop", "address": " 15 Oxford Road, Altrincham", "postcode": "WA14 2DY", "area_name": "Trafford" }, "geometry": { "type": "Point", "coordinates": [ -2.351743, 53.383826 ] } },
{ "type": "Feature", "properties": { "name": "The Good Catch", "type": "Takeaway/sandwich shop", "address": " 59 Brook Road, Urmston, Manchester", "postcode": "M41 5RY", "area_name": "Trafford" }, "geometry": { "type": "Point", "coordinates": [ -2.374978, 53.451206 ] } },
{ "type": "Feature", "properties": { "name": "The Maharajaa", "type": "Takeaway/sandwich shop", "address": " 12b Moss Road, Stretford, Manchester", "postcode": "M32 0AH", "area_name": "Trafford" }, "geometry": { "type": "Point", "coordinates": [ -2.310033, 53.451221 ] } },
{ "type": "Feature", "properties": { "name": "The Royal", "type": "Takeaway/sandwich shop", "address": " 4 Higher Road, Urmston, Manchester", "postcode": "M41 9BQ", "area_name": "Trafford" }, "geometry": { "type": "Point", "coordinates": [ -2.3525438, 53.4479061 ] } },
{ "type": "Feature", "properties": { "name": "Trafford Oriental", "type": "Takeaway/sandwich shop", "address": " 18 Seymour Grove, Old Trafford, Manchester", "postcode": "M16 0LH", "area_name": "Trafford" }, "geometry": { "type": "Point", "coordinates": [ -2.276745, 53.461316 ] } },
{ "type": "Feature", "properties": { "name": "Urmston Kurry House", "type": "Takeaway/sandwich shop", "address": " 83 Stretford Road, Urmston, Manchester", "postcode": "M41 9LG", "area_name": "Trafford" }, "geometry": { "type": "Point", "coordinates": [ -2.347848, 53.446335 ] } },
{ "type": "Feature", "properties": { "name": "Urmston Takeaway", "type": "Takeaway/sandwich shop", "address": " 76 Railway Road, Urmston, Manchester", "postcode": "M41 0XT", "area_name": "Trafford" }, "geometry": { "type": "Point", "coordinates": [ -2.34634, 53.44971 ] } },
{ "type": "Feature", "properties": { "name": "Whittakers", "type": "Takeaway/sandwich shop", "address": " 12 Station Road, Urmston, Manchester", "postcode": "M41 9JN", "area_name": "Trafford" }, "geometry": { "type": "Point", "coordinates": [ -2.353096, 53.447354 ] } },
{ "type": "Feature", "properties": { "name": "Wing Wah Delight", "type": "Takeaway/sandwich shop", "address": " 120 Seamons Road, Altrincham", "postcode": "WA14 4LJ", "area_name": "Trafford" }, "geometry": { "type": "Point", "coordinates": [ -2.3706436, 53.3929092 ] } },
{ "type": "Feature", "properties": { "name": "Wok Inn", "type": "Takeaway/sandwich shop", "address": " 2 Lloyd Street, Altrincham", "postcode": "WA14 2DE", "area_name": "Trafford" }, "geometry": { "type": "Point", "coordinates": [ -2.351581, 53.38424 ] } },
{ "type": "Feature", "properties": { "name": "Yard Burger Bar", "type": "Takeaway/sandwich shop", "address": " 9 Claremont Road, Sale", "postcode": "M33 7DZ", "area_name": "Trafford" }, "geometry": { "type": "Point", "coordinates": [ -2.3214031, 53.4254828 ] } },
{ "type": "Feature", "properties": { "name": "Yogbox", "type": "Takeaway/sandwich shop", "address": " 30-32 Greenwood Street, Altrincham", "postcode": "WA14 1RZ", "area_name": "Trafford" }, "geometry": { "type": "Point", "coordinates": [ -2.3520075, 53.3868174 ] } },
{ "type": "Feature", "properties": { "name": "Yuit Loung", "type": "Takeaway/sandwich shop", "address": " 95 Oak Road, Partington, Manchester", "postcode": "M31 4LD", "area_name": "Trafford" }, "geometry": { "type": "Point", "coordinates": [ -2.436214, 53.411115 ] } },
{ "type": "Feature", "properties": { "name": "Canadian Charcoal Pit", "type": "Takeaway/sandwich shop", "address": " 80 Washway Road, Sale", "postcode": "M33 7RE", "area_name": "Trafford" }, "geometry": { "type": "Point", "coordinates": [ -2.328398, 53.423227 ] } },
{ "type": "Feature", "properties": { "name": "Captain Cod", "type": "Takeaway/sandwich shop", "address": " 287 Stretford Road, Urmston, Manchester", "postcode": "M41 9NU", "area_name": "Trafford" }, "geometry": { "type": "Point", "coordinates": [ -2.3291, 53.445903 ] } },
{ "type": "Feature", "properties": { "name": "Chaps and Chippy Butty Bar", "type": "Takeaway/sandwich shop", "address": " 5 Navigation Road, Altrincham", "postcode": "WA14 1LW", "area_name": "Trafford" }, "geometry": { "type": "Point", "coordinates": [ -2.3515568, 53.3977487 ] } },
{ "type": "Feature", "properties": { "name": "Charcoal Grill Fish Bar", "type": "Takeaway/sandwich shop", "address": "Partington Service Station, 15 Smithy Lane, Partington, Manchester", "postcode": "M31 4RB", "area_name": "Trafford" }, "geometry": { "type": "Point", "coordinates": [ -2.425463, 53.419235 ] } },
{ "type": "Feature", "properties": { "name": "Cluck 'a' Rito", "type": "Takeaway/sandwich shop", "address": " 65 Great Stone Road, Stretford, Manchester", "postcode": "M32 8GR", "area_name": "Trafford" }, "geometry": { "type": "Point", "coordinates": [ -2.286284, 53.453015 ] } },
{ "type": "Feature", "properties": { "name": "Coppice Fish Bar", "type": "Takeaway/sandwich shop", "address": " 56 Coppice Avenue, Sale", "postcode": "M33 4WB", "area_name": "Trafford" }, "geometry": { "type": "Point", "coordinates": [ -2.348783, 53.415277 ] } },
{ "type": "Feature", "properties": { "name": "Crispy Bites", "type": "Takeaway/sandwich shop", "address": "Go Local Extra, 3a Catterick Avenue, Sale", "postcode": "M33 4GQ", "area_name": "Trafford" }, "geometry": { "type": "Point", "coordinates": [ -2.35951900482178, 53.412754058837898 ] } },
{ "type": "Feature", "properties": { "name": "Delhi Darbar", "type": "Takeaway/sandwich shop", "address": " 184 Davyhulme Road, Stretford, Manchester", "postcode": "M32 0AS", "area_name": "Trafford" }, "geometry": { "type": "Point", "coordinates": [ -2.315783, 53.453022 ] } },
{ "type": "Feature", "properties": { "name": "Dixy Chicken", "type": "Takeaway/sandwich shop", "address": " 17 Moss Lane West, Old Trafford, Manchester", "postcode": "M15 5PQ", "area_name": "Trafford" }, "geometry": { "type": "Point", "coordinates": [ -2.256508, 53.459744 ] } },
{ "type": "Feature", "properties": { "name": "Dixy Chicken / Shack burg", "type": "Takeaway/sandwich shop", "address": " 912 Chester Road, Stretford, Manchester", "postcode": "M32 0PA", "area_name": "Trafford" }, "geometry": { "type": "Point", "coordinates": [ -2.299406, 53.453963 ] } },
{ "type": "Feature", "properties": { "name": "Dragon City", "type": "Takeaway/sandwich shop", "address": " 392 Washway Road, Sale", "postcode": "M33 4JH", "area_name": "Trafford" }, "geometry": { "type": "Point", "coordinates": [ -2.345432, 53.40833 ] } },
{ "type": "Feature", "properties": { "name": "Evergreen", "type": "Takeaway/sandwich shop", "address": " 135 Barton Road, Stretford, Manchester", "postcode": "M32 8DN", "area_name": "Trafford" }, "geometry": { "type": "Point", "coordinates": [ -2.314259, 53.446446 ] } },
{ "type": "Feature", "properties": { "name": "Four Seasons", "type": "Takeaway/sandwich shop", "address": " 400 Barton Road, Stretford, Manchester", "postcode": "M32 9RW", "area_name": "Trafford" }, "geometry": { "type": "Point", "coordinates": [ -2.32587, 53.454613 ] } },
{ "type": "Feature", "properties": { "name": "Fresh 2 Cook", "type": "Takeaway/sandwich shop", "address": " 378 Northenden Road, Sale", "postcode": "M33 2PZ", "area_name": "Trafford" }, "geometry": { "type": "Point", "coordinates": [ -2.29159, 53.418846 ] } },
{ "type": "Feature", "properties": { "name": "Good Choice", "type": "Takeaway/sandwich shop", "address": " 7a Regent Road, Altrincham", "postcode": "WA14 1RY", "area_name": "Trafford" }, "geometry": { "type": "Point", "coordinates": [ -2.352059, 53.38565 ] } },
{ "type": "Feature", "properties": { "name": "Grill Hut", "type": "Takeaway/sandwich shop", "address": " 260 Upper Chorlton Road, Old Trafford, Manchester", "postcode": "M16 0BN", "area_name": "Trafford" }, "geometry": { "type": "Point", "coordinates": [ -2.272296, 53.450873 ] } },
{ "type": "Feature", "properties": { "name": "Immys Charcoal Grill", "type": "Takeaway/sandwich shop", "address": " 2 Woodsend Road, Flixton, Manchester", "postcode": "M41 8QT", "area_name": "Trafford" }, "geometry": { "type": "Point", "coordinates": [ -2.391146, 53.449114 ] } },
{ "type": "Feature", "properties": { "name": "Ishys", "type": "Takeaway/sandwich shop", "address": " 105 Oak Road, Partington, Manchester", "postcode": "M31 4LD", "area_name": "Trafford" }, "geometry": { "type": "Point", "coordinates": [ -2.436214, 53.411115 ] } },
{ "type": "Feature", "properties": { "name": "Jerryz", "type": "Takeaway/sandwich shop", "address": " 8 Washway Road, Sale", "postcode": "M33 7QY", "area_name": "Trafford" }, "geometry": { "type": "Point", "coordinates": [ -2.326142, 53.425327 ] } },
{ "type": "Feature", "properties": { "name": "Lotus House", "type": "Takeaway/sandwich shop", "address": " 389 Stockport Road, Altrincham", "postcode": "WA15 7UR", "area_name": "Trafford" }, "geometry": { "type": "Point", "coordinates": [ -2.317225, 53.398008 ] } },
{ "type": "Feature", "properties": { "name": "Mashâ€™s Wing Ranch", "type": "Takeaway/sandwich shop", "address": " 882 Chester Road, Stretford, Manchester", "postcode": "M32 0PA", "area_name": "Trafford" }, "geometry": { "type": "Point", "coordinates": [ -2.2989272, 53.454386 ] } },
{ "type": "Feature", "properties": { "name": "Mia's", "type": "Takeaway/sandwich shop", "address": " 2a Taylors Road, Stretford, Manchester", "postcode": "M32 0JA", "area_name": "Trafford" }, "geometry": { "type": "Point", "coordinates": [ -2.300122, 53.455183 ] } },
{ "type": "Feature", "properties": { "name": "Ming Dynasty", "type": "Takeaway/sandwich shop", "address": " 237 Talbot Road, Stretford, Manchester", "postcode": "M32 0YW", "area_name": "Trafford" }, "geometry": { "type": "Point", "coordinates": [ -2.295237, 53.454198 ] } },
{ "type": "Feature", "properties": { "name": "Mr Yungs", "type": "Takeaway/sandwich shop", "address": " 134 Moss Lane, Hale, Altrincham", "postcode": "WA15 8AN", "area_name": "Trafford" }, "geometry": { "type": "Point", "coordinates": [ -2.3365811, 53.3829699 ] } },
{ "type": "Feature", "properties": { "name": "Old Trafford Bakery Jamaican Takeaway", "type": "Takeaway/sandwich shop", "address": " 126 Shrewsbury Street, Old Trafford, Manchester", "postcode": "M16 7NY", "area_name": "Trafford" }, "geometry": { "type": "Point", "coordinates": [ -2.261799, 53.460442 ] } },
{ "type": "Feature", "properties": { "name": "Oldfield Tandoori", "type": "Takeaway/sandwich shop", "address": " 122 Seamons Road, Altrincham", "postcode": "WA14 4LJ", "area_name": "Trafford" }, "geometry": { "type": "Point", "coordinates": [ -2.370871, 53.392982 ] } },
{ "type": "Feature", "properties": { "name": "Parkers of Salford", "type": "Takeaway/sandwich shop", "address": " 137 Park Road, Stretford, Manchester", "postcode": "M32 8FB", "area_name": "Trafford" }, "geometry": { "type": "Point", "coordinates": [ -2.317034, 53.453127 ] } },
{ "type": "Feature", "properties": { "name": "Peter Pan Pizza", "type": "Takeaway/sandwich shop", "address": " 880 Chester Road, Stretford, Manchester", "postcode": "M32 0PA", "area_name": "Trafford" }, "geometry": { "type": "Point", "coordinates": [ -2.299406, 53.453963 ] } },
{ "type": "Feature", "properties": { "name": "Pinocchios", "type": "Takeaway/sandwich shop", "address": " 220 Stockport Road, Altrincham", "postcode": "WA15 7UA", "area_name": "Trafford" }, "geometry": { "type": "Point", "coordinates": [ -2.320585, 53.39684 ] } },
{ "type": "Feature", "properties": { "name": "Red Marrakech", "type": "Takeaway/sandwich shop", "address": " 97 Ayres Road, Old Trafford, Manchester", "postcode": "M16 7GS", "area_name": "Trafford" }, "geometry": { "type": "Point", "coordinates": [ -2.26763, 53.458443 ] } },
{ "type": "Feature", "properties": { "name": "Roosters", "type": "Takeaway/sandwich shop", "address": " 214 Manchester Road, Altrincham", "postcode": "WA14 5LU", "area_name": "Trafford" }, "geometry": { "type": "Point", "coordinates": [ -2.352097, 53.401182 ] } },
{ "type": "Feature", "properties": { "name": "Rositaâ€™s Pizzeria", "type": "Takeaway/sandwich shop", "address": " 73 Princess Road, Urmston, Manchester", "postcode": "M41 5SQ", "area_name": "Trafford" }, "geometry": { "type": "Point", "coordinates": [ -2.365569, 53.451523 ] } },
{ "type": "Feature", "properties": { "name": "Seven Ways", "type": "Takeaway/sandwich shop", "address": " 224 Derbyshire Lane West, Stretford, Manchester", "postcode": "M32 9LD", "area_name": "Trafford" }, "geometry": { "type": "Point", "coordinates": [ -2.320799, 53.45113 ] } },
{ "type": "Feature", "properties": { "name": "Taftan Tandoori", "type": "Takeaway/sandwich shop", "address": " 178-180 Chorlton Road, Old Trafford, Manchester", "postcode": "M16 7WW", "area_name": "Trafford" }, "geometry": { "type": "Point", "coordinates": [ -2.258569, 53.45938 ] } },
{ "type": "Feature", "properties": { "name": "Taste of China", "type": "Takeaway/sandwich shop", "address": " 178 Marsland Road, Sale", "postcode": "M33 3NE", "area_name": "Trafford" }, "geometry": { "type": "Point", "coordinates": [ -2.320276, 53.417756 ] } },
{ "type": "Feature", "properties": { "name": "The Pepper Mill", "type": "Takeaway/sandwich shop", "address": " 181 Marsland Road, Sale", "postcode": "M33 3ND", "area_name": "Trafford" }, "geometry": { "type": "Point", "coordinates": [ -2.320483, 53.417333 ] } },
{ "type": "Feature", "properties": { "name": "Toronto's Canadian Charcoal", "type": "Takeaway/sandwich shop", "address": " 87 Manchester Road, Altrincham", "postcode": "WA14 4RJ", "area_name": "Trafford" }, "geometry": { "type": "Point", "coordinates": [ -2.352437, 53.396804 ] } },
{ "type": "Feature", "properties": { "name": "Urmston Fish Bar", "type": "Takeaway/sandwich shop", "address": " 148 Flixton Road, Urmston, Manchester", "postcode": "M41 5BG", "area_name": "Trafford" }, "geometry": { "type": "Point", "coordinates": [ -2.3628, 53.448232 ] } },
{ "type": "Feature", "properties": { "name": "Wing Express", "type": "Takeaway/sandwich shop", "address": " 20 Plymouth Road, Sale", "postcode": "M33 5JD", "area_name": "Trafford" }, "geometry": { "type": "Point", "coordinates": [ -2.351724, 53.427043 ] } },
{ "type": "Feature", "properties": { "name": "Wok Inn", "type": "Takeaway/sandwich shop", "address": " 84 Park Road, Timperley, Altrincham", "postcode": "WA14 5AB", "area_name": "Trafford" }, "geometry": { "type": "Point", "coordinates": [ -2.341006, 53.404216 ] } },
{ "type": "Feature", "properties": { "name": "Xpress Pizza", "type": "Takeaway/sandwich shop", "address": " 159 Northenden Road, Sale", "postcode": "M33 2HS", "area_name": "Trafford" }, "geometry": { "type": "Point", "coordinates": [ -2.303245, 53.42004 ] } },
{ "type": "Feature", "properties": { "name": "Yummy", "type": "Takeaway/sandwich shop", "address": " 15 Flixton Road, Urmston, Manchester", "postcode": "M41 5AW", "area_name": "Trafford" }, "geometry": { "type": "Point", "coordinates": [ -2.355408, 53.448263 ] } },
{ "type": "Feature", "properties": { "name": "Zara Kebab House", "type": "Takeaway/sandwich shop", "address": " 182a Davyhulme Road, Stretford, Manchester", "postcode": "M32 0AS", "area_name": "Trafford" }, "geometry": { "type": "Point", "coordinates": [ -2.315783, 53.453022 ] } },
{ "type": "Feature", "properties": { "name": "Aminah Tandoori", "type": "Takeaway/sandwich shop", "address": " 2 Peter Street, Altrincham", "postcode": "WA14 2DS", "area_name": "Trafford" }, "geometry": { "type": "Point", "coordinates": [ -2.352011, 53.38352 ] } },
{ "type": "Feature", "properties": { "name": "Canadian Charcoal Pit", "type": "Takeaway/sandwich shop", "address": " 143 Barton Road, Stretford, Manchester", "postcode": "M32 8DN", "area_name": "Trafford" }, "geometry": { "type": "Point", "coordinates": [ -2.314259, 53.446446 ] } },
{ "type": "Feature", "properties": { "name": "Dhaanya Indian Takeaway", "type": "Takeaway/sandwich shop", "address": " 173 Cross Street, Sale", "postcode": "M33 7JQ", "area_name": "Trafford" }, "geometry": { "type": "Point", "coordinates": [ -2.319712, 53.43081 ] } },
{ "type": "Feature", "properties": { "name": "Gar Pan", "type": "Takeaway/sandwich shop", "address": " 526 Stretford Road, Manchester", "postcode": "M16 9AF", "area_name": "Trafford" }, "geometry": { "type": "Point", "coordinates": [ -2.266492, 53.464279 ] } },
{ "type": "Feature", "properties": { "name": "Genie", "type": "Takeaway/sandwich shop", "address": "Genie Takeaway, 30 Seymour Grove, Old Trafford, Manchester", "postcode": "M16 0LH", "area_name": "Trafford" }, "geometry": { "type": "Point", "coordinates": [ -2.276745, 53.461316 ] } },
{ "type": "Feature", "properties": { "name": "Happy Panda", "type": "Takeaway/sandwich shop", "address": "Kas, 145 Manchester Road, Altrincham", "postcode": "WA14 5NS", "area_name": "Trafford" }, "geometry": { "type": "Point", "coordinates": [ -2.3526663, 53.3991566 ] } },
{ "type": "Feature", "properties": { "name": "i cook", "type": "Takeaway/sandwich shop", "address": " 12 Lloyd Street, Altrincham", "postcode": "WA14 2DE", "area_name": "Trafford" }, "geometry": { "type": "Point", "coordinates": [ -2.351581, 53.38424 ] } },
{ "type": "Feature", "properties": { "name": "Kara Chippery and Curry House", "type": "Takeaway/sandwich shop", "address": " 123 Stamford Street, Old Trafford, Manchester", "postcode": "M16 9LT", "area_name": "Trafford" }, "geometry": { "type": "Point", "coordinates": [ -2.262249, 53.460199 ] } },
{ "type": "Feature", "properties": { "name": "LA Pizza and Grill", "type": "Takeaway/sandwich shop", "address": " 77 Manchester Road, Altrincham", "postcode": "WA14 4RJ", "area_name": "Trafford" }, "geometry": { "type": "Point", "coordinates": [ -2.352437, 53.396804 ] } },
{ "type": "Feature", "properties": { "name": "Legends Bar & Food Ltd", "type": "Takeaway/sandwich shop", "address": " 672 Chester Road, Stretford, Manchester", "postcode": "M32 0SF", "area_name": "Trafford" }, "geometry": { "type": "Point", "coordinates": [ -2.288629, 53.461396 ] } },
{ "type": "Feature", "properties": { "name": "Masterpiece pizza", "type": "Takeaway/sandwich shop", "address": " 17 Ashfield Road, Sale", "postcode": "M33 7DY", "area_name": "Trafford" }, "geometry": { "type": "Point", "coordinates": [ -2.3207288, 53.4258712 ] } },
{ "type": "Feature", "properties": { "name": "Pizza Planet", "type": "Takeaway/sandwich shop", "address": " 4 Lostock Road, Urmston, Manchester", "postcode": "M41 0PS", "area_name": "Trafford" }, "geometry": { "type": "Point", "coordinates": [ -2.355818, 53.457763 ] } },
{ "type": "Feature", "properties": { "name": "Rajdan", "type": "Takeaway/sandwich shop", "address": " 401 Stockport Road, Timperley, Altrincham", "postcode": "WA15 7UR", "area_name": "Trafford" }, "geometry": { "type": "Point", "coordinates": [ -2.317405, 53.397935 ] } },
{ "type": "Feature", "properties": { "name": "Canada Grill", "type": "Takeaway/sandwich shop", "address": " 38 Railway Street, Altrincham", "postcode": "WA14 2RE", "area_name": "Trafford" }, "geometry": { "type": "Point", "coordinates": [ -2.351844, 53.385129 ] } },
{ "type": "Feature", "properties": { "name": "Guang's House", "type": "Takeaway/sandwich shop", "address": " 363 Norris Road, Sale", "postcode": "M33 2UP", "area_name": "Trafford" }, "geometry": { "type": "Point", "coordinates": [ -2.298682, 53.415224 ] } },
{ "type": "Feature", "properties": { "name": "Hong Kong Chippy", "type": "Takeaway/sandwich shop", "address": " 149 Henrietta Street, Old Trafford, Manchester", "postcode": "M16 9PS", "area_name": "Trafford" }, "geometry": { "type": "Point", "coordinates": [ -2.267698, 53.459638 ] } },
{ "type": "Feature", "properties": { "name": "Masala Bangladeshi", "type": "Takeaway/sandwich shop", "address": " 8 Church Street, Altrincham, Cheshire", "postcode": "WA14 4DW", "area_name": "Trafford" }, "geometry": { "type": "Point", "coordinates": [ -2.349928, 53.389809 ] } },
{ "type": "Feature", "properties": { "name": "Papachino", "type": "Takeaway/sandwich shop", "address": "Papachinos Pizza, 22 Railway Street, Altrincham", "postcode": "WA14 2RE", "area_name": "Trafford" }, "geometry": { "type": "Point", "coordinates": [ -2.35182905197144, 53.385120391845703 ] } },
{ "type": "Feature", "properties": { "name": "Muncho's", "type": "Takeaway/sandwich shop", "address": " 414 Barton Road, Stretford, Manchester", "postcode": "M32 9RW", "area_name": "Trafford" }, "geometry": { "type": "Point", "coordinates": [ -2.32587, 53.454613 ] } },
{ "type": "Feature", "properties": { "name": "Biryani House", "type": "Takeaway/sandwich shop", "address": "Apartment 45 Aura Court, 1 Percy Street, Old Trafford, Manchester", "postcode": "M15 4AB", "area_name": "Trafford" }, "geometry": { "type": "Point", "coordinates": [ -2.2604587, 53.4655948 ] } },
{ "type": "Feature", "properties": { "name": "Blue Lotus", "type": "Takeaway/sandwich shop", "address": " 12 Brooklands Road, Sale", "postcode": "M33 3SQ", "area_name": "Trafford" }, "geometry": { "type": "Point", "coordinates": [ -2.325249, 53.416844 ] } },
{ "type": "Feature", "properties": { "name": "Crush Desserts", "type": "Takeaway/sandwich shop", "address": " 87 Great Stone Road, Stretford, Manchester", "postcode": "M32 8GR", "area_name": "Trafford" }, "geometry": { "type": "Point", "coordinates": [ -2.2861018, 53.4528804 ] } },
{ "type": "Feature", "properties": { "name": "Indulge takeaway", "type": "Takeaway/sandwich shop", "address": " 19 Tatton Road, Sale", "postcode": "M33 7EB", "area_name": "Trafford" }, "geometry": { "type": "Point", "coordinates": [ -2.320334, 53.425513 ] } },
{ "type": "Feature", "properties": { "name": "Istanbul Grill Express", "type": "Takeaway/sandwich shop", "address": " 87 Manchester Road, Altrincham", "postcode": "WA14 4RJ", "area_name": "Trafford" }, "geometry": { "type": "Point", "coordinates": [ -2.352437, 53.396804 ] } },
{ "type": "Feature", "properties": { "name": "Mooboo", "type": "Takeaway/sandwich shop", "address": " 1 The Dome, Trafford Centre, Trafford Park", "postcode": "M17 8DF", "area_name": "Trafford" }, "geometry": { "type": "Point", "coordinates": [ -2.34902000427246, 53.4661865234375 ] } },
{ "type": "Feature", "properties": { "name": "Po Hoi H K Street Food and fish and chios", "type": "Takeaway/sandwich shop", "address": " 10 Navigation Road, Altrincham", "postcode": "WA14 1NF", "area_name": "Trafford" }, "geometry": { "type": "Point", "coordinates": [ -2.34916, 53.397047 ] } },
{ "type": "Feature", "properties": { "name": "Saffron Balti", "type": "Takeaway/sandwich shop", "address": " 81 Manchester Road, Altrincham", "postcode": "WA14 4RJ", "area_name": "Trafford" }, "geometry": { "type": "Point", "coordinates": [ -2.352436, 53.396803 ] } },
{ "type": "Feature", "properties": { "name": "The Smash Plug", "type": "Takeaway/sandwich shop", "address": " 12b Moss Road, Stretford, Manchester", "postcode": "M32 0AH", "area_name": "Trafford" }, "geometry": { "type": "Point", "coordinates": [ -2.310033, 53.451221 ] } },
{ "type": "Feature", "properties": { "name": "Toppings", "type": "Takeaway/sandwich shop", "address": " 888 Chester Road, Stretford, Manchester", "postcode": "M32 0PA", "area_name": "Trafford" }, "geometry": { "type": "Point", "coordinates": [ -2.299406, 53.453963 ] } },
{ "type": "Feature", "properties": { "name": "Fold CrÃªpes and Galettes", "type": "Takeaway/sandwich shop", "address": "The Market Hall, Greenwood Street, Altrincham", "postcode": "WA14 1SA", "area_name": "Trafford" }, "geometry": { "type": "Point", "coordinates": [ -2.351894, 53.387475 ] } },
{ "type": "Feature", "properties": { "name": "Amigo Pizza Limited", "type": "Restaurant/Cafe/Canteen", "address": " 402 Barton Road, Stretford, Manchester", "postcode": "M32 9RW", "area_name": "Trafford" }, "geometry": { "type": "Point", "coordinates": [ -2.32587, 53.454613 ] } },
{ "type": "Feature", "properties": { "name": "Cinnamon Indian Restaurant", "type": "Restaurant/Cafe/Canteen", "address": " 134 Ashley Road, Hale Altrincham, Cheshire", "postcode": "WA14 2UN", "area_name": "Trafford" }, "geometry": { "type": "Point", "coordinates": [ -2.349054, 53.37854 ] } },
{ "type": "Feature", "properties": { "name": "GREAT INDIAN KITCHEN", "type": "Restaurant/Cafe/Canteen", "address": " 40 Riddings Road, Timperley, Altrincham", "postcode": "WA15 6BP", "area_name": "Trafford" }, "geometry": { "type": "Point", "coordinates": [ -2.331307, 53.404433 ] } },
{ "type": "Feature", "properties": { "name": "Jajoo Indian Street Food & Craft Gin Bar", "type": "Restaurant/Cafe/Canteen", "address": " 151 Ashley Road, Hale, Altrincham", "postcode": "WA14 2UW", "area_name": "Trafford" }, "geometry": { "type": "Point", "coordinates": [ -2.3487543, 53.3788182 ] } },
{ "type": "Feature", "properties": { "name": "Pizza Hut Restaurant", "type": "Restaurant/Cafe/Canteen", "address": "Unit, 1 Neary Way, Urmston, Manchester", "postcode": "M41 7FN", "area_name": "Trafford" }, "geometry": { "type": "Point", "coordinates": [ -2.359947, 53.463333 ] } },
{ "type": "Feature", "properties": { "name": "Pizza Hut Restaurant", "type": "Restaurant/Cafe/Canteen", "address": " 12 The Orient, Trafford Centre, Trafford Park", "postcode": "M17 8EB", "area_name": "Trafford" }, "geometry": { "type": "Point", "coordinates": [ -2.34902, 53.466187 ] } },
{ "type": "Feature", "properties": { "name": "Pizzammore Napoli", "type": "Restaurant/Cafe/Canteen", "address": " 20 School Road, Sale", "postcode": "M33 7XF", "area_name": "Trafford" }, "geometry": { "type": "Point", "coordinates": [ -2.3206473, 53.4250354 ] } },
{ "type": "Feature", "properties": { "name": "Rudyâ€™s Neapolitan Pizza â€“ Sale", "type": "Restaurant/Cafe/Canteen", "address": " 2 Northenden Road, Sale", "postcode": "M33 3BR", "area_name": "Trafford" }, "geometry": { "type": "Point", "coordinates": [ -2.316966, 53.423824 ] } },
{ "type": "Feature", "properties": { "name": "China Bowl", "type": "Restaurant/Cafe/Canteen", "address": " 91 Washway Road, Sale", "postcode": "M33 7TQ", "area_name": "Trafford" }, "geometry": { "type": "Point", "coordinates": [ -2.329318, 53.421588 ] } },
{ "type": "Feature", "properties": { "name": "Gourmet Burger Kitchen", "type": "Restaurant/Cafe/Canteen", "address": " 117 The Orient, Trafford Centre, Trafford Park", "postcode": "M17 8EH", "area_name": "Trafford" }, "geometry": { "type": "Point", "coordinates": [ -2.3488948, 53.4657552 ] } },
{ "type": "Feature", "properties": { "name": "Leoncino Pizza Romana", "type": "Restaurant/Cafe/Canteen", "address": "10 Station Bridge, Station Road, Urmston, Manchester", "postcode": "M41 9SB", "area_name": "Trafford" }, "geometry": { "type": "Point", "coordinates": [ -2.3532201, 53.4478551 ] } },
{ "type": "Feature", "properties": { "name": "Pizza Express", "type": "Restaurant/Cafe/Canteen", "address": " 136 The Orient, The Trafford Centre, Manchester", "postcode": "M17 8EQ", "area_name": "Trafford" }, "geometry": { "type": "Point", "coordinates": [ -2.32889, 53.46778 ] } },
{ "type": "Feature", "properties": { "name": "India Palace", "type": "Restaurant/Cafe/Canteen", "address": " 336 Manchester Road, Altrincham", "postcode": "WA14 5NH", "area_name": "Trafford" }, "geometry": { "type": "Point", "coordinates": [ -2.3466956, 53.4064997 ] } },
{ "type": "Feature", "properties": { "name": "Spice Mafia / Bull Burgers", "type": "Restaurant/Cafe/Canteen", "address": " 43 Flixton Road, Urmston, Manchester", "postcode": "M41 5AN", "area_name": "Trafford" }, "geometry": { "type": "Point", "coordinates": [ -2.358613, 53.448038 ] } },
{ "type": "Feature", "properties": { "name": "Little Red Pizza Company", "type": "Mobile caterer", "address": "Boundary Farm, Sawpit Street, Warburton, Altrincham", "postcode": "WA14 5SJ", "area_name": "Trafford" }, "geometry": { "type": "Point", "coordinates": [ -2.414021, 53.393757 ] } },
{ "type": "Feature", "properties": { "name": "Busby Burgers", "type": "Mobile caterer", "address": " Sir matt busby, Stretford", "postcode": null, "area_name": "Trafford" }, "geometry": { "type": "Point", "coordinates": [ -2.28811, 53.46138 ] } },
{ "type": "Feature", "properties": { "name": "Bunzy Burgers", "type": "Restaurant/Cafe/Canteen", "address": " 54 Stamford New Road, Altrincham", "postcode": "WA14 1EE", "area_name": "Trafford" }, "geometry": { "type": "Point", "coordinates": [ -2.349631, 53.386609 ] } },
{ "type": "Feature", "properties": { "name": "Burgerfi", "type": "Restaurant/Cafe/Canteen", "address": " 13-15 Edge Lane, Stretford, Manchester", "postcode": "M32 8HN", "area_name": "Trafford" }, "geometry": { "type": "Point", "coordinates": [ -2.3061149, 53.4460668 ] } },
{ "type": "Feature", "properties": { "name": "Chaps & Chippies", "type": "Restaurant/Cafe/Canteen", "address": " Flat 41 Elkin Court, 42A Hardwick Road", "postcode": "M31 4DT", "area_name": "Trafford" }, "geometry": { "type": "Point", "coordinates": [ -2.4199719, 53.4194599 ] } },
{ "type": "Feature", "properties": { "name": "Chunky chicken box", "type": "Restaurant/Cafe/Canteen", "address": " 113 Washway Road, Sale", "postcode": "M33 7TY", "area_name": "Trafford" }, "geometry": { "type": "Point", "coordinates": [ -2.32996106147766, 53.421012878417997 ] } },
{ "type": "Feature", "properties": { "name": "McDonald's", "type": "Restaurant/Cafe/Canteen", "address": " 1 Mercury Way, Trafford Park, Manchester", "postcode": "M41 7PA", "area_name": "Trafford" }, "geometry": { "type": "Point", "coordinates": [ -2.3372391, 53.4642158 ] } },
{ "type": "Feature", "properties": { "name": "McDonald's", "type": "Restaurant/Cafe/Canteen", "address": "Mcdonalds Asda Stores Ltd, Traders Avenue, Trafford Park, Manchester", "postcode": "M41 7ZA", "area_name": "Trafford" }, "geometry": { "type": "Point", "coordinates": [ -2.344823, 53.4688772 ] } },
{ "type": "Feature", "properties": { "name": "McDonald's Restaurant", "type": "Restaurant/Cafe/Canteen", "address": "Unit 11 Altrincham Retail Park, George Richards Way, Altrincham", "postcode": "WA14 5GR", "area_name": "Trafford" }, "geometry": { "type": "Point", "coordinates": [ -2.3567714, 53.4008702 ] } },
{ "type": "Feature", "properties": { "name": "McDonald's Restaurant", "type": "Restaurant/Cafe/Canteen", "address": " 7 The Orient, Trafford Centre, Trafford Park", "postcode": "M17 8EH", "area_name": "Trafford" }, "geometry": { "type": "Point", "coordinates": [ -2.34902000427246, 53.4661865234375 ] } },
{ "type": "Feature", "properties": { "name": "McDonald's Restaurant", "type": "Restaurant/Cafe/Canteen", "address": " Neary Way, Davyhulme, Manchester", "postcode": "M41 7FP", "area_name": "Trafford" }, "geometry": { "type": "Point", "coordinates": [ -2.358362, 53.462941 ] } },
{ "type": "Feature", "properties": { "name": "Pret a Manger within Selfridges", "type": "Restaurant/Cafe/Canteen", "address": " 1 The Dome, The Trafford Centre, Manchester", "postcode": "M17 8DF", "area_name": "Trafford" }, "geometry": { "type": "Point", "coordinates": [ -2.34902, 53.466187 ] } }
]
}
