name,type,address,postcode,area_name,lon,lat
Allens Fried Chicken,Takeaway/sandwich shop," 1 Marsland Road, Sale",M33 3HP,Trafford,-2.30482,53.419298
Aminah Tandoori,Takeaway/sandwich shop," 2 Peter Street, Altrincham",WA14 2DS,Trafford,-2.352011,53.38352
Amirah Balti,Takeaway/sandwich shop," 15 Station Road, Urmston, Manchester",M41 9JG,Trafford,-2.352646,53.44749
Bando's Ltd,Takeaway/sandwich shop," 2 Seymour Grove, Old Trafford, Manchester",M16 0LH,Trafford,-2.276745,53.461316
Barburrito,Takeaway/sandwich shop,"2 The Orient,  Trafford Park, Manchester",M17 8EH,Trafford,-2.34902,53.466187
Boost Juice Bars,Takeaway/sandwich shop," 127 Peel Avenue, Trafford Centre, Trafford Park",M17 8BN,Trafford,-2.3466736,53.4648988
Canada Grill,Takeaway/sandwich shop," 38 Railway Street, Altrincham",WA14 2RE,Trafford,-2.351844,53.385129
Canadian Charcoal Pit,Takeaway/sandwich shop," 143 Barton Road, Stretford, Manchester",M32 8DN,Trafford,-2.314259,53.446446
Canadian Charcoal Pit,Takeaway/sandwich shop," 6 Church Street, Altrincham, Cheshire",WA14 4DW,Trafford,-2.349928,53.389809
Canton Taste Chinese,Takeaway/sandwich shop," 116 Flixton Road, Urmston, Manchester",M41 5AL,Trafford,-2.360467,53.448329
Caprinos,Takeaway/sandwich shop," 344 Manchester Road, Altrincham",WA14 5NH,Trafford,-2.346576,53.406601
Caribbean Creations @ Delicia,Takeaway/sandwich shop," 1 Florence Street, Sale",M33 7LA,Trafford,-2.3192808,53.431466
Charcoal Grill Fish Bar,Takeaway/sandwich shop,"Partington Service Station, 15 Smithy Lane, Partington, Manchester",M31 4RB,Trafford,-2.425463,53.419235
Charlie's Fish and Chip Shop,Takeaway/sandwich shop,"Charlies Chips, Hilton Avenue, Urmston, Manchester",M41 0TP,Trafford,-2.35341095924377,53.4490852355957
Chinese Kitchen,Takeaway/sandwich shop," 12 Deansgate Lane, Timperley, Altrincham",WA15 6SB,Trafford,-2.34011101722717,53.3975868225098
Chopstix Noodle Bar,Takeaway/sandwich shop," 9 The Orient, Trafford Centre, Trafford Park",M17 8EH,Trafford,-2.3488037,53.4656656
Coffee Pod,Takeaway/sandwich shop,"Venus Building, 1 Old Park Lane, Trafford Park",M41 7HA,Trafford,-2.3554858,53.4685941
Coral,Takeaway/sandwich shop," 212 Manchester Road, Altrincham, Cheshire",WA14 5LU,Trafford,-2.352097,53.401182
Costa's Fish & Chips,Takeaway/sandwich shop," 35 Hale Road, Altrincham",WA14 2EY,Trafford,-2.348885,53.381767
Craven Road Fish & Chips,Takeaway/sandwich shop," 34A Craven Road, Broadheath Altrincham, Cheshire",WA14 5JD,Trafford,-2.359537,53.402382
Crepe Castle,Takeaway/sandwich shop," 159 Derbyshire Road South, Sale",M33 3JY,Trafford,-2.3071304,53.4099701
Deens fried Chicken,Takeaway/sandwich shop," 29 Ayres Road, Old Trafford, Manchester",M16 9WA,Trafford,-2.262936,53.459262
Domino's Pizza,Takeaway/sandwich shop," 25 Flixton Road, Urmston, Manchester",M41 5AW,Trafford,-2.355408,53.448263
Domino's Pizza,Takeaway/sandwich shop," 446 Flixton Road, Flixton, Manchester",M41 6QT,Trafford,-2.38440299034119,53.4444885253906
Domino's Pizza,Takeaway/sandwich shop," 30 Stamford New Road, Altrincham, Cheshire",WA14 1EJ,Trafford,-2.348407,53.387683
Domino's Pizza,Takeaway/sandwich shop," 1a Sinderland Road, Altrincham",WA14 5EU,Trafford,-2.353749,53.400988
Domino's Pizzas,Takeaway/sandwich shop," 45 Washway Road, Sale",M33 7AB,Trafford,-2.327301,53.42341
Dot Goods,Takeaway/sandwich shop," 103 Manchester Road, Altrincham",WA14 4RL,Trafford,-2.352396,53.3973957
Dough Project,Takeaway/sandwich shop," 22 Northenden Road, Sale",M33 3BR,Trafford,-2.316966,53.423824
Dr. Falafel,Takeaway/sandwich shop," 2a Seymour Grove, Old Trafford, Manchester",M16 0LH,Trafford,-2.276745,53.461298
Dreamtime Cafe,Takeaway/sandwich shop," 68 Manchester Road, Altrincham",WA14 4PJ,Trafford,-2.351896,53.39499
Dynasty,Takeaway/sandwich shop," 101 Wood Lane, Timperley, Altrincham",WA15 7PG,Trafford,-2.320117,53.388688
Eastern Revive Indian Kicthen,Takeaway/sandwich shop," 188 Ashley Road, Hale, Altrincham",WA15 9SF,Trafford,-2.34608101844788,53.3770294189453
Emilios Takeaway,Takeaway/sandwich shop," 197 Marsland Road, Sale",M33 3ND,Trafford,-2.320484,53.417334
Fortune House,Takeaway/sandwich shop," 348 Manchester Road, Altrincham",WA14 5NH,Trafford,-2.346576,53.4066
Four Seasons,Takeaway/sandwich shop," 400 Barton Road, Stretford, Manchester",M32 9RW,Trafford,-2.32587,53.454613
Freddys Kitchen,Takeaway/sandwich shop," 22 Plymouth Road, Sale",M33 5JD,Trafford,-2.3514226,53.4270338
Golden Apple,Takeaway/sandwich shop," 38 Davyhulme Road East, Stretford, Manchester",M32 0DW,Trafford,-2.303377,53.451131
Golden Bowl,Takeaway/sandwich shop," 11 Hope Road, Sale",M33 3AB,Trafford,-2.31922,53.423386
Golden Dragon,Takeaway/sandwich shop," 64 Old Crofts Bank, Urmston, Manchester",M41 7AB,Trafford,-2.357326,53.456168
Good Choice,Takeaway/sandwich shop," 7a Regent Road, Altrincham",WA14 1RY,Trafford,-2.352059,53.38565
Good Fortune,Takeaway/sandwich shop," 194 Marsland Road, Sale",M33 3NE,Trafford,-2.320276,53.417756
Greenhalgh's Craft Bakery Ltd,Takeaway/sandwich shop," 88 Stretford Mall, Stretford, Manchester",M32 9BD,Trafford,-2.310832,53.445215
Greggs,Takeaway/sandwich shop," Unit 1B Longwood Road, Trafford Park, Manchester",M17 1PZ,Trafford,-2.32358407974243,53.4669609069824
Greggs,Takeaway/sandwich shop,"Circle Service Station, The Circle, Stretford, Manchester",M32 9TR,Trafford,-2.336501,53.456516
Grill Hut,Takeaway/sandwich shop," 260 Upper Chorlton Road, Old Trafford, Manchester",M16 0BN,Trafford,-2.272296,53.450873
I Call Myself Sanchez,Takeaway/sandwich shop,"10 Kings Court, Railway Street, Altrincham",WA14 2RD,Trafford,-2.3522794,53.3851538
Indulge Your Senses,Takeaway/sandwich shop," 222 Stockport Road, Timperley, Altrincham",WA15 7UA,Trafford,-2.3200597,53.3969836
Joy's House,Takeaway/sandwich shop," 136 Northenden Road, Sale, Cheshire",M33 3HE,Trafford,-2.304674,53.419991
KFC,Takeaway/sandwich shop," 9 The Orient, The Trafford Centre, Manchester",M17 9EF,Trafford,-2.32889,53.46778
Koo's Cantonese Takeaway,Takeaway/sandwich shop," 18 Eastway, Sale",M33 4DX,Trafford,-2.340248,53.410879
Legends Bar & Food Ltd,Takeaway/sandwich shop," 672 Chester Road, Stretford, Manchester",M32 0SF,Trafford,-2.288629,53.461396
Lighthouse Fish Bar,Takeaway/sandwich shop," 14 North Parade, Sale",M33 3JS,Trafford,-2.308508,53.413339
Little Eataly,Takeaway/sandwich shop," 5 Marsland Road, Sale",M33 3HP,Trafford,-2.30482,53.419298
Lively Lobster Fish and Chips,Takeaway/sandwich shop," 77a Manor Avenue, Sale",M33 5JS,Trafford,-2.353108,53.427075
Lou Macaris Chip Shop,Takeaway/sandwich shop," 684 Chester Road, Stretford, Manchester",M32 0SF,Trafford,-2.288629,53.461396
Lucy's,Takeaway/sandwich shop," 477 Moorside Road, Flixton, Manchester",M41 8TW,Trafford,-2.391387,53.452429
M33 Sandwich Bar,Takeaway/sandwich shop," 35 Northenden Road, Sale",M33 2DH,Trafford,-2.316562,53.4240576
Madras Spice,Takeaway/sandwich shop," 180 Northenden Road, Sale",M33 2SR,Trafford,-2.302625,53.419699
Master Piece Pizza and Grill,Takeaway/sandwich shop," 17 Ashfield Road, Sale",M33 7DY,Trafford,-2.3207288,53.4258712
McDonald's Restaurants,Takeaway/sandwich shop," 1235 Chester Road, Stretford, Manchester",M32 8NB,Trafford,-2.30933,53.443655
Mia's,Takeaway/sandwich shop," 2a Taylors Road, Stretford, Manchester",M32 0JA,Trafford,-2.300122,53.455183
Millies Cookies,Takeaway/sandwich shop," 108 Peel Avenue, The Trafford Centre, Manchester",M17 8BL,Trafford,-2.34902,53.466187
Millies Cookies,Takeaway/sandwich shop,"13 The Orient,  Trafford Centre, Trafford",M17 8BL,Trafford,-2.34902,53.466187
Monty's,Takeaway/sandwich shop," 130 Seamons Road, Altrincham",WA14 4LJ,Trafford,-2.370871,53.392981
Mr Yungs,Takeaway/sandwich shop," 134 Moss Lane, Hale, Altrincham",WA15 8AN,Trafford,-2.3365811,53.3829699
Neptune,Takeaway/sandwich shop," 181a Moorside Road, Flixton, Manchester",M41 5SJ,Trafford,-2.370723,53.452099
Off The Wheaton Track Deli,Takeaway/sandwich shop," 8-10 Oxford Road, Altrincham",WA14 2DY,Trafford,-2.351743,53.383826
Oldfield Tandoori,Takeaway/sandwich shop," 122 Seamons Road, Altrincham",WA14 4LJ,Trafford,-2.370871,53.392982
Oscar's,Takeaway/sandwich shop," 26 Seymour Grove, Old Trafford, Manchester",M16 0LH,Trafford,-2.276745,53.461316
Pany's Fish Bar,Takeaway/sandwich shop," 157 Northenden Road, Sale, Cheshire",M33 2HS,Trafford,-2.303245,53.42004
Papa Johns Perfect Pizza,Takeaway/sandwich shop," 388 Washway Road, Sale",M33 4JH,Trafford,-2.345432,53.40833
Papa John’s,Takeaway/sandwich shop," 6 Davyhulme Circle, Davyhulme, Manchester",M41 0SS,Trafford,-2.3566262,53.4572561
Papachino,Takeaway/sandwich shop,"Papachinos Pizza, 22 Railway Street, Altrincham",WA14 2RE,Trafford,-2.35182905197144,53.3851203918457
Park View,Takeaway/sandwich shop," 50 Washway Road, Sale",M33 7QZ,Trafford,-2.327471,53.423993
Partington Fish Bar and Grill,Takeaway/sandwich shop,"Unit 1 Partington Shopping Centre, Central Road, Partington",M31 4FL,Trafford,-2.425447,53.417688
Pearl Garden,Takeaway/sandwich shop," 171 Moorside Road, Urmston, Manchester",M41 5SJ,Trafford,-2.370724,53.4521
Pickles,Takeaway/sandwich shop,"Cedar Technology Centre, Atlantic Street, Altrincham",WA14 5DZ,Trafford,-2.366873,53.396715
Pig on a Spit,Takeaway/sandwich shop," Carrington Business Park, Manchester Road, Carrington",M31 4DD,Trafford,-2.400171,53.430585
Pinocchios,Takeaway/sandwich shop," 10 Station Road, Urmston, Manchester",M41 9JN,Trafford,-2.353096,53.447354
Pinocchios,Takeaway/sandwich shop," 73 Cross Street, Sale",M33 7HF,Trafford,-2.323316,53.427735
Pizza Express / Mac & Wings,Takeaway/sandwich shop,"Spring House, 142 Ashley Road, Hale, Altrincham",WA14 2UN,Trafford,-2.3480889,53.3783258
Pizza Hut,Takeaway/sandwich shop," 396 Washway Road, Sale, Cheshire",M33 4JH,Trafford,-2.345432,53.40833
Red Dragon,Takeaway/sandwich shop," 1 Bowfell Road, Urmston, Manchester",M41 5RW,Trafford,-2.366352,53.451538
Sajan Takeaway,Takeaway/sandwich shop," 14 Northenden Road, Sale, Cheshire",M33 3BR,Trafford,-2.316966,53.423824
Samuels,Takeaway/sandwich shop," 164 Northenden Road, Sale, Cheshire",M33 3HE,Trafford,-2.304674,53.419991
Sayers,Takeaway/sandwich shop," 171 Canterbury Road, Urmston, Manchester",M41 0SE,Trafford,-2.345195,53.455143
Sayers,Takeaway/sandwich shop," 20 Green Lane, Sale, Cheshire",M33 5PP,Trafford,-2.341873,53.429652
Seaway Fish And Chips,Takeaway/sandwich shop," 18 Green Lane, Sale",M33 5PP,Trafford,-2.341873,53.429652
Silver Palace,Takeaway/sandwich shop," 22 Moss Road, Stretford, Manchester",M32 0AH,Trafford,-2.310033,53.451221
Smash Pizza Co.,Takeaway/sandwich shop," 361 Stockport Road, Timperley, Altrincham",WA15 7UG,Trafford,-2.3187106,53.3975714
Sorento Pizzeria,Takeaway/sandwich shop," 19-21 Green Lane, Sale, Cheshire",M33 5PN,Trafford,-2.3424,53.429668
Spudulike by James Martin,Takeaway/sandwich shop," 3 The Orient, Trafford Centre, Trafford Park",M17 8EH,Trafford,-2.34880399703979,53.4656639099121
Starving Man,Takeaway/sandwich shop," 10 Lloyd Street, Altrincham, Cheshire",WA14 2DE,Trafford,-2.351581,53.38424
Subway & Eden news,Takeaway/sandwich shop," 24-26 Flixton Road, Urmston, Manchester",M41 5AA,Trafford,-2.3546115,53.4485971
Subway Timperley,Takeaway/sandwich shop," 332 Manchester Road, Altrincham",WA14 5NH,Trafford,-2.3468299,53.4063735
Sugar Rush,Takeaway/sandwich shop,"214a, 214 Manchester Road, Altrincham",WA14 5LU,Trafford,-2.3520816,53.4011898
Tastebuds (UK) Ltd,Takeaway/sandwich shop," 1 School Road, Sale",M33 7XY,Trafford,-2.319786,53.424607
Tatton Perk,Takeaway/sandwich shop,"Charis House, 1 Central Way, Altrincham",WA14 1SB,Trafford,-2.351072,53.386246
Tele Pizza,Takeaway/sandwich shop," 29 Flixton Road, Urmston, Manchester",M41 5AW,Trafford,-2.355408,53.448263
That Pizza Place Ltd,Takeaway/sandwich shop," 323 Hale Road, Hale Barns Altrincham, Cheshire",WA15 8SS,Trafford,-2.313722,53.369488
The Flamin Chicken,Takeaway/sandwich shop," 119 Washway Road, Sale",M33 7TY,Trafford,-2.329961,53.421011
The Good Catch,Takeaway/sandwich shop," 59 Brook Road, Urmston, Manchester",M41 5RY,Trafford,-2.374978,53.451206
The Good Catch,Takeaway/sandwich shop," 160 Stamford Park Road, Hale Altrincham, Cheshire",WA15 8AL,Trafford,-2.336762,53.382953
The Grill,Takeaway/sandwich shop," 132 Moss Lane, Timperley, Altrincham",WA15 6JL,Trafford,-2.33355689048767,53.3998794555664
The New Don,Takeaway/sandwich shop," 2 Church Street, Altrincham",WA14 4DW,Trafford,-2.349928,53.389809
The Sunrise Patisserie,Takeaway/sandwich shop,"The Market Hall, Greenwood Street, Altrincham",WA14 1SA,Trafford,-2.351894,53.387475
Tibetan Kitchen,Takeaway/sandwich shop," 254 Upper Chorlton Road, Old Trafford, Manchester",M16 0BN,Trafford,-2.272296,53.450873
Timperley Fish Bar,Takeaway/sandwich shop," 216 Stockport Road, Timperley, Altrincham",WA15 7UA,Trafford,-2.320585,53.396839
Urmston Fish Bar,Takeaway/sandwich shop," 148 Flixton Road, Urmston, Manchester",M41 5BG,Trafford,-2.3628,53.448232
Us Four,Takeaway/sandwich shop,"Former Ticket Office Brooklands Metro Station, Marsland Road, Sale",M33 3SQ,Trafford,-2.325249,53.416844
Vivianne,Takeaway/sandwich shop," 72 School Road, Sale, Cheshire",M33 7XB,Trafford,-2.323781,53.425532
WA14 Fish and Chips,Takeaway/sandwich shop," 120 Ashley Road, Hale, Altrincham",WA14 2UN,Trafford,-2.34905409812927,53.3785400390625
Wing Lee,Takeaway/sandwich shop," 20 Seymour Grove, Old Trafford, Manchester",M16 0LH,Trafford,-2.276745,53.461316
Wrap it in NW limited,Takeaway/sandwich shop,"392 Lloyd House, Third Avenue, Trafford Park, Manchester",M17 1JE,Trafford,-2.310246,53.466034
Yuit Loung,Takeaway/sandwich shop," 95 Oak Road, Partington, Manchester",M31 4LD,Trafford,-2.436214,53.411115
Ashiana Takeaway,Takeaway/sandwich shop," 262 Upper Chorlton Road, Old Trafford, Manchester",M16 0BN,Trafford,-2.272296,53.450873
Canada Grill,Takeaway/sandwich shop," 138 Ashley Road, Hale Altrincham, Cheshire",WA14 2UN,Trafford,-2.349054,53.37854
Chau's,Takeaway/sandwich shop," 6 Lostock Road, Davyhulme, Manchester",M41 0PS,Trafford,-2.3559682,53.4578153
Chicken Shack,Takeaway/sandwich shop," 3 Moss Lane West, Old Trafford, Manchester",M15 5PQ,Trafford,-2.257603,53.4591562
China Town Takeaway,Takeaway/sandwich shop," 153 Barton Road, Stretford, Manchester",M32 8DN,Trafford,-2.314259,53.446446
Cluck 'a' Rito,Takeaway/sandwich shop," 65 Great Stone Road, Stretford, Manchester",M32 8GR,Trafford,-2.286284,53.453015
Dixy Chicken,Takeaway/sandwich shop," 17 Moss Lane West, Old Trafford, Manchester",M15 5PQ,Trafford,-2.256508,53.459744
Dockoff Food Co,Takeaway/sandwich shop," 192 Church Road, Flixton, Manchester",M41 9FD,Trafford,-2.3645451,53.44463
Eat East,Takeaway/sandwich shop," 3 Peter Street, Altrincham",WA14 2DZ,Trafford,-2.351501,53.383647
Ellies Pizza and American Hot Dog,Takeaway/sandwich shop," 19 Tatton Road, Sale",M33 7EB,Trafford,-2.320334,53.425513
Express Woks Cooking,Takeaway/sandwich shop," 215 Woodhouse Lane East, Timperley, Altrincham",WA15 6AS,Trafford,-2.3223929,53.4071702
Gold Lion,Takeaway/sandwich shop," 4 North Parade, Sale, Cheshire",M33 3JS,Trafford,-2.308508,53.413339
Golden Dragon,Takeaway/sandwich shop," 91 Manchester Road, Altrincham",WA14 4RJ,Trafford,-2.352436,53.396803
Green Fork,Takeaway/sandwich shop,"394 Lloyd House, Third Avenue, Trafford Park, Manchester",M17 1JE,Trafford,-2.310246,53.466034
Happy House,Takeaway/sandwich shop," 6 Woodfield Road, Broadheath Altrincham, Cheshire",WA14 4EU,Trafford,-2.352997,53.397198
Jolly House,Takeaway/sandwich shop," 4 The Circle, Stretford, Manchester",M32 9TR,Trafford,-2.336501,53.456516
Lucky Cherry,Takeaway/sandwich shop," 156 Washway Road, Sale",M33 6RH,Trafford,-2.330579,53.421144
Lucky Wok,Takeaway/sandwich shop," 24 Cross Street, Sale",M33 7AE,Trafford,-2.324493,53.426096
Lusso Lunch,Takeaway/sandwich shop," 170 Northenden Road, Sale",M33 3HE,Trafford,-2.3039967,53.4198208
Mella Pizza /Perfect Fried Chicken,Takeaway/sandwich shop," 3 Marsland Road, Sale",M33 3HP,Trafford,-2.304819,53.419298
Milano,Takeaway/sandwich shop," 63 Flixton Road, Urmston, Manchester",M41 5AN,Trafford,-2.358613,53.448038
Mizan Tandoori,Takeaway/sandwich shop," 3 Bowfell Road, Urmston, Manchester",M41 5RW,Trafford,-2.366352,53.451538
Mughal,Takeaway/sandwich shop," 86 Park Road, Timperley, Altrincham",WA14 5AB,Trafford,-2.341007,53.404217
New Rainbow,Takeaway/sandwich shop," 214 Church Road, Flixton, Manchester",M41 9DX,Trafford,-2.36549,53.444125
Our Deli Limited,Takeaway/sandwich shop," 315 Hale Road, Hale Barns, Altrincham",WA15 8SS,Trafford,-2.313722,53.369488
Peri Grill,Takeaway/sandwich shop," 55a Washway Road, Sale",M33 7AB,Trafford,-2.327301,53.42341
Peter Pan,Takeaway/sandwich shop," 173 Church Road, Urmston, Manchester",M41 6EA,Trafford,-2.367645,53.442609
Pine's Pantry Cafe,Takeaway/sandwich shop," 16 Moss Road, Stretford, Manchester",M32 0AH,Trafford,-2.310033,53.451221
Pix Pizza,Takeaway/sandwich shop," 19 Shaws Road, Altrincham",WA14 1QU,Trafford,-2.351173,53.387558
Pound Bakery,Takeaway/sandwich shop," 47 Stretford Mall, Stretford, Manchester",M32 9BB,Trafford,-2.310832,53.445215
Riverbank Coffee,Takeaway/sandwich shop,"Newcroft Meadow Farm, Torbay Road, Urmston, Manchester",M41 9WL,Trafford,-2.3337103,53.4389704
Route 66,Takeaway/sandwich shop," 61 Briarfield Road, Timperley, Altrincham",WA15 7DD,Trafford,-2.311665,53.392423
Saffron Balti,Takeaway/sandwich shop," 81 Manchester Road, Altrincham",WA14 4RJ,Trafford,-2.352436,53.396803
Sayers,Takeaway/sandwich shop," Unit 5 Partington Shopping Centre, Partington",M31 4EL,Trafford,-2.425437,53.418174
Sayers,Takeaway/sandwich shop," 230 Stockport Road, Timperley, Altrincham",WA15 7UN,Trafford,-2.319353,53.3970035
Shamnah,Takeaway/sandwich shop," 471 Moorside Road, Flixton, Manchester",M41 8TW,Trafford,-2.3915808,53.4524182
Shere Khan Express,Takeaway/sandwich shop," 6 The Orient, The Trafford Centre, Manchester",M17 8EH,Trafford,-2.34902,53.466187
Spice of India,Takeaway/sandwich shop," 13 Marsland Road, Sale, Cheshire",M33 3HP,Trafford,-2.30482,53.419298
Stretford Balti,Takeaway/sandwich shop," 230 Derbyshire Lane West, Stretford, Manchester",M32 9LD,Trafford,-2.320799,53.45113
Subway,Takeaway/sandwich shop," 682 Chester Road, Stretford, Manchester",M32 0SF,Trafford,-2.288629,53.461396
Subway,Takeaway/sandwich shop,"Within, BP Petrol Station, Stretford Circle, Audley Avenue Stretford",M32 9TR,Trafford,-2.336501,53.456516
Taste of China,Takeaway/sandwich shop," 178 Marsland Road, Sale",M33 3NE,Trafford,-2.320276,53.417756
The Cabin,Takeaway/sandwich shop," 150 Grove Lane, Timperley Altrincham, Cheshire",WA15 6PD,Trafford,-2.323052,53.39695
The First Chinese Takeaway,Takeaway/sandwich shop," 139 Glebelands Road, Sale, Cheshire",M33 6LP,Trafford,-2.329335,53.431485
The Maharajaa,Takeaway/sandwich shop," 12b Moss Road, Stretford, Manchester",M32 0AH,Trafford,-2.310033,53.451221
The Oriental Terrace,Takeaway/sandwich shop," 161 Northenden Road, Sale",M33 2HS,Trafford,-2.3027944,53.4200216
The Royal,Takeaway/sandwich shop," 4 Higher Road, Urmston, Manchester",M41 9BQ,Trafford,-2.3525438,53.4479061
The Village Chippy,Takeaway/sandwich shop," 400 Third Avenue, Trafford PArk",M17 1JE,Trafford,-2.310246,53.466034
Turkish Grill (Sale),Takeaway/sandwich shop," 49 Washway Road, Sale",M33 7AB,Trafford,-2.327301,53.42341
Whittakers,Takeaway/sandwich shop," 12 Station Road, Urmston, Manchester",M41 9JN,Trafford,-2.353096,53.447354
Wing Sing,Takeaway/sandwich shop," 32 Riddings Road, Timperley Altrincham, Cheshire",WA15 6BP,Trafford,-2.331307,53.404433
Wing Wah,Takeaway/sandwich shop," 68 Old Crofts Bank, Davyhulme, Manchester",M41 7AB,Trafford,-2.357326,53.456168
Wok 191 Chinese Takeaway,Takeaway/sandwich shop," 191 Woodsend Road, Flixton, Manchester",M41 8QW,Trafford,-2.39400196075439,53.4567718505859
Wok Inn,Takeaway/sandwich shop," 84 Park Road, Timperley, Altrincham",WA14 5AB,Trafford,-2.341006,53.404216
Wok Inn,Takeaway/sandwich shop," 2 Lloyd Street, Altrincham",WA14 2DE,Trafford,-2.351581,53.38424
Xpress Pizza,Takeaway/sandwich shop," 159 Northenden Road, Sale",M33 2HS,Trafford,-2.303245,53.42004
Yard Burger Bar,Takeaway/sandwich shop," 9 Claremont Road, Sale",M33 7DZ,Trafford,-2.3214031,53.4254828
Alfresco Pizzeria,Takeaway/sandwich shop," 18 Northenden Road, Sale",M33 3BR,Trafford,-2.316966,53.423824
Altrincham Fish Bar,Takeaway/sandwich shop," 42 Greenwood Street, Altrincham, Cheshire",WA14 1RZ,Trafford,-2.352173,53.386728
Big Chef,Takeaway/sandwich shop," 24 Seymour Grove, Old Trafford, Manchester",M16 0LH,Trafford,-2.276745,53.461316
Canadian Charcoal Pit,Takeaway/sandwich shop," 80 Washway Road, Sale",M33 7RE,Trafford,-2.328398,53.423227
Captain Cod,Takeaway/sandwich shop," 287 Stretford Road, Urmston, Manchester",M41 9NU,Trafford,-2.3291,53.445903
China Town,Takeaway/sandwich shop," 167 Broadway, Davyhulme, Manchester",M41 7NW,Trafford,-2.372471,53.458971
Chopsticks House,Takeaway/sandwich shop," 30 Moss Lane, Altrincham",WA15 8HW,Trafford,-2.3440624,53.3859957
Chunky Chicken Box,Takeaway/sandwich shop," 113 Washway Road, Sale",M33 7TY,Trafford,-2.32996106147766,53.421012878418
Crispy Bites,Takeaway/sandwich shop,"Go Local Extra, 3a Catterick Avenue, Sale",M33 4GQ,Trafford,-2.35951900482178,53.4127540588379
Darbar Balti Tandoori,Takeaway/sandwich shop," 187 Woodsend Road, Urmston, Manchester",M41 8QW,Trafford,-2.394002,53.456771
Delhi Darbar,Takeaway/sandwich shop," 184 Davyhulme Road, Stretford, Manchester",M32 0AS,Trafford,-2.315783,53.453022
Dixy Chicken / Shack burg,Takeaway/sandwich shop," 912 Chester Road, Stretford, Manchester",M32 0PA,Trafford,-2.299406,53.453963
Dragon City,Takeaway/sandwich shop," 392 Washway Road, Sale",M33 4JH,Trafford,-2.345432,53.40833
eCK,Takeaway/sandwich shop," 10 The Circle, Stretford, Manchester",M32 9TR,Trafford,-2.336501,53.456516
Edibell Ltd,Takeaway/sandwich shop," 174 Washway Road, Sale",M33 6RH,Trafford,-2.33057904243469,53.421142578125
Evergreen,Takeaway/sandwich shop," 135 Barton Road, Stretford, Manchester",M32 8DN,Trafford,-2.314259,53.446446
Genie,Takeaway/sandwich shop,"Genie Takeaway, 30 Seymour Grove, Old Trafford, Manchester",M16 0LH,Trafford,-2.276745,53.461316
Hing Fat,Takeaway/sandwich shop," 60 Norway Street, Stretford, Manchester",M32 0JW,Trafford,-2.302217,53.455295
Hong Kong Chippy,Takeaway/sandwich shop," 149 Henrietta Street, Old Trafford, Manchester",M16 9PS,Trafford,-2.267698,53.459638
Immys Charcoal Grill,Takeaway/sandwich shop," 2 Woodsend Road, Flixton, Manchester",M41 8QT,Trafford,-2.391146,53.449114
Jerryz Dessert,Takeaway/sandwich shop," 8 Washway Road, Sale",M33 7QY,Trafford,-2.326142,53.425327
Jin Ho Fish and Chips,Takeaway/sandwich shop," 266 Upper Chorlton Road, Old Trafford, Manchester",M16 0BN,Trafford,-2.272296,53.450873
Kongs Takeaway,Takeaway/sandwich shop," 4 Woodsend Road, Urmston, Manchester",M41 8QT,Trafford,-2.391146,53.449114
Lotus Fast Food,Takeaway/sandwich shop," 177 Canterbury Road, Davyhulme, Manchester",M41 0SE,Trafford,-2.345195,53.455143
Masala Bangladeshi,Takeaway/sandwich shop," 8 Church Street, Altrincham, Cheshire",WA14 4DW,Trafford,-2.349928,53.389809
Mash’s Wing Ranch,Takeaway/sandwich shop," 882 Chester Road, Stretford, Manchester",M32 0PA,Trafford,-2.2989272,53.454386
Miami Fried Chicken,Takeaway/sandwich shop," 2 The Circle, Stretford, Manchester",M32 9TR,Trafford,-2.336501,53.456516
Ming Dynasty,Takeaway/sandwich shop," 237 Talbot Road, Stretford, Manchester",M32 0YW,Trafford,-2.295237,53.454198
Mr Yu,Takeaway/sandwich shop," 2 James Street, Sale, Cheshire",M33 3HN,Trafford,-2.303537,53.420848
Navigation Fish Bar,Takeaway/sandwich shop," 10 Navigation Road, Altrincham",WA14 1NF,Trafford,-2.34916,53.397047
Old Trafford Bakery Jamaican Takeaway,Takeaway/sandwich shop," 126 Shrewsbury Street, Old Trafford, Manchester",M16 7NY,Trafford,-2.261799,53.460442
Pan Pizza,Takeaway/sandwich shop," 880 Chester Road, Stretford, Manchester",M32 0PA,Trafford,-2.299406,53.453963
Pandamama,Takeaway/sandwich shop," 172 Cross Street, Sale",M33 7AQ,Trafford,-2.3197073,53.4301345
Pinocchios,Takeaway/sandwich shop," 220 Stockport Road, Altrincham",WA15 7UA,Trafford,-2.320585,53.39684
Pizza Point,Takeaway/sandwich shop," 272 Kings Road, Stretford, Manchester",M16 0HH,Trafford,-2.28541,53.453017
Red Marrakech,Takeaway/sandwich shop," 97 Ayres Road, Old Trafford, Manchester",M16 7GS,Trafford,-2.26763,53.458443
Riddings Tandoori,Takeaway/sandwich shop," 30 Riddings Road, Timperley, Altrincham",WA15 6BP,Trafford,-2.331307,53.404433
Roosters,Takeaway/sandwich shop," 214 Manchester Road, Altrincham",WA14 5LU,Trafford,-2.352097,53.401182
Rosita’s Pizzeria,Takeaway/sandwich shop," 73 Princess Road, Urmston, Manchester",M41 5SQ,Trafford,-2.365569,53.451523
Seven Ways,Takeaway/sandwich shop," 224 Derbyshire Lane West, Stretford, Manchester",M32 9LD,Trafford,-2.320799,53.45113
Spice of India,Takeaway/sandwich shop," 95 Higher Road, Urmston, Manchester",M41 9AP,Trafford,-2.34839,53.448122
Spicey Chef,Takeaway/sandwich shop," 398 Barton Road, Stretford, Manchester",M32 9RW,Trafford,-2.32587,53.454613
Syds Chicken and Pizza,Takeaway/sandwich shop," 680 Chester Road, Stretford, Manchester",M32 0SF,Trafford,-2.288629,53.461396
Taftan Tandoori,Takeaway/sandwich shop," 178-180 Chorlton Road, Old Trafford, Manchester",M16 7WW,Trafford,-2.258569,53.45938
Taniya's,Takeaway/sandwich shop," 166 Northenden Road, Sale, Cheshire",M33 3HE,Trafford,-2.304674,53.419991
Taste India,Takeaway/sandwich shop," 383 Stockport Road, Timperley Altrincham, Cheshire",WA15 7UR,Trafford,-2.317225,53.398008
The Fat Pizza,Takeaway/sandwich shop," 15 Oxford Road, Altrincham",WA14 2DY,Trafford,-2.351743,53.383826
The Pepper Mill,Takeaway/sandwich shop," 181 Marsland Road, Sale",M33 3ND,Trafford,-2.320483,53.417333
Theo's Fine Kettle Of Fish,Takeaway/sandwich shop," 4 Shaftesbury Avenue, Timperley Altrincham, Cheshire",WA15 7LY,Trafford,-2.328258,53.391435
Toronto Charcoal Ltd,Takeaway/sandwich shop," 87 Manchester Road, Altrincham",WA14 4RJ,Trafford,-2.352437,53.396804
Trafford Oriental,Takeaway/sandwich shop," 18 Seymour Grove, Old Trafford, Manchester",M16 0LH,Trafford,-2.276745,53.461316
Urmston Kurry House,Takeaway/sandwich shop," 83 Stretford Road, Urmston, Manchester",M41 9LG,Trafford,-2.347848,53.446335
Urmston Takeaway,Takeaway/sandwich shop," 76 Railway Road, Urmston, Manchester",M41 0XT,Trafford,-2.34634,53.44971
Wing Express,Takeaway/sandwich shop," 20 Plymouth Road, Sale",M33 5JD,Trafford,-2.351724,53.427043
Yummy,Takeaway/sandwich shop," 15 Flixton Road, Urmston, Manchester",M41 5AW,Trafford,-2.355408,53.448263
BANDO BOXES,Takeaway/sandwich shop," 2 Seymour Grove, Old Trafford, Manchester",M16 0LH,Trafford,-2.276745,53.461316
Coppice Fish Bar,Takeaway/sandwich shop," 56 Coppice Avenue, Sale",M33 4WB,Trafford,-2.348783,53.415277
Fresh 2 Cook,Takeaway/sandwich shop," 378 Northenden Road, Sale",M33 2PZ,Trafford,-2.29159,53.418846
Gar Pan,Takeaway/sandwich shop," 526 Stretford Road, Manchester",M16 9AF,Trafford,-2.266492,53.464279
Happy Panda,Takeaway/sandwich shop,"Kas, 145 Manchester Road, Altrincham",WA14 5NS,Trafford,-2.3526663,53.3991566
i cook,Takeaway/sandwich shop," 12 Lloyd Street, Altrincham",WA14 2DE,Trafford,-2.351581,53.38424
New Century 2000,Takeaway/sandwich shop," 28 Davyhulme Road East, Stretford, Manchester",M32 0DW,Trafford,-2.303377,53.451131
Pizza Planet,Takeaway/sandwich shop," 4 Lostock Road, Urmston, Manchester",M41 0PS,Trafford,-2.355818,53.457763
Rajdan,Takeaway/sandwich shop," 401 Stockport Road, Timperley, Altrincham",WA15 7UR,Trafford,-2.317405,53.397935
Saarah,Takeaway/sandwich shop," 42 Green Lane, Sale",M33 5PP,Trafford,-2.341873,53.429652
Shiva Indian Takeaway,Takeaway/sandwich shop," 83 Great Stone Road, Stretford, Manchester",M32 8GR,Trafford,-2.286284,53.453015
The Shake Lab,Takeaway/sandwich shop," 107 The Orient, Trafford Centre, Trafford Park",M17 8EH,Trafford,-2.34902,53.466187
Beijing,Takeaway/sandwich shop," 79 Great Stone Road, Stretford, Manchester",M32 8GR,Trafford,-2.286284,53.453015
Dhaanya Indian Takeaway,Takeaway/sandwich shop," 173 Cross Street, Sale",M33 7JQ,Trafford,-2.319712,53.43081
Feng Sheng,Takeaway/sandwich shop," 412 Flixton Road, Urmston, Manchester",M41 6QY,Trafford,-2.383624,53.446558
Flame Grill,Takeaway/sandwich shop," 97 Oak Road, Partington, Manchester",M31 4LD,Trafford,-2.436213,53.411115
Guang's House,Takeaway/sandwich shop," 363 Norris Road, Sale",M33 2UP,Trafford,-2.298682,53.415224
Kara Chippery and Curry House,Takeaway/sandwich shop," 123 Stamford Street, Old Trafford, Manchester",M16 9LT,Trafford,-2.262249,53.460199
LA Pizza and Grill,Takeaway/sandwich shop," 77 Manchester Road, Altrincham",WA14 4RJ,Trafford,-2.352437,53.396804
Lotus House,Takeaway/sandwich shop," 389 Stockport Road, Altrincham",WA15 7UR,Trafford,-2.317225,53.398008
MCR Pizza Revolution,Takeaway/sandwich shop," 2 Upper Chorlton Road, Old Trafford, Manchester",M16 7RN,Trafford,-2.258866,53.4588119
Parkers of Salford,Takeaway/sandwich shop," 137 Park Road, Stretford, Manchester",M32 8FB,Trafford,-2.317034,53.453127
Sam Daily Deli,Takeaway/sandwich shop," 68 Park Road, Timperley, Altrincham",WA14 5AB,Trafford,-2.341006,53.404216
Double Dragon,Takeaway/sandwich shop," 1a Moss Lane West, Old Trafford, Manchester",M15 5PQ,Trafford,-2.256508,53.459744
Village Green Takeaway,Takeaway/sandwich shop," 6 Hall Lane, Partington, Manchester",M31 4PY,Trafford,-2.428008,53.42088
Armaans Kitchen,Takeaway/sandwich shop," 5 Ashton Lane, Sale",M33 6WT,Trafford,-2.32635593414307,53.4257125854492
Bean Coffee Manchester No8 Ltd,Takeaway/sandwich shop,"Jackson House, Sibson Road, Sale",M33 7RR,Trafford,-2.3260839,53.4236094
Bonsai,Takeaway/sandwich shop," 908 Chester Road, Stretford, Manchester",M32 0PA,Trafford,-2.299406,53.453963
Bull Burgers,Takeaway/sandwich shop," 43 Flixton Road, Urmston, Manchester",M41 5AN,Trafford,-2.358613,53.448038
Burger Stop,Takeaway/sandwich shop," 80 School Road, Sale",M33 7XB,Trafford,-2.323781,53.425532
Burgerfi,Takeaway/sandwich shop," 13-15 Edge Lane, Stretford, Manchester",M32 8HN,Trafford,-2.3061149,53.4460668
Caribbean Sunrise Foods Ltd,Takeaway/sandwich shop," 9 Moss Lane West, Old Trafford, Manchester",M15 5PQ,Trafford,-2.2574526,53.4591924
Champions,Takeaway/sandwich shop," 678 Chester Road, Stretford, Manchester",M32 0SF,Trafford,-2.288629,53.461396
Crush Desserts,Takeaway/sandwich shop," 87 Great Stone Road, Stretford, Manchester",M32 8GR,Trafford,-2.2861018,53.4528804
Food on Third,Takeaway/sandwich shop,"378 Cooper House, Third Avenue, Trafford Park, Manchester",M17 1JE,Trafford,-2.310246,53.466034
Grand Burger,Takeaway/sandwich shop," 876 Chester Road, Stretford, Manchester",M32 0PA,Trafford,-2.299406,53.453963
Hou Wei,Takeaway/sandwich shop," 896 Chester Road, Stretford, Manchester",M32 0PA,Trafford,-2.299406,53.453963
Ishys,Takeaway/sandwich shop," 105 Oak Road, Partington, Manchester",M31 4LD,Trafford,-2.436214,53.411115
Khyber Grill,Takeaway/sandwich shop," 908 Chester Road, Stretford, Manchester",M32 0PA,Trafford,-2.299406,53.453963
MLK Burgers,Takeaway/sandwich shop," 625 Stretford Road, Old Trafford, Manchester",M16 0QA,Trafford,-2.2754846,53.4621275
Muncho's,Takeaway/sandwich shop," 414 Barton Road, Stretford, Manchester",M32 9RW,Trafford,-2.32587,53.454613
Pit Stop Burgers,Takeaway/sandwich shop," 674 Chester Road, Stretford, Manchester",M32 0SF,Trafford,-2.288629,53.461396
Poundburger,Takeaway/sandwich shop," 235 Northenden Road, Sale",M33 2JD,Trafford,-2.299572,53.419914
Sale Moor Community Partnership,Takeaway/sandwich shop," 359 Norris Road, Sale",M33 2UP,Trafford,-2.298217,53.4152781
Spices of Kashmir,Takeaway/sandwich shop,"89a-89b, 89a Ayres Road, Old Trafford, Manchester",M16 7GS,Trafford,-2.2672981,53.4584698
Starbridge,Takeaway/sandwich shop," 70 Park Road, Timperley, Altrincham",WA14 5AB,Trafford,-2.341007,53.404217
Sweet City,Takeaway/sandwich shop," 12b Moss Road, Stretford, Manchester",M32 0AH,Trafford,-2.310033,53.451221
Turkish Kebab House,Takeaway/sandwich shop," 182a Davyhulme Road, Stretford, Manchester",M32 0AS,Trafford,-2.315783,53.453022
Vegan Sting Ltd,Takeaway/sandwich shop," 674 Chester Road, Stretford, Manchester",M32 0SF,Trafford,-2.288629,53.461396
YO! To Go (Inside Tesco),Takeaway/sandwich shop,"Tesco, Manor Road, Altrincham",WA15 9QT,Trafford,-2.345889,53.384922
Yogbox,Takeaway/sandwich shop," 30-32 Greenwood Street, Altrincham",WA14 1RZ,Trafford,-2.3520075,53.3868174
Fold Crêpes and Galettes,Takeaway/sandwich shop,"The Market Hall, Greenwood Street, Altrincham",WA14 1SA,Trafford,-2.351894,53.387475
L & B Foods,Takeaway/sandwich shop," 135 Barkway Road, Stretford, Manchester",M32 9DX,Trafford,-2.326334,53.44653
Burger King,Restaurant/Cafe/Canteen,"10 The Orient,  Trafford Park, Manchester",M17 8EH,Trafford,-2.34902,53.466187
Cinnamon Indian Restaurant,Restaurant/Cafe/Canteen," 134 Ashley Road, Hale Altrincham, Cheshire",WA14 2UN,Trafford,-2.349054,53.37854
Gourmet Burger Kitchen,Restaurant/Cafe/Canteen," 117 The Orient, Trafford Centre, Trafford Park",M17 8EH,Trafford,-2.3488948,53.4657552
Jajoo Indian Street Food & Craft Gin Bar,Restaurant/Cafe/Canteen," 151 Ashley Road, Hale, Altrincham",WA14 2UW,Trafford,-2.3487543,53.3788182
Little Red Pizza Company,Mobile caterer,"Boundary Farm, Sawpit Street, Warburton, Altrincham",WA14 5SJ,Trafford,-2.414021,53.393757
Pizza Dalla Piste,Restaurant/Cafe/Canteen,"Chill Factor E Trafford Quays Leisure Village, 7 Trafford Way, Trafford Park, Manchester",M41 7JA,Trafford,-2.361461,53.467903
Pizza Express,Restaurant/Cafe/Canteen," 136 The Orient, The Trafford Centre, Manchester",M17 8EQ,Trafford,-2.32889,53.46778
Pizza Hut Restaurant,Restaurant/Cafe/Canteen," 12 The Orient, Trafford Centre, Trafford Park",M17 8EB,Trafford,-2.34902,53.466187
Pizza Hut Restaurant,Restaurant/Cafe/Canteen,"Unit, 1 Neary Way, Urmston, Manchester",M41 7FN,Trafford,-2.359947,53.463333
Pizzammore Napoli,Restaurant/Cafe/Canteen," 20 School Road, Sale",M33 7XF,Trafford,-2.3206473,53.4250354
Rudy’s Neapolitan Pizza – Sale,Restaurant/Cafe/Canteen," 2 Northenden Road, Sale",M33 3BR,Trafford,-2.316966,53.423824
Vito’s Pizza Kitchen,Restaurant/Cafe/Canteen," 184 Ashley Road, Hale, Altrincham",WA15 9SF,Trafford,-2.3459733,53.3769747
Amigo Pizza Limited,Restaurant/Cafe/Canteen," 402 Barton Road, Stretford, Manchester",M32 9RW,Trafford,-2.32587,53.454613
China Bowl,Restaurant/Cafe/Canteen," 91 Washway Road, Sale",M33 7TQ,Trafford,-2.3293180000000002,53.421588
Spice Finest Indian Cuisine,Restaurant/Cafe/Canteen," 336 Manchester Road, Altrincham",WA14 5NH,Trafford,-2.3466956,53.4064997
Leoncino Pizza Romana,Restaurant/Cafe/Canteen,"10 Station Bridge, Station Road, Urmston, Manchester",M41 9SB,Trafford,-2.3532201,53.4478551
Busby Burgers,Mobile caterer," Sir matt busby, Stretford",NA,Trafford,-2.28811,53.46138
Brewchimp Indian Social Club,Restaurant/Cafe/Canteen," 164a Barton Road, Stretford, Manchester",M32 8DP,Trafford,-2.313825,53.446869
McDonald's Restaurant,Restaurant/Cafe/Canteen," 7 The Orient, Trafford Centre, Trafford Park",M17 8EH,Trafford,-2.34902000427246,53.4661865234375
McDonald's Restaurant,Restaurant/Cafe/Canteen,"Unit 11 Altrincham Retail Park, George Richards Way, Altrincham",WA14 5GR,Trafford,-2.3567714,53.4008702
McDonald's Restaurant,Restaurant/Cafe/Canteen," Neary Way, Davyhulme, Manchester",M41 7FP,Trafford,-2.358362,53.462941
Pret a Manger within Selfridges,Restaurant/Cafe/Canteen," 1 The Dome, The Trafford Centre, Manchester",M17 8DF,Trafford,-2.34902,53.466187
McDonald's,Restaurant/Cafe/Canteen," 1 Mercury Way, Trafford Park, Manchester",M41 7PA,Trafford,-2.3372391,53.4642158
McDonald's,Restaurant/Cafe/Canteen,"Mcdonalds Asda Stores Ltd, Traders Avenue, Trafford Park, Manchester",M41 7ZA,Trafford,-2.344823,53.4688772
