{
"type": "FeatureCollection",
"name": "trafford_polling_stations",
"crs": { "type": "name", "properties": { "name": "urn:ogc:def:crs:OGC:1.3:CRS84" } },
"features": [
{ "type": "Feature", "properties": { "id": "4126", "name": "Woodheys Park Pavilion", "address": "Kenmore Road\/Woodhouse Lane, Sale", "postcode": "M33 4LP", "ward_code": "E05000822", "ward_name": "Broadheath", "la_code": "E08000009", "la_name": "Trafford" }, "geometry": { "type": "Point", "coordinates": [ -2.355328, 53.409919 ] } },
{ "type": "Feature", "properties": { "id": "4272", "name": "Lostock Library", "address": "Selby Road, Stretford", "postcode": "M32 9PB", "ward_code": "E05000829", "ward_name": "Gorse Hill", "la_code": "E08000009", "la_name": "Trafford" }, "geometry": { "type": "Point", "coordinates": [ -2.331275, 53.45458 ] } },
{ "type": "Feature", "properties": { "id": "4137", "name": "Well Green Lodge", "address": "Wellfield Lane, Hale", "postcode": "WA15 8NW", "ward_code": "E05000830", "ward_name": "Hale Barns", "la_code": "E08000009", "la_name": "Trafford" }, "geometry": { "type": "Point", "coordinates": [ -2.314384, 53.38181 ] } },
{ "type": "Feature", "properties": { "id": "4341", "name": "Sale Nomads", "address": "Friars Road, Sale", "postcode": "M33 7UU", "ward_code": "E05000833", "ward_name": "Priory", "la_code": "E08000009", "la_name": "Trafford" }, "geometry": { "type": "Point", "coordinates": [ -2.323908, 53.422422 ] } },
{ "type": "Feature", "properties": { "id": "4194", "name": "Carrington Business Park", "address": "Manchester Road, Carrington", "postcode": "M31 4DD", "ward_code": "E05000824", "ward_name": "Bucklow-St Martins", "la_code": "E08000009", "la_name": "Trafford" }, "geometry": { "type": "Point", "coordinates": [ -2.400958, 53.431219 ] } },
{ "type": "Feature", "properties": { "id": "4106", "name": "Jubilee Centre", "address": "The Firs, Bowdon", "postcode": "WA14 2TQ", "ward_code": "E05000821", "ward_name": "Bowdon", "la_code": "E08000009", "la_name": "Trafford" }, "geometry": { "type": "Point", "coordinates": [ -2.362827, 53.378931 ] } },
{ "type": "Feature", "properties": { "id": "4268", "name": "All Saints Church Hall", "address": "Barton Road, Stretford", "postcode": "M32 9RL", "ward_code": "E05000829", "ward_name": "Gorse Hill", "la_code": "E08000009", "la_name": "Trafford" }, "geometry": { "type": "Point", "coordinates": [ -2.322083, 53.453689 ] } },
{ "type": "Feature", "properties": { "id": "4241", "name": "Urmston Leisure Centre", "address": "Bowfell Road, Urmston", "postcode": "M41 5RR", "ward_code": "E05000828", "ward_name": "Flixton", "la_code": "E08000009", "la_name": "Trafford" }, "geometry": { "type": "Point", "coordinates": [ -2.370201, 53.451021 ] } },
{ "type": "Feature", "properties": { "id": "4170", "name": "Holy Cross Church Hall", "address": "Park Road, Timperley", "postcode": "WA15 6QG", "ward_code": "E05000837", "ward_name": "Timperley", "la_code": "E08000009", "la_name": "Trafford" }, "geometry": { "type": "Point", "coordinates": [ -2.332331, 53.40266 ] } },
{ "type": "Feature", "properties": { "id": "4176", "name": "Altrincham United Reformed Church", "address": "Woodlands Parkway, Timperley, Altrincham", "postcode": "WA15 7QT", "ward_code": "E05000837", "ward_name": "Timperley", "la_code": "E08000009", "la_name": "Trafford" }, "geometry": { "type": "Point", "coordinates": [ -2.341551, 53.39333 ] } },
{ "type": "Feature", "properties": { "id": "4252", "name": "Flixton Cricket and Sports Club", "address": "Lawrence Road, Flixton", "postcode": "M41 8UU", "ward_code": "E05000828", "ward_name": "Flixton", "la_code": "E08000009", "la_name": "Trafford" }, "geometry": { "type": "Point", "coordinates": [ -2.386736, 53.451167 ] } },
{ "type": "Feature", "properties": { "id": "4235", "name": "St Marys Church Hall", "address": "Entwistle Avenue, Off Davyhulme Road, Davyhulme", "postcode": "M41 5TP", "ward_code": "E05000827", "ward_name": "Davyhulme West", "la_code": "E08000009", "la_name": "Trafford" }, "geometry": { "type": "Point", "coordinates": [ -2.367594, 53.455849 ] } },
{ "type": "Feature", "properties": { "id": "4283", "name": "Old Trafford Sports Barn", "address": "St Hildas Road, Old Trafford", "postcode": "M16 9PQ", "ward_code": "E05000832", "ward_name": "Longford", "la_code": "E08000009", "la_name": "Trafford" }, "geometry": { "type": "Point", "coordinates": [ -2.271909, 53.461148 ] } },
{ "type": "Feature", "properties": { "id": "4295", "name": "Moss Park Junior School", "address": "Moss Park Road, Stretford", "postcode": "M32 9HR", "ward_code": "E05000836", "ward_name": "Stretford", "la_code": "E08000009", "la_name": "Trafford" }, "geometry": { "type": "Point", "coordinates": [ -2.322583, 53.448149 ] } },
{ "type": "Feature", "properties": { "id": "4211", "name": "Old Trafford Community Academy", "address": "Malvern Street, Old Trafford", "postcode": "M15 4FL", "ward_code": "E05000825", "ward_name": "Clifford", "la_code": "E08000009", "la_name": "Trafford" }, "geometry": { "type": "Point", "coordinates": [ -2.265141, 53.465109 ] } },
{ "type": "Feature", "properties": { "id": "4299", "name": "Sevenways Methodist Church", "address": "Barton Road, Stretford", "postcode": "M32 9RD", "ward_code": "E05000836", "ward_name": "Stretford", "la_code": "E08000009", "la_name": "Trafford" }, "geometry": { "type": "Point", "coordinates": [ -2.316342, 53.449228 ] } },
{ "type": "Feature", "properties": { "id": "4306", "name": "Community Centre", "address": "Humphrey Lane, Urmston", "postcode": "M41 9PT", "ward_code": "E05000838", "ward_name": "Urmston", "la_code": "E08000009", "la_name": "Trafford" }, "geometry": { "type": "Point", "coordinates": [ -2.331202, 53.45094 ] } },
{ "type": "Feature", "properties": { "id": "4146", "name": "St Peters Assembly Rooms", "address": "136 Cecil Road, Hale", "postcode": "WA15 9NU", "ward_code": "E05000831", "ward_name": "Hale Central", "la_code": "E08000009", "la_name": "Trafford" }, "geometry": { "type": "Point", "coordinates": [ -2.344881, 53.373725 ] } },
{ "type": "Feature", "properties": { "id": "4095", "name": "St Mary Magdalene with Sale West Community Church", "address": "44 Moss Lane, Sale", "postcode": "M33 6GD", "ward_code": "E05000820", "ward_name": "Ashton upon Mersey", "la_code": "E08000009", "la_name": "Trafford" }, "geometry": { "type": "Point", "coordinates": [ -2.33774, 53.424738 ] } },
{ "type": "Feature", "properties": { "id": "4143", "name": "2ND Hale Scout HQ", "address": "Lilac Road, Hale", "postcode": "WA15 8BJ", "ward_code": "E05000831", "ward_name": "Hale Central", "la_code": "E08000009", "la_name": "Trafford" }, "geometry": { "type": "Point", "coordinates": [ -2.330278, 53.380454 ] } },
{ "type": "Feature", "properties": { "id": "4311", "name": "Unitarian Church Hall", "address": "Queens Road, Urmston", "postcode": "M41 9HA", "ward_code": "E05000838", "ward_name": "Urmston", "la_code": "E08000009", "la_name": "Trafford" }, "geometry": { "type": "Point", "coordinates": [ -2.352896, 53.445009 ] } },
{ "type": "Feature", "properties": { "id": "4279", "name": "Kings Road Primary School", "address": "Kings Road, Firswood", "postcode": "M16 0GR", "ward_code": "E05000832", "ward_name": "Longford", "la_code": "E08000009", "la_name": "Trafford" }, "geometry": { "type": "Point", "coordinates": [ -2.281652, 53.453979 ] } },
{ "type": "Feature", "properties": { "id": "4187", "name": "St Johns Church Hall", "address": "Brooklands Road, Sale", "postcode": "M33 3PB", "ward_code": "E05000839", "ward_name": "Village", "la_code": "E08000009", "la_name": "Trafford" }, "geometry": { "type": "Point", "coordinates": [ -2.317693, 53.408371 ] } },
{ "type": "Feature", "properties": { "id": "4218", "name": "Davyhulme Primary School", "address": "Canterbury Road, Davyhulme", "postcode": "M41 0RX", "ward_code": "E05000826", "ward_name": "Davyhulme East", "la_code": "E08000009", "la_name": "Trafford" }, "geometry": { "type": "Point", "coordinates": [ -2.351148, 53.453966 ] } },
{ "type": "Feature", "properties": { "id": "4120", "name": "Broadheath Community Hall", "address": "Timperley, Altrincham", "postcode": "WA14 5JQ", "ward_code": "E05000822", "ward_name": "Broadheath", "la_code": "E08000009", "la_name": "Trafford" }, "geometry": { "type": "Point", "coordinates": [ -2.360126, 53.404465 ] } },
{ "type": "Feature", "properties": { "id": "4259", "name": "Stretford Sports Village Chester Centre", "address": "Great Stone Road, Stretford", "postcode": "M32 0ZS", "ward_code": "E05000829", "ward_name": "Gorse Hill", "la_code": "E08000009", "la_name": "Trafford" }, "geometry": { "type": "Point", "coordinates": [ -2.292675, 53.458331 ] } },
{ "type": "Feature", "properties": { "id": "4109", "name": "Little Heath Village Hall", "address": "School Lane, Dunham Massey, Altrincham", "postcode": "WA14 4SE", "ward_code": "E05000821", "ward_name": "Bowdon", "la_code": "E08000009", "la_name": "Trafford" }, "geometry": { "type": "Point", "coordinates": [ -2.391853, 53.388609 ] } },
{ "type": "Feature", "properties": { "id": "4078", "name": "Altrincham Methodist Church", "address": "Barrington Road, Altrincham", "postcode": "WA14 1HF", "ward_code": "E05000819", "ward_name": "Altrincham", "la_code": "E08000009", "la_name": "Trafford" }, "geometry": { "type": "Point", "coordinates": [ -2.349286, 53.390378 ] } },
{ "type": "Feature", "properties": { "id": "4245", "name": "Shawe Hall Community Centre", "address": "Church Road, Flixton", "postcode": "M41 6HJ", "ward_code": "E05000828", "ward_name": "Flixton", "la_code": "E08000009", "la_name": "Trafford" }, "geometry": { "type": "Point", "coordinates": [ -2.37007, 53.442682 ] } },
{ "type": "Feature", "properties": { "id": "4275", "name": "St Ann`s Parish Centre", "address": "Cross Street, Off Chester Road, Stretford", "postcode": "M32 8LF", "ward_code": "E05000832", "ward_name": "Longford", "la_code": "E08000009", "la_name": "Trafford" }, "geometry": { "type": "Point", "coordinates": [ -2.303883, 53.448297 ] } },
{ "type": "Feature", "properties": { "id": "4201", "name": "Partington Community Centre", "address": "Central Road, Partington", "postcode": "M31 4FL", "ward_code": "E05000824", "ward_name": "Bucklow-St Martins", "la_code": "E08000009", "la_name": "Trafford" }, "geometry": { "type": "Point", "coordinates": [ -2.425053, 53.417437 ] } },
{ "type": "Feature", "properties": { "id": "4099", "name": "St Lukes Church", "address": "Vicarage Lane, Bowdon", "postcode": "WA14 3BJ", "ward_code": "E05000821", "ward_name": "Bowdon", "la_code": "E08000009", "la_name": "Trafford" }, "geometry": { "type": "Point", "coordinates": [ -2.361832, 53.371491 ] } },
{ "type": "Feature", "properties": { "id": "4130", "name": "Park Road Academy Primary School", "address": "Frieston Road, Timperley", "postcode": "WA14 5AP", "ward_code": "E05000822", "ward_name": "Broadheath", "la_code": "E08000009", "la_name": "Trafford" }, "geometry": { "type": "Point", "coordinates": [ -2.340089, 53.40608 ] } },
{ "type": "Feature", "properties": { "id": "4191", "name": "Broomwood Community Centre", "address": "Mainwood Road, Timperley", "postcode": "WA15 7JF", "ward_code": "E05000839", "ward_name": "Village", "la_code": "E08000009", "la_name": "Trafford" }, "geometry": { "type": "Point", "coordinates": [ -2.305895, 53.390874 ] } },
{ "type": "Feature", "properties": { "id": "4319", "name": "Mobile Polling Station", "address": "Eastway\/Walton Road, Sale", "postcode": "M33 4ER", "ward_code": "E05000823", "ward_name": "Brooklands", "la_code": "E08000009", "la_name": "Trafford" }, "geometry": { "type": "Point", "coordinates": [ -2.337878, 53.408028 ] } },
{ "type": "Feature", "properties": { "id": "4334", "name": "Sale Sports Club", "address": "Clarendon Crescent, Sale", "postcode": "M33 2DE", "ward_code": "E05000833", "ward_name": "Priory", "la_code": "E08000009", "la_name": "Trafford" }, "geometry": { "type": "Point", "coordinates": [ -2.305251, 53.426838 ] } },
{ "type": "Feature", "properties": { "id": "4214", "name": "St Johns Hall", "address": "St Johns Road, Old Trafford", "postcode": "M16 7GX", "ward_code": "E05000825", "ward_name": "Clifford", "la_code": "E08000009", "la_name": "Trafford" }, "geometry": { "type": "Point", "coordinates": [ -2.268164, 53.457139 ] } },
{ "type": "Feature", "properties": { "id": "4153", "name": "Hale Library", "address": "6 Leigh Road, Hale", "postcode": "WA15 9BE", "ward_code": "E05000831", "ward_name": "Hale Central", "la_code": "E08000009", "la_name": "Trafford" }, "geometry": { "type": "Point", "coordinates": [ -2.343283, 53.376804 ] } },
{ "type": "Feature", "properties": { "id": "4238", "name": "Woodhouse Primary School", "address": "Nursery Road, Davyhulme", "postcode": "M41 7NP", "ward_code": "E05000827", "ward_name": "Davyhulme West", "la_code": "E08000009", "la_name": "Trafford" }, "geometry": { "type": "Point", "coordinates": [ -2.37011, 53.457702 ] } },
{ "type": "Feature", "properties": { "id": "4228", "name": "Woodsend Library", "address": "Woodsend Road, Flixton", "postcode": "M41 8GN", "ward_code": "E05000827", "ward_name": "Davyhulme West", "la_code": "E08000009", "la_name": "Trafford" }, "geometry": { "type": "Point", "coordinates": [ -2.393504, 53.455039 ] } },
{ "type": "Feature", "properties": { "id": "4072", "name": "Oldfield Brow Primary School", "address": "Taylor Road, Altrincham", "postcode": "WA14 4LE", "ward_code": "E05000819", "ward_name": "Altrincham", "la_code": "E08000009", "la_name": "Trafford" }, "geometry": { "type": "Point", "coordinates": [ -2.377778, 53.391774 ] } },
{ "type": "Feature", "properties": { "id": "4204", "name": "Sale West Conference Centre", "address": "Room 3, Manor Avenue, Sale", "postcode": "M33 5JX", "ward_code": "E05000824", "ward_name": "Bucklow-St Martins", "la_code": "E08000009", "la_name": "Trafford" }, "geometry": { "type": "Point", "coordinates": [ -2.354017, 53.425967 ] } },
{ "type": "Feature", "properties": { "id": "4163", "name": "Sale West Community Centre", "address": "Newbury Avenue, Sale", "postcode": "M33 4QW", "ward_code": "E05000834", "ward_name": "St Mary's", "la_code": "E08000009", "la_name": "Trafford" }, "geometry": { "type": "Point", "coordinates": [ -2.358027, 53.419619 ] } },
{ "type": "Feature", "properties": { "id": "4389", "name": "Carrington Lane Methodist Church", "address": "34 Ennerdale Drive, Sale", "postcode": "M33 5NE", "ward_code": "E05000820", "ward_name": "Ashton upon Mersey", "la_code": "E08000009", "la_name": "Trafford" }, "geometry": { "type": "Point", "coordinates": [ -2.34289, 53.427016 ] } },
{ "type": "Feature", "properties": { "id": "4208", "name": "Sharon Youth Centre", "address": "Cornbrook Street, Old Trafford", "postcode": "M16 7WR", "ward_code": "E05000825", "ward_name": "Clifford", "la_code": "E08000009", "la_name": "Trafford" }, "geometry": { "type": "Point", "coordinates": [ -2.259035, 53.461707 ] } },
{ "type": "Feature", "properties": { "id": "4198", "name": "Our Lady of Lourdes Catholic Primary", "address": "Lock Lane, Partington", "postcode": "M31 4PJ", "ward_code": "E05000824", "ward_name": "Bucklow-St Martins", "la_code": "E08000009", "la_name": "Trafford" }, "geometry": { "type": "Point", "coordinates": [ -2.436427, 53.418701 ] } },
{ "type": "Feature", "properties": { "id": "4159", "name": "The Avenue Methodist Church", "address": "Wincham Road, Sale", "postcode": "M33 4PL", "ward_code": "E05000834", "ward_name": "St Mary's", "la_code": "E08000009", "la_name": "Trafford" }, "geometry": { "type": "Point", "coordinates": [ -2.342676, 53.413551 ] } },
{ "type": "Feature", "properties": { "id": "4315", "name": "The Life Centre", "address": "235 Washway Road, Sale", "postcode": "M33 4BP", "ward_code": "E05000823", "ward_name": "Brooklands", "la_code": "E08000009", "la_name": "Trafford" }, "geometry": { "type": "Point", "coordinates": [ -2.336595, 53.415061 ] } },
{ "type": "Feature", "properties": { "id": "4331", "name": "Sale Waterside", "address": "Tatton Road Entrance, Sale", "postcode": "M33 7ZF", "ward_code": "E05000833", "ward_name": "Priory", "la_code": "E08000009", "la_name": "Trafford" }, "geometry": { "type": "Point", "coordinates": [ -2.32, 53.425111 ] } },
{ "type": "Feature", "properties": { "id": "4135", "name": "All Saints Church", "address": "Hale Road, Hale Barns", "postcode": "WA15 8SP", "ward_code": "E05000830", "ward_name": "Hale Barns", "la_code": "E08000009", "la_name": "Trafford" }, "geometry": { "type": "Point", "coordinates": [ -2.314574, 53.369134 ] } },
{ "type": "Feature", "properties": { "id": "4150", "name": "Stamford Park Infant School Nursery", "address": "Oak Road, Hale", "postcode": "WA15 9JB", "ward_code": "E05000831", "ward_name": "Hale Central", "la_code": "E08000009", "la_name": "Trafford" }, "geometry": { "type": "Point", "coordinates": [ -2.340502, 53.382538 ] } },
{ "type": "Feature", "properties": { "id": "4232", "name": "8TH Flixton Scout Group", "address": "Woodsend Crescent Road, Flixton", "postcode": "M41 8AD", "ward_code": "E05000827", "ward_name": "Davyhulme West", "la_code": "E08000009", "la_name": "Trafford" }, "geometry": { "type": "Point", "coordinates": [ -2.397246, 53.449399 ] } },
{ "type": "Feature", "properties": { "id": "4391", "name": "Christ Church", "address": "Thorley Lane, Timperley", "postcode": "WA15 7AN", "ward_code": "E05000830", "ward_name": "Hale Barns", "la_code": "E08000009", "la_name": "Trafford" }, "geometry": { "type": "Point", "coordinates": [ -2.316835, 53.390046 ] } },
{ "type": "Feature", "properties": { "id": "4174", "name": "Timperley Methodist Church", "address": "Stockport Road, Timperley", "postcode": "WA15 7UG", "ward_code": "E05000837", "ward_name": "Timperley", "la_code": "E08000009", "la_name": "Trafford" }, "geometry": { "type": "Point", "coordinates": [ -2.318996, 53.397474 ] } },
{ "type": "Feature", "properties": { "id": "4289", "name": "St Matthews Hall - Horrocks Room", "address": "Chapel Lane, Stretford", "postcode": "M32 9AJ", "ward_code": "E05000836", "ward_name": "Stretford", "la_code": "E08000009", "la_name": "Trafford" }, "geometry": { "type": "Point", "coordinates": [ -2.311646, 53.443362 ] } },
{ "type": "Feature", "properties": { "id": "4320", "name": "Brooklands Primary School", "address": "Woodbourne Road, Sale", "postcode": "M33 3SY", "ward_code": "E05000823", "ward_name": "Brooklands", "la_code": "E08000009", "la_name": "Trafford" }, "geometry": { "type": "Point", "coordinates": [ -2.326637, 53.413426 ] } },
{ "type": "Feature", "properties": { "id": "4066", "name": "St Georges Parish Hall", "address": "Church Walk, Altrincham", "postcode": "WA14 4TT", "ward_code": "E05000819", "ward_name": "Altrincham", "la_code": "E08000009", "la_name": "Trafford" }, "geometry": { "type": "Point", "coordinates": [ -2.352112, 53.39027 ] } },
{ "type": "Feature", "properties": { "id": "4221", "name": "Christ Church Hall", "address": "Lostock Road, Urmston", "postcode": "M41 0TD", "ward_code": "E05000826", "ward_name": "Davyhulme East", "la_code": "E08000009", "la_name": "Trafford" }, "geometry": { "type": "Point", "coordinates": [ -2.346071, 53.45737 ] } },
{ "type": "Feature", "properties": { "id": "4249", "name": "Flixton Primary School", "address": "Delamere Road, Flixton", "postcode": "M41 5QL", "ward_code": "E05000828", "ward_name": "Flixton", "la_code": "E08000009", "la_name": "Trafford" }, "geometry": { "type": "Point", "coordinates": [ -2.378333, 53.449209 ] } },
{ "type": "Feature", "properties": { "id": "4082", "name": "St Vincents Catholic Primary School", "address": "Junior Department, Orchard Road, Altrincham", "postcode": "WA15 8EU", "ward_code": "E05000819", "ward_name": "Altrincham", "la_code": "E08000009", "la_name": "Trafford" }, "geometry": { "type": "Point", "coordinates": [ -2.344485, 53.389771 ] } },
{ "type": "Feature", "properties": { "id": "4265", "name": "Metros Sports and Social Club", "address": "Moss Road, Stretford", "postcode": "M32 0AH", "ward_code": "E05000836", "ward_name": "Stretford", "la_code": "E08000009", "la_name": "Trafford" }, "geometry": { "type": "Point", "coordinates": [ -2.310018, 53.451213 ] } },
{ "type": "Feature", "properties": { "id": "4351", "name": "St Annes Church Hall", "address": "Trinity Road, Sale", "postcode": "M33 3ED", "ward_code": "E05000835", "ward_name": "Sale Moor", "la_code": "E08000009", "la_name": "Trafford" }, "geometry": { "type": "Point", "coordinates": [ -2.307114, 53.420228 ] } },
{ "type": "Feature", "properties": { "id": "4225", "name": "Our Lady and the English Martyrs Parish Centre", "address": "Davyhulme Road, Urmston", "postcode": "M41 7DS", "ward_code": "E05000826", "ward_name": "Davyhulme East", "la_code": "E08000009", "la_name": "Trafford" }, "geometry": { "type": "Point", "coordinates": [ -2.360543, 53.457255 ] } },
{ "type": "Feature", "properties": { "id": "4263", "name": "Gorse Hill Studios", "address": "Cavendish Road, Stretford", "postcode": "M32 0PS", "ward_code": "E05000829", "ward_name": "Gorse Hill", "la_code": "E08000009", "la_name": "Trafford" }, "geometry": { "type": "Point", "coordinates": [ -2.300093, 53.457413 ] } },
{ "type": "Feature", "properties": { "id": "4345", "name": "Sale Moor Methodist Church", "address": "Northenden Road, Sale Moor", "postcode": "M33 2PP", "ward_code": "E05000835", "ward_name": "Sale Moor", "la_code": "E08000009", "la_name": "Trafford" }, "geometry": { "type": "Point", "coordinates": [ -2.293477, 53.419597 ] } },
{ "type": "Feature", "properties": { "id": "4116", "name": "St Albans Hall", "address": "Lindsell Road, West Timperley, Altrincham", "postcode": "WA14 5NX", "ward_code": "E05000822", "ward_name": "Broadheath", "la_code": "E08000009", "la_name": "Trafford" }, "geometry": { "type": "Point", "coordinates": [ -2.353799, 53.40329 ] } },
{ "type": "Feature", "properties": { "id": "4179", "name": "2ND Timperley Scout HQ", "address": "Heyes Drive, Timperley", "postcode": "WA15 6ED", "ward_code": "E05000839", "ward_name": "Village", "la_code": "E08000009", "la_name": "Trafford" }, "geometry": { "type": "Point", "coordinates": [ -2.322666, 53.401509 ] } },
{ "type": "Feature", "properties": { "id": "4309", "name": "Urmston Library", "address": "34 Golden Way, Urmston", "postcode": "M41 0NA", "ward_code": "E05000838", "ward_name": "Urmston", "la_code": "E08000009", "la_name": "Trafford" }, "geometry": { "type": "Point", "coordinates": [ -2.354722, 53.449093 ] } },
{ "type": "Feature", "properties": { "id": "4112", "name": "The Parish Room", "address": "Bent Lane, Warburton", "postcode": "WA13 9TQ", "ward_code": "E05000821", "ward_name": "Bowdon", "la_code": "E08000009", "la_name": "Trafford" }, "geometry": { "type": "Point", "coordinates": [ -2.445414, 53.399028 ] } },
{ "type": "Feature", "properties": { "id": "4167", "name": "Heyes Lane Primary School", "address": "Crofton Avenue, Timperley", "postcode": "WA15 6BZ", "ward_code": "E05000837", "ward_name": "Timperley", "la_code": "E08000009", "la_name": "Trafford" }, "geometry": { "type": "Point", "coordinates": [ -2.325453, 53.406058 ] } },
{ "type": "Feature", "properties": { "id": "4328", "name": "Sale Moor Community Centre", "address": "Norris Road, Sale", "postcode": "M33 2TN", "ward_code": "E05000823", "ward_name": "Brooklands", "la_code": "E08000009", "la_name": "Trafford" }, "geometry": { "type": "Point", "coordinates": [ -2.303598, 53.414709 ] } },
{ "type": "Feature", "properties": { "id": "4337", "name": "Sale United Reformed Church", "address": "Montague Road, Sale", "postcode": "M33 3BU", "ward_code": "E05000833", "ward_name": "Priory", "la_code": "E08000009", "la_name": "Trafford" }, "geometry": { "type": "Point", "coordinates": [ -2.31664, 53.422468 ] } },
{ "type": "Feature", "properties": { "id": "4285", "name": "Longford Park Special School", "address": "74 Cromwell Road, Stretford", "postcode": "M32 8QJ", "ward_code": "E05000832", "ward_name": "Longford", "la_code": "E08000009", "la_name": "Trafford" }, "geometry": { "type": "Point", "coordinates": [ -2.294365, 53.447952 ] } },
{ "type": "Feature", "properties": { "id": "4302", "name": "Urmston Methodist Church Meeting Room", "address": "George Street, Urmston", "postcode": "M41 9BA", "ward_code": "E05000838", "ward_name": "Urmston", "la_code": "E08000009", "la_name": "Trafford" }, "geometry": { "type": "Point", "coordinates": [ -2.344275, 53.447586 ] } },
{ "type": "Feature", "properties": { "id": "4086", "name": "Altrincham Library", "address": "2 Pott Street, Altrincham", "postcode": "WA14 1AH", "ward_code": "E05000819", "ward_name": "Altrincham", "la_code": "E08000009", "la_name": "Trafford" }, "geometry": { "type": "Point", "coordinates": [ -2.352565, 53.387023 ] } },
{ "type": "Feature", "properties": { "id": "4387", "name": "Ashton-Upon-Mersey United Reformed Church", "address": "20 Whitefield Road, Sale", "postcode": "M33 6NZ", "ward_code": "E05000820", "ward_name": "Ashton upon Mersey", "la_code": "E08000009", "la_name": "Trafford" }, "geometry": { "type": "Point", "coordinates": [ -2.32931, 53.42824 ] } },
{ "type": "Feature", "properties": { "id": "4134", "name": "Mobile Polling Station Broadheath", "address": "Corner of St Andrews Avenue, and Bridge Grove, Timperley", "postcode": "WA15 6LD", "ward_code": "E05000822", "ward_name": "Broadheath", "la_code": "E08000009", "la_name": "Trafford" }, "geometry": { "type": "Point", "coordinates": [ -2.338426, 53.399424 ] } },
{ "type": "Feature", "properties": { "id": "4255", "name": "Flixton House", "address": "Flixton Road, Flixton", "postcode": "M41 5GJ", "ward_code": "E05000828", "ward_name": "Flixton", "la_code": "E08000009", "la_name": "Trafford" }, "geometry": { "type": "Point", "coordinates": [ -2.383195, 53.445796 ] } },
{ "type": "Feature", "properties": { "id": "4348", "name": "St Francis Church Hall", "address": "Budworth Road, Sale", "postcode": "M33 2RP", "ward_code": "E05000835", "ward_name": "Sale Moor", "la_code": "E08000009", "la_name": "Trafford" }, "geometry": { "type": "Point", "coordinates": [ -2.297843, 53.415739 ] } },
{ "type": "Feature", "properties": { "id": "4324", "name": "Clubhouse Sale Football Club", "address": "Heywood Road, Sale", "postcode": "M33 3WB", "ward_code": "E05000823", "ward_name": "Brooklands", "la_code": "E08000009", "la_name": "Trafford" }, "geometry": { "type": "Point", "coordinates": [ -2.321895, 53.416825 ] } }
]
}
