{
"type": "FeatureCollection",
"crs": { "type": "name", "properties": { "name": "urn:ogc:def:crs:OGC:1.3:CRS84" } },
"features": [
{ "type": "Feature", "properties": { "name": "Smile Dental Care Salford", "type": "Dentist", "address": "390 Manchester Road East, Little Hulton, Salford", "postcode": "M38 9WH", "telephone": 1617903377.0, "website": "http:\/\/www.smile-dentalcare.co.uk", "area_name": "Salford", "area_code": "E0800006" }, "geometry": { "type": "Point", "coordinates": [ -2.418753, 53.529467 ] } },
{ "type": "Feature", "properties": { "name": "J. Sainsbury - Leigh", "type": "Dentist", "address": "Atherleigh Way, Leigh", "postcode": "WN7 5SJ", "telephone": 1612070002.0, "website": "http:\/\/www.centrefordentistry.com", "area_name": "Wigan", "area_code": "E08000010" }, "geometry": { "type": "Point", "coordinates": [ -2.527795, 53.499416 ] } },
{ "type": "Feature", "properties": { "name": "Little Lever Dental Practice", "type": "Dentist", "address": "100 High Street, Little Lever, Bolton", "postcode": "BL3 1LR", "telephone": 1204574908.0, "website": null, "area_name": "Bolton", "area_code": "E0800001" }, "geometry": { "type": "Point", "coordinates": [ -2.368853, 53.561055 ] } },
{ "type": "Feature", "properties": { "name": "Smy Life", "type": "Dentist", "address": "Pall Mall, Manchester", "postcode": "M2 4DL", "telephone": 1618307300.0, "website": null, "area_name": "Manchester", "area_code": "E0800003" }, "geometry": { "type": "Point", "coordinates": [ -2.243418, 53.480445 ] } },
{ "type": "Feature", "properties": { "name": "Unidental", "type": "Dentist", "address": "10 Vernon Street, Stockport", "postcode": "SK1 1TY", "telephone": 1614808040.0, "website": null, "area_name": "Stockport", "area_code": "E0800007" }, "geometry": { "type": "Point", "coordinates": [ -2.156764, 53.41233 ] } },
{ "type": "Feature", "properties": { "name": "Penny Meadow Dental Practice", "type": "Dentist", "address": "53 Penny Meadow, Ashton Under Lyne", "postcode": "OL6 6HE", "telephone": 1613302419.0, "website": "http:\/\/www.pennymeadowdental.co.uk", "area_name": "Tameside", "area_code": "E0800008" }, "geometry": { "type": "Point", "coordinates": [ -2.089079, 53.489873 ] } },
{ "type": "Feature", "properties": { "name": "Ravat & Ray Dental Care (Bolton One)", "type": "Dentist", "address": "Bolton One, Moor Lane, Bolton", "postcode": "BL3 5BN", "telephone": 1204527769.0, "website": "http:\/\/www.ravatandray.com", "area_name": "Bolton", "area_code": "E0800001" }, "geometry": { "type": "Point", "coordinates": [ -2.435246, 53.573928 ] } },
{ "type": "Feature", "properties": { "name": "Mydentist - Manchester Road - Oldham", "type": "Dentist", "address": "580 Manchester Road, Hollinwood, Oldham", "postcode": "OL9 7LS", "telephone": 1616811022.0, "website": "http:\/\/www.mydentist.co.uk", "area_name": "Oldham", "area_code": "E0800004" }, "geometry": { "type": "Point", "coordinates": [ -2.143803, 53.520731 ] } },
{ "type": "Feature", "properties": { "name": "Mydentist - Church Street - Westhoughton", "type": "Dentist", "address": "60 Church Street, Westhoughton, Bolton", "postcode": "BL5 3RS", "telephone": 1942815769.0, "website": "http:\/\/www.mydentist.co.uk", "area_name": "Bolton", "area_code": "E0800001" }, "geometry": { "type": "Point", "coordinates": [ -2.525015, 53.550036 ] } },
{ "type": "Feature", "properties": { "name": "Mydentist - Crab Tree Lane - Manchester", "type": "Dentist", "address": "17 Crab Tree Lane, Atherton, Manchester", "postcode": "M46 0AU", "telephone": 1942883103.0, "website": "http:\/\/www.mydentist.org.uk", "area_name": "Wigan", "area_code": "E08000010" }, "geometry": { "type": "Point", "coordinates": [ -2.491323, 53.52235 ] } },
{ "type": "Feature", "properties": { "name": "Mydentist - Parsonage Street - Bury", "type": "Dentist", "address": "1-5 Parsonage Street, Bury", "postcode": "BL9 6BG", "telephone": 1617643993.0, "website": "http:\/\/www.mydentist.co.uk", "area_name": "Bury", "area_code": "E0800002" }, "geometry": { "type": "Point", "coordinates": [ -2.28154, 53.59657 ] } },
{ "type": "Feature", "properties": { "name": "Mydentist - Church Street - Eccles", "type": "Dentist", "address": "107 Church Street, Eccles, Manchester", "postcode": "M30 0EJ", "telephone": 1617889815.0, "website": "http:\/\/www.mydentist.co.uk", "area_name": "Salford", "area_code": "E0800006" }, "geometry": { "type": "Point", "coordinates": [ -2.338336, 53.482659 ] } },
{ "type": "Feature", "properties": { "name": "Mydentist - Tonge Moor Road - Bolton", "type": "Dentist", "address": "513 Tonge Moor Road, Bolton", "postcode": "BL2 3BG", "telephone": 1204596500.0, "website": "http:\/\/www.mydentist.co.uk", "area_name": "Bolton", "area_code": "E0800001" }, "geometry": { "type": "Point", "coordinates": [ -2.411601, 53.596123 ] } },
{ "type": "Feature", "properties": { "name": "Mydentist - St. Marys Place - Bury", "type": "Dentist", "address": "2 St. Marys Place, Bury", "postcode": "BL9 0DZ", "telephone": 1617644151.0, "website": "http:\/\/www.idhgroup.co.uk", "area_name": "Bury", "area_code": "E0800002" }, "geometry": { "type": "Point", "coordinates": [ -2.300288, 53.591547 ] } },
{ "type": "Feature", "properties": { "name": "Queens Road Dental and Cosmetic Centre", "type": "Dentist", "address": "337 Queens Road, Manchester", "postcode": "M8 0JL", "telephone": 1612051113.0, "website": null, "area_name": "Manchester", "area_code": "E0800003" }, "geometry": { "type": "Point", "coordinates": [ -2.225528, 53.50234 ] } },
{ "type": "Feature", "properties": { "name": "Mydentist - Standishgate - Wigan", "type": "Dentist", "address": "100 Standishgate, Wigan", "postcode": "WN1 1XP", "telephone": 1942242620.0, "website": "http:\/\/www.idhgroup.co.uk", "area_name": "Wigan", "area_code": "E08000010" }, "geometry": { "type": "Point", "coordinates": [ -2.628308, 53.550802 ] } },
{ "type": "Feature", "properties": { "name": "Mydentist - Advanced Oral Health Centre - Red Rose - Wigan", "type": "Dentist", "address": "50 New Market Street, Wigan", "postcode": "WN1 1SJ", "telephone": 1942242632.0, "website": "http:\/\/www.mydentist.co.uk", "area_name": "Wigan", "area_code": "E08000010" }, "geometry": { "type": "Point", "coordinates": [ -2.631877, 53.550202 ] } },
{ "type": "Feature", "properties": { "name": "Mydentist - Moor Road - Orrell", "type": "Dentist", "address": "7 Moor Road, Orrell, Wigan", "postcode": "WN5 8ND", "telephone": 1942215091.0, "website": "http:\/\/www.mydentist.co.uk", "area_name": "Wigan", "area_code": "E08000010" }, "geometry": { "type": "Point", "coordinates": [ -2.704943, 53.53925 ] } },
{ "type": "Feature", "properties": { "name": "Mydentist - Atherton Road - Hindley", "type": "Dentist", "address": "51 Atherton Road, Hindley, Wigan", "postcode": "WN2 3EA", "telephone": 1942258888.0, "website": "http:\/\/www.mydentist.co.uk", "area_name": "Wigan", "area_code": "E08000010" }, "geometry": { "type": "Point", "coordinates": [ -2.57969, 53.532885 ] } },
{ "type": "Feature", "properties": { "name": "Mydentist - High Street - Cheadle", "type": "Dentist", "address": "19a High Street, Cheadle", "postcode": "SK8 1AX", "telephone": 1614911936.0, "website": "http:\/\/www.idhgroup.co.uk", "area_name": "Stockport", "area_code": "E0800007" }, "geometry": { "type": "Point", "coordinates": [ -2.214146, 53.394733 ] } },
{ "type": "Feature", "properties": { "name": "360 Dental Care Limited", "type": "Dentist", "address": "6 Southern Street, Manchester", "postcode": "M3 4NJ", "telephone": 1618341000.0, "website": "http:\/\/www.360dentalcare.co.uk", "area_name": "Manchester", "area_code": "E0800003" }, "geometry": { "type": "Point", "coordinates": [ -2.252054, 53.475591 ] } },
{ "type": "Feature", "properties": { "name": "Drake Dental Practice", "type": "Dentist", "address": "113 Drake Street, Rochdale", "postcode": "OL16 1PZ", "telephone": 1706644717.0, "website": null, "area_name": "Rochdale", "area_code": "E0800005" }, "geometry": { "type": "Point", "coordinates": [ -2.155723, 53.612379 ] } },
{ "type": "Feature", "properties": { "name": "Levenshulme Dental Practice", "type": "Dentist", "address": "773 Stockport Road, Levenshulme, Manchester", "postcode": "M19 3DL", "telephone": 1612251589.0, "website": null, "area_name": "Manchester", "area_code": "E0800003" }, "geometry": { "type": "Point", "coordinates": [ -2.19101, 53.446816 ] } },
{ "type": "Feature", "properties": { "name": "Kings Dental Centre", "type": "Dentist", "address": "Unit 3 Garratt Way, Manchester", "postcode": "M18 8HE", "telephone": 1612208180.0, "website": null, "area_name": "Manchester", "area_code": "E0800003" }, "geometry": { "type": "Point", "coordinates": [ -2.176031, 53.461982 ] } },
{ "type": "Feature", "properties": { "name": "Spring Lane Dental Practice Limited", "type": "Dentist", "address": "27 Spring Lane, Radcliffe, Manchester", "postcode": "M26 2TQ", "telephone": 1617248500.0, "website": null, "area_name": "Bury", "area_code": "E0800002" }, "geometry": { "type": "Point", "coordinates": [ -2.32699, 53.563083 ] } },
{ "type": "Feature", "properties": { "name": "Ainsworth Village Dental Practice", "type": "Dentist", "address": "11 Church Street, Ainsworth, Bolton", "postcode": "BL2 5RA", "telephone": 1204382828.0, "website": null, "area_name": "Bury", "area_code": "E0800002" }, "geometry": { "type": "Point", "coordinates": [ -2.35782, 53.588135 ] } },
{ "type": "Feature", "properties": { "name": "Harwood Dental Care", "type": "Dentist", "address": "21 Longsight, Harwood, Bolton", "postcode": "BL2 3HS", "telephone": 1204304568.0, "website": "http:\/\/www.harwooddentalcare.co.uk", "area_name": "Bolton", "area_code": "E0800001" }, "geometry": { "type": "Point", "coordinates": [ -2.393855, 53.60509 ] } },
{ "type": "Feature", "properties": { "name": "Mydentist - Morris Street - Manchester", "type": "Dentist", "address": "Constable House, Morris Street, Withington, Manchester", "postcode": "M20 3HN", "telephone": 1614454749.0, "website": "http:\/\/www.mydentist.co.uk", "area_name": "Manchester", "area_code": "E0800003" }, "geometry": { "type": "Point", "coordinates": [ -2.230465, 53.434376 ] } },
{ "type": "Feature", "properties": { "name": "Langley Dental Practice (Rochdale)", "type": "Dentist", "address": "Croft Shifa Health Centre, Belfield Road, Rochdale", "postcode": "OL16 2UP", "telephone": 1616433703.0, "website": "http:\/\/www.langleydentalpractice.com", "area_name": "Rochdale", "area_code": "E0800005" }, "geometry": { "type": "Point", "coordinates": [ -2.14084, 53.622824 ] } },
{ "type": "Feature", "properties": { "name": "Hyde Dental Access Centre", "type": "Dentist", "address": "46 Union Street, Hyde, Manchester", "postcode": "SK14 1NX", "telephone": 1613662420.0, "website": null, "area_name": "Tameside", "area_code": "E0800008" }, "geometry": { "type": "Point", "coordinates": [ -2.075911, 53.449973 ] } },
{ "type": "Feature", "properties": { "name": "Deeplish Dental Practice", "type": "Dentist", "address": "1st Floor, Nye Bevan House, Maclure Road, Rochdale", "postcode": "OL11 1DN", "telephone": 1706261870.0, "website": null, "area_name": "Rochdale", "area_code": "E0800005" }, "geometry": { "type": "Point", "coordinates": [ -2.154239, 53.611617 ] } },
{ "type": "Feature", "properties": { "name": "Charlestown Dental Practice Limited", "type": "Dentist", "address": "Charlestown Health Centre, Charlestown Road, Blackley, Manchester", "postcode": "M9 7ED", "telephone": 1617953065.0, "website": null, "area_name": "Manchester", "area_code": "E0800003" }, "geometry": { "type": "Point", "coordinates": [ -2.186902, 53.52264 ] } },
{ "type": "Feature", "properties": { "name": "M60 Dental Care", "type": "Dentist", "address": "872 Hollins Road, Oldham", "postcode": "OL8 4SR", "telephone": 1616242167.0, "website": "http:\/\/www.M60dentalcare.co.uk", "area_name": "Oldham", "area_code": "E0800004" }, "geometry": { "type": "Point", "coordinates": [ -2.138447, 53.52018 ] } },
{ "type": "Feature", "properties": { "name": "Mydentist - Stevenson Square - Manchester", "type": "Dentist", "address": "43-45 Lever Street, Manchester", "postcode": "M1 1FN", "telephone": 1612242532.0, "website": "http:\/\/www.mydentist.co.uk", "area_name": "Manchester", "area_code": "E0800003" }, "geometry": { "type": "Point", "coordinates": [ -2.233154, 53.483214 ] } },
{ "type": "Feature", "properties": { "name": "Links Associates Ashton Ltd", "type": "Dentist", "address": "Dental Surgery, Pennymeadow, Ashton-under-Lyne", "postcode": "OL6 6HD", "telephone": 1613304124.0, "website": null, "area_name": "Tameside", "area_code": "E0800008" }, "geometry": { "type": "Point", "coordinates": [ -2.089184, 53.489361 ] } },
{ "type": "Feature", "properties": { "name": "Links Associates Salford Ltd", "type": "Dentist", "address": "141 Leicester Road, Salford", "postcode": "M7 4HJ", "telephone": 1617207612.0, "website": null, "area_name": "Salford", "area_code": "E0800006" }, "geometry": { "type": "Point", "coordinates": [ -2.250473, 53.514101 ] } },
{ "type": "Feature", "properties": { "name": "Ashid Hussain and Asif Saleem", "type": "Dentist", "address": "6-8 Market Place, Ramsbottom, Bury", "postcode": "BL0 9HT", "telephone": 1706488096.0, "website": null, "area_name": "Bury", "area_code": "E0800002" }, "geometry": { "type": "Point", "coordinates": [ -2.317958, 53.649008 ] } },
{ "type": "Feature", "properties": { "name": "372 Dental", "type": "Dentist", "address": "372 Bury Road, Bolton", "postcode": "BL2 6DD", "telephone": 1204522581.0, "website": "http:\/\/www.372dental.co.uk", "area_name": "Bolton", "area_code": "E0800001" }, "geometry": { "type": "Point", "coordinates": [ -2.402583, 53.580433 ] } },
{ "type": "Feature", "properties": { "name": "Stockport Orthodontics", "type": "Dentist", "address": "74 Macclesfield Road, Hazel Grove, Stockport", "postcode": "SK7 6DT", "telephone": 1625800333.0, "website": "http:\/\/www.stockportorthodontics.co.uk", "area_name": "Stockport", "area_code": "E0800007" }, "geometry": { "type": "Point", "coordinates": [ -2.114114, 53.366826 ] } },
{ "type": "Feature", "properties": { "name": "Ramsbottom Dental Surgery", "type": "Dentist", "address": "72 Bridge Street, Ramsbottom, Bury", "postcode": "BL0 9AG", "telephone": 1706827755.0, "website": "http:\/\/www.ramsbottomdentalsurgery.co.uk", "area_name": "Bury", "area_code": "E0800002" }, "geometry": { "type": "Point", "coordinates": [ -2.317878, 53.648478 ] } },
{ "type": "Feature", "properties": { "name": "Tottington Dental Surgery", "type": "Dentist", "address": "5 Back Chapel Street, Tottington, Bury", "postcode": "BL8 4AH", "telephone": 1204886881.0, "website": null, "area_name": "Bury", "area_code": "E0800002" }, "geometry": { "type": "Point", "coordinates": [ -2.341179, 53.615193 ] } },
{ "type": "Feature", "properties": { "name": "SimplyOne Dental", "type": "Dentist", "address": "94 Henrietta Street, Ashton-under-Lyne", "postcode": "OL6 8NX", "telephone": 1613084129.0, "website": null, "area_name": "Tameside", "area_code": "E0800008" }, "geometry": { "type": "Point", "coordinates": [ -2.092735, 53.493807 ] } },
{ "type": "Feature", "properties": { "name": "Bennison Dental Practice", "type": "Dentist", "address": "Dental Surgery, 401-405 Halliwell Road, Bolton", "postcode": "BL1 8DE", "telephone": 1204491946.0, "website": "http:\/\/www.andrewbennison.co.uk", "area_name": "Bolton", "area_code": "E0800001" }, "geometry": { "type": "Point", "coordinates": [ -2.444339, 53.594271 ] } },
{ "type": "Feature", "properties": { "name": "Smile Creator Dental Surgery", "type": "Dentist", "address": "332-334 Norris Road, Sale", "postcode": "M33 2UG", "telephone": 1619699907.0, "website": null, "area_name": "Trafford", "area_code": "E0800009" }, "geometry": { "type": "Point", "coordinates": [ -2.2994, 53.414594 ] } },
{ "type": "Feature", "properties": { "name": "Brooklyn Court Dental Practice", "type": "Dentist", "address": "390 Wilmslow Road, Withington, Manchester", "postcode": "M20 3NA", "telephone": 1614453647.0, "website": null, "area_name": "Manchester", "area_code": "E0800003" }, "geometry": { "type": "Point", "coordinates": [ -2.224203, 53.437041 ] } },
{ "type": "Feature", "properties": { "name": "Swan Dental Care", "type": "Dentist", "address": "48 Higher Swan Lane, Bolton", "postcode": "BL3 3AT", "telephone": 1204657513.0, "website": "http:\/\/www.synergydental.org.uk", "area_name": "Bolton", "area_code": "E0800001" }, "geometry": { "type": "Point", "coordinates": [ -2.441218, 53.560145 ] } },
{ "type": "Feature", "properties": { "name": "530 Bolton Partnership", "type": "Dentist", "address": "530 Chorley Old Road, Bolton", "postcode": "BL1 6AB", "telephone": 1204843196.0, "website": null, "area_name": "Bolton", "area_code": "E0800001" }, "geometry": { "type": "Point", "coordinates": [ -2.461747, 53.588938 ] } },
{ "type": "Feature", "properties": { "name": "Bupa - Chorley Old Road, Bolton", "type": "Dentist", "address": "530 Chorley Old Road, Bolton", "postcode": "BL1 6AB", "telephone": 1204843196.0, "website": null, "area_name": "Bolton", "area_code": "E0800001" }, "geometry": { "type": "Point", "coordinates": [ -2.461747, 53.588938 ] } },
{ "type": "Feature", "properties": { "name": "Bosden Farm Dental Practice", "type": "Dentist", "address": "8 Fulmar Drive, Stockport", "postcode": "SK2 5JL", "telephone": 1614568716.0, "website": "http:\/\/www.bosdenfarmdentalpractice.co.uk", "area_name": "Stockport", "area_code": "E0800007" }, "geometry": { "type": "Point", "coordinates": [ -2.109698, 53.391036 ] } },
{ "type": "Feature", "properties": { "name": "Ethos Dental Care", "type": "Dentist", "address": "126 Wellington Road North, Stockport", "postcode": "SK4 2LL", "telephone": 1614775142.0, "website": "http:\/\/www.ethosdental.co.uk", "area_name": "Stockport", "area_code": "E0800007" }, "geometry": { "type": "Point", "coordinates": [ -2.16936, 53.416629 ] } },
{ "type": "Feature", "properties": { "name": "One Dental", "type": "Dentist", "address": "1 Milnrow Road, Rochdale", "postcode": "OL16 1UG", "telephone": 1706352319.0, "website": null, "area_name": "Rochdale", "area_code": "E0800005" }, "geometry": { "type": "Point", "coordinates": [ -2.150936, 53.613938 ] } },
{ "type": "Feature", "properties": { "name": "Mydentist - Heaton Moor Road - Stockport", "type": "Dentist", "address": "162 Heaton Moor Road, Stockport", "postcode": "SK4 4HS", "telephone": 1614327400.0, "website": "http:\/\/www.idhdentiststockportheatonmoor.co.uk", "area_name": "Stockport", "area_code": "E0800007" }, "geometry": { "type": "Point", "coordinates": [ -2.188975, 53.419053 ] } },
{ "type": "Feature", "properties": { "name": "Ethos Dental Care Limited", "type": "Dentist", "address": "126 Wellington Road North, Stockport", "postcode": "SK4 2LL", "telephone": 1614775142.0, "website": "http:\/\/www.ethosdental.co.uk", "area_name": "Stockport", "area_code": "E0800007" }, "geometry": { "type": "Point", "coordinates": [ -2.16936, 53.416629 ] } },
{ "type": "Feature", "properties": { "name": "Poppies Dental Care", "type": "Dentist", "address": "24 Urmston Lane, Stretford, Manchester", "postcode": "M32 9BP", "telephone": 1618651633.0, "website": null, "area_name": "Trafford", "area_code": "E0800009" }, "geometry": { "type": "Point", "coordinates": [ -2.315487, 53.445617 ] } },
{ "type": "Feature", "properties": { "name": "Revive Dental Care - Ancoats", "type": "Dentist", "address": "Old Mill Street, Manchester", "postcode": "M4 6EE", "telephone": 1617469029.0, "website": "http:\/\/www.revivedentalcare.co.uk", "area_name": "Manchester", "area_code": "E0800003" }, "geometry": { "type": "Point", "coordinates": [ -2.219472, 53.4829 ] } },
{ "type": "Feature", "properties": { "name": "Revive Dental Care - Ashton", "type": "Dentist", "address": "193 Old Street, Ashton Under Lyne", "postcode": "OL6 7SR", "telephone": 1617891557.0, "website": "http:\/\/www.revivedentalcare.co.uk", "area_name": "Tameside", "area_code": "E0800008" }, "geometry": { "type": "Point", "coordinates": [ -2.099981, 53.485827 ] } },
{ "type": "Feature", "properties": { "name": "Revive Dental Care - Stockport", "type": "Dentist", "address": "Kingsgate, Wellington Road North, Stockport", "postcode": "SK4 1LW", "telephone": 1614265684.0, "website": null, "area_name": "Stockport", "area_code": "E0800007" }, "geometry": { "type": "Point", "coordinates": [ -2.165957, 53.412533 ] } },
{ "type": "Feature", "properties": { "name": "Revive Dental Care - Manchester city centre", "type": "Dentist", "address": "2 Bexley Square, Salford", "postcode": "M3 6BZ", "telephone": 1618345166.0, "website": null, "area_name": "Salford", "area_code": "E0800006" }, "geometry": { "type": "Point", "coordinates": [ -2.258807, 53.483621 ] } },
{ "type": "Feature", "properties": { "name": "Revive Dental Care - Circle OOH", "type": "Dentist", "address": "10 Davyhulme Circle, Urmston, Manchester", "postcode": "M41 0SS", "telephone": 1617469029.0, "website": "http:\/\/www.revivedentalcare.co.uk", "area_name": "Trafford", "area_code": "E0800009" }, "geometry": { "type": "Point", "coordinates": [ -2.356522, 53.457445 ] } },
{ "type": "Feature", "properties": { "name": "Limes Dental Centre", "type": "Dentist", "address": "2 Simpson Grove, Boothstown, Worsley, Manchester", "postcode": "M28 1LY", "telephone": 1617037773.0, "website": "http:\/\/www.limesdental.com", "area_name": "Salford", "area_code": "E0800006" }, "geometry": { "type": "Point", "coordinates": [ -2.419883, 53.503352 ] } },
{ "type": "Feature", "properties": { "name": "St Andrew's Dental Care", "type": "Dentist", "address": "375 Ainsworth Road, Radcliffe, Manchester", "postcode": "M26 4HF", "telephone": 1617234274.0, "website": null, "area_name": "Bury", "area_code": "E0800002" }, "geometry": { "type": "Point", "coordinates": [ -2.338975, 53.574291 ] } },
{ "type": "Feature", "properties": { "name": "Freshdental", "type": "Dentist", "address": "48 Wigan Road, Deane, Bolton", "postcode": "BL3 5PZ", "telephone": 120464028.0, "website": "http:\/\/www.freshdental.co.uk", "area_name": "Bolton", "area_code": "E0800001" }, "geometry": { "type": "Point", "coordinates": [ -2.45326, 53.570895 ] } },
{ "type": "Feature", "properties": { "name": "Walkden Dental Practice", "type": "Dentist", "address": "10-12 Memorial Road, Walkden, Manchester", "postcode": "M28 3AQ", "telephone": 1617902314.0, "website": "http:\/\/www.walkdendentalpractice.co.uk", "area_name": "Salford", "area_code": "E0800006" }, "geometry": { "type": "Point", "coordinates": [ -2.398022, 53.522876 ] } },
{ "type": "Feature", "properties": { "name": "207 Dental Care", "type": "Dentist", "address": "207 Deansgate, Manchester", "postcode": "M3 3NW", "telephone": 1618340606.0, "website": "http:\/\/www.207dentalcare.com", "area_name": "Manchester", "area_code": "E0800003" }, "geometry": { "type": "Point", "coordinates": [ -2.249026, 53.478751 ] } },
{ "type": "Feature", "properties": { "name": "Family Dental Practice", "type": "Dentist", "address": "177a Princess Road, Moss Side, Manchester", "postcode": "M14 4RL", "telephone": 1612268432.0, "website": null, "area_name": "Manchester", "area_code": "E0800003" }, "geometry": { "type": "Point", "coordinates": [ -2.244741, 53.453818 ] } },
{ "type": "Feature", "properties": { "name": "Avalon Dental Care", "type": "Dentist", "address": "283 Slade Lane, Levenshulme, Manchester", "postcode": "M19 2HR", "telephone": 1612244345.0, "website": null, "area_name": "Manchester", "area_code": "E0800003" }, "geometry": { "type": "Point", "coordinates": [ -2.199921, 53.43988 ] } },
{ "type": "Feature", "properties": { "name": "Poundswick Lane Dental Practice", "type": "Dentist", "address": "18 Poundswick Lane, Wythenshawe, Manchester", "postcode": "M22 9TD", "telephone": 1614993141.0, "website": null, "area_name": "Manchester", "area_code": "E0800003" }, "geometry": { "type": "Point", "coordinates": [ -2.260386, 53.382146 ] } },
{ "type": "Feature", "properties": { "name": "Brownley Green Dental Practice", "type": "Dentist", "address": "Brownley Green Health Centre, Benchill Court Road, Wythenshawe, Manchester", "postcode": "M22 4GA", "telephone": 1612092702.0, "website": null, "area_name": "Manchester", "area_code": "E0800003" }, "geometry": { "type": "Point", "coordinates": [ -2.256686, 53.391916 ] } },
{ "type": "Feature", "properties": { "name": "Bolton Road Dental Practice", "type": "Dentist", "address": "265 Bolton Road, Radcliffe, Manchester", "postcode": "M26 3QP", "telephone": 1617247344.0, "website": null, "area_name": "Bury", "area_code": "E0800002" }, "geometry": { "type": "Point", "coordinates": [ -2.343533, 53.562632 ] } },
{ "type": "Feature", "properties": { "name": "Crescent Dental Care", "type": "Dentist", "address": "2 Crescent Road, Hale, Altrincham", "postcode": "WA15 9NA", "telephone": 1619298111.0, "website": "http:\/\/www.crescentdentalcare-hale.co.uk", "area_name": "Trafford", "area_code": "E0800009" }, "geometry": { "type": "Point", "coordinates": [ -2.343866, 53.374573 ] } },
{ "type": "Feature", "properties": { "name": "Ash Villa Dental Practice", "type": "Dentist", "address": "2 Harboro Way, Sale", "postcode": "M33 6QX", "telephone": 1619736890.0, "website": "http:\/\/www.ashvilladental.com", "area_name": "Trafford", "area_code": "E0800009" }, "geometry": { "type": "Point", "coordinates": [ -2.3339, 53.420586 ] } },
{ "type": "Feature", "properties": { "name": "Serenity Dental Spa", "type": "Dentist", "address": "264 Barlow Moor Road, Chorlton, Manchester", "postcode": "M21 8HA", "telephone": 1618607000.0, "website": "http:\/\/www.crystalcare.co.uk", "area_name": "Manchester", "area_code": "E0800003" }, "geometry": { "type": "Point", "coordinates": [ -2.268652, 53.43186 ] } },
{ "type": "Feature", "properties": { "name": "Mydentist - Borough Arcade - Hyde", "type": "Dentist", "address": "1 Borough Arcade, Hyde", "postcode": "SK14 2AA", "telephone": 1204799799.0, "website": "http:\/\/www.mydentist.co.uk", "area_name": "Tameside", "area_code": "E0800008" }, "geometry": { "type": "Point", "coordinates": [ -2.07995, 53.451813 ] } },
{ "type": "Feature", "properties": { "name": "The Dental Care Centre", "type": "Dentist", "address": "75 Market Street, Little Lever, Bolton", "postcode": "BL3 1HH", "telephone": 1204796795.0, "website": "http:\/\/www.gentlesmile.co.uk", "area_name": "Bolton", "area_code": "E0800001" }, "geometry": { "type": "Point", "coordinates": [ -2.371957, 53.562266 ] } },
{ "type": "Feature", "properties": { "name": "Monton Green Dental Practice", "type": "Dentist", "address": "17 Monton Green, Eccles, Manchester", "postcode": "M30 9LE", "telephone": 1617888769.0, "website": "http:\/\/www.montongreendental.co.uk", "area_name": "Salford", "area_code": "E0800006" }, "geometry": { "type": "Point", "coordinates": [ -2.354851, 53.491822 ] } },
{ "type": "Feature", "properties": { "name": "Haughton Green Dental Practice", "type": "Dentist", "address": "87 Haughton Green Road, Denton, Manchester", "postcode": "M34 7GR", "telephone": 1613206228.0, "website": null, "area_name": "Tameside", "area_code": "E0800008" }, "geometry": { "type": "Point", "coordinates": [ -2.097754, 53.441472 ] } },
{ "type": "Feature", "properties": { "name": "Cleggs Lane Dental Practice", "type": "Dentist", "address": "34 Cleggs Lane, Little Hulton, Manchester", "postcode": "M38 9WT", "telephone": 1617906682.0, "website": null, "area_name": "Salford", "area_code": "E0800006" }, "geometry": { "type": "Point", "coordinates": [ -2.422774, 53.53179 ] } },
{ "type": "Feature", "properties": { "name": "Calm Dental Care", "type": "Dentist", "address": "132c Flixton Road, Urmston, Manchester", "postcode": "M41 5BG", "telephone": 1617476841.0, "website": "http:\/\/www.calmdentalcare.co.uk", "area_name": "Trafford", "area_code": "E0800009" }, "geometry": { "type": "Point", "coordinates": [ -2.362664, 53.448267 ] } },
{ "type": "Feature", "properties": { "name": "Windsor Dental Practice", "type": "Dentist", "address": "Belvedere Road, Salford", "postcode": "M6 5EQ", "telephone": 1617361397.0, "website": "http:\/\/www.windsordental.co.uk", "area_name": "Salford", "area_code": "E0800006" }, "geometry": { "type": "Point", "coordinates": [ -2.279415, 53.487107 ] } },
{ "type": "Feature", "properties": { "name": "Jeremy Cooper Dental Practice", "type": "Dentist", "address": "11 Victoria Road, Salford", "postcode": "M6 8FZ", "telephone": 1617895917.0, "website": "http:\/\/www.drjeremycooperbdslondsalford.co.uk", "area_name": "Salford", "area_code": "E0800006" }, "geometry": { "type": "Point", "coordinates": [ -2.326647, 53.491149 ] } },
{ "type": "Feature", "properties": { "name": "Dr David End - Cheetham Street East Salford", "type": "Dentist", "address": "263 Great Cheetham Street East, Salford", "postcode": "M7 4UF", "telephone": 1617921960.0, "website": null, "area_name": "Salford", "area_code": "E0800006" }, "geometry": { "type": "Point", "coordinates": [ -2.254856, 53.503162 ] } },
{ "type": "Feature", "properties": { "name": "The Dental Practice", "type": "Dentist", "address": "569 Cheetham Hill Road, Manchester", "postcode": "M8 9JE", "telephone": 1617403000.0, "website": null, "area_name": "Manchester", "area_code": "E0800003" }, "geometry": { "type": "Point", "coordinates": [ -2.244998, 53.51147 ] } },
{ "type": "Feature", "properties": { "name": "Church Lane Dental Practice", "type": "Dentist", "address": "187 Church Lane, Harpurhey, Manchester", "postcode": "M9 4LY", "telephone": 1612051654.0, "website": null, "area_name": "Manchester", "area_code": "E0800003" }, "geometry": { "type": "Point", "coordinates": [ -2.202169, 53.507406 ] } },
{ "type": "Feature", "properties": { "name": "Mike Brown Dental", "type": "Dentist", "address": "163 Drake Street, Rochdale", "postcode": "OL11 1EF", "telephone": 1706647746.0, "website": null, "area_name": "Rochdale", "area_code": "E0800005" }, "geometry": { "type": "Point", "coordinates": [ -2.159499, 53.61194 ] } },
{ "type": "Feature", "properties": { "name": "Littleborough Dental Practice", "type": "Dentist", "address": "115 Featherstall Road, Littleborough", "postcode": "OL15 8JZ", "telephone": 1706376523.0, "website": null, "area_name": "Rochdale", "area_code": "E0800005" }, "geometry": { "type": "Point", "coordinates": [ -2.106461, 53.641858 ] } },
{ "type": "Feature", "properties": { "name": "Foxland Dental Surgery", "type": "Dentist", "address": "42 Foxland Road, Gatley, Cheadle", "postcode": "SK8 4QB", "telephone": 1614910022.0, "website": "http:\/\/www.foxlanddental.co.uk", "area_name": "Stockport", "area_code": "E0800007" }, "geometry": { "type": "Point", "coordinates": [ -2.230364, 53.38779 ] } },
{ "type": "Feature", "properties": { "name": "Excel Dental Centre", "type": "Dentist", "address": "1a Cheadle Road, Cheadle, Stockport", "postcode": "SK7 3DQ", "telephone": 1614281104.0, "website": "http:\/\/www.exceldental.co.uk", "area_name": "Stockport", "area_code": "E0800007" }, "geometry": { "type": "Point", "coordinates": [ -2.164256, 53.376808 ] } },
{ "type": "Feature", "properties": { "name": "Lotus Orthodontics", "type": "Dentist", "address": "12a Market Street, Altrincham", "postcode": "WA14 1QB", "telephone": null, "website": "http:\/\/www.lotusorthodontics.com", "area_name": "Trafford", "area_code": "E0800009" }, "geometry": { "type": "Point", "coordinates": [ -2.351254, 53.38842 ] } },
{ "type": "Feature", "properties": { "name": "Wood & Woolfstein Dental Practice", "type": "Dentist", "address": "452 Barlow Moor Road, Chorlton, Manchester", "postcode": "M21 0BQ", "telephone": 1618812110.0, "website": null, "area_name": "Manchester", "area_code": "E0800003" }, "geometry": { "type": "Point", "coordinates": [ -2.277668, 53.443454 ] } },
{ "type": "Feature", "properties": { "name": "Circle Dental", "type": "Dentist", "address": "16a The Circle, Barton Road, Stretford, Manchester", "postcode": "M32 9TR", "telephone": 1617482605.0, "website": "http:\/\/www.circledental.com", "area_name": "Trafford", "area_code": "E0800009" }, "geometry": { "type": "Point", "coordinates": [ -2.336501, 53.456569 ] } },
{ "type": "Feature", "properties": { "name": "Shevington Dental Practice", "type": "Dentist", "address": "16 Gathurst Lane, Shevington, Wigan", "postcode": "WN6 8HA", "telephone": 1257252697.0, "website": null, "area_name": "Wigan", "area_code": "E08000010" }, "geometry": { "type": "Point", "coordinates": [ -2.694238, 53.571105 ] } },
{ "type": "Feature", "properties": { "name": "Mr Akeel Rahmatalla - Winton", "type": "Dentist", "address": "1 Vaughan Street, Winton, Eccles, Manchester", "postcode": "M30 8DH", "telephone": 1617893808.0, "website": null, "area_name": "Salford", "area_code": "E0800006" }, "geometry": { "type": "Point", "coordinates": [ -2.368096, 53.49128 ] } },
{ "type": "Feature", "properties": { "name": "Green and Green Dental Surgery", "type": "Dentist", "address": "100 Warrington Road, Newtown, Wigan", "postcode": "WN5 9AL", "telephone": 1942323939.0, "website": null, "area_name": "Wigan", "area_code": "E08000010" }, "geometry": { "type": "Point", "coordinates": [ -2.652389, 53.537445 ] } },
{ "type": "Feature", "properties": { "name": "Bolton Street Dental Practice", "type": "Dentist", "address": "64 Bolton Street, Ramsbottom, Bury", "postcode": "BL0 9HX", "telephone": 1706825960.0, "website": "http:\/\/www.boltonstreetdental.co.uk", "area_name": "Bury", "area_code": "E0800002" }, "geometry": { "type": "Point", "coordinates": [ -2.318941, 53.647019 ] } },
{ "type": "Feature", "properties": { "name": "A R Dental", "type": "Dentist", "address": "1 Albert Road, Cheadle Hulme, Cheadle", "postcode": "SK8 5DB", "telephone": 1614851193.0, "website": null, "area_name": "Stockport", "area_code": "E0800007" }, "geometry": { "type": "Point", "coordinates": [ -2.193014, 53.377358 ] } },
{ "type": "Feature", "properties": { "name": "Harpers Dental Practice", "type": "Dentist", "address": "32 Bradford Street, The Haulgh, Bolton", "postcode": "BL2 1JJ", "telephone": 1204521140.0, "website": "http:\/\/www.harpersdentalpractice.org.uk", "area_name": "Bolton", "area_code": "E0800001" }, "geometry": { "type": "Point", "coordinates": [ -2.417273, 53.576751 ] } },
{ "type": "Feature", "properties": { "name": "Bromley Cross Dental Practice", "type": "Dentist", "address": "227-229 Darwen Road, Bromley Cross, Bolton", "postcode": "BL7 9BS", "telephone": 1204308488.0, "website": null, "area_name": "Bolton", "area_code": "E0800001" }, "geometry": { "type": "Point", "coordinates": [ -2.420162, 53.615328 ] } },
{ "type": "Feature", "properties": { "name": "Ash Dental Practice", "type": "Dentist", "address": "228-230 Liverpool Road, Eccles, Manchester", "postcode": "M30 0PF", "telephone": 1617890082.0, "website": "http:\/\/www.ashdental.co.uk", "area_name": "Salford", "area_code": "E0800006" }, "geometry": { "type": "Point", "coordinates": [ -2.352501, 53.482931 ] } },
{ "type": "Feature", "properties": { "name": "Kearsley Dental Care", "type": "Dentist", "address": "25 Bolton Road, Kearsley, Bolton", "postcode": "BL4 8DB", "telephone": 1204573573.0, "website": null, "area_name": "Bolton", "area_code": "E0800001" }, "geometry": { "type": "Point", "coordinates": [ -2.388475, 53.544353 ] } },
{ "type": "Feature", "properties": { "name": "Haslam Park Dental Practice", "type": "Dentist", "address": "208 Wigan Road, Bolton", "postcode": "BL3 5QE", "telephone": 1204654141.0, "website": null, "area_name": "Bolton", "area_code": "E0800001" }, "geometry": { "type": "Point", "coordinates": [ -2.460819, 53.568942 ] } },
{ "type": "Feature", "properties": { "name": "Bolton Orthodontic Centre", "type": "Dentist", "address": "464 Manchester Road, Bolton", "postcode": "BL3 2NU", "telephone": 1204382242.0, "website": null, "area_name": "Bolton", "area_code": "E0800001" }, "geometry": { "type": "Point", "coordinates": [ -2.413781, 53.564054 ] } },
{ "type": "Feature", "properties": { "name": "406 Dental", "type": "Dentist", "address": "406 Bury Old Road, Prestwich, Manchester", "postcode": "M25 1PZ", "telephone": null, "website": "http:\/\/www.406dental.com", "area_name": "Bury", "area_code": "E0800002" }, "geometry": { "type": "Point", "coordinates": [ -2.269477, 53.535937 ] } },
{ "type": "Feature", "properties": { "name": "Hind Dental Practice", "type": "Dentist", "address": "1 Mesnes Park Terrace, Wigan", "postcode": "WN1 1SU", "telephone": 1942243339.0, "website": null, "area_name": "Wigan", "area_code": "E08000010" }, "geometry": { "type": "Point", "coordinates": [ -2.633572, 53.55049 ] } },
{ "type": "Feature", "properties": { "name": "Wood and Associates Dental Care Limited", "type": "Dentist", "address": "673 Manchester Road, Denton, Manchester", "postcode": "M34 2NA", "telephone": 1613368036.0, "website": null, "area_name": "Tameside", "area_code": "E0800008" }, "geometry": { "type": "Point", "coordinates": [ -2.149568, 53.4574 ] } },
{ "type": "Feature", "properties": { "name": "Firwood Dental Practice", "type": "Dentist", "address": "918 Middleton Road, Chadderton, Oldham", "postcode": "OL9 9SB", "telephone": 1616244297.0, "website": "http:\/\/www.firwooddental.co.uk", "area_name": "Oldham", "area_code": "E0800004" }, "geometry": { "type": "Point", "coordinates": [ -2.160668, 53.549157 ] } },
{ "type": "Feature", "properties": { "name": "Royton Health and Wellbeing Centre", "type": "Dentist", "address": "Park Street, Royton, Oldham", "postcode": "OL2 6QW", "telephone": 1613624005.0, "website": null, "area_name": "Oldham", "area_code": "E0800004" }, "geometry": { "type": "Point", "coordinates": [ -2.121594, 53.566109 ] } },
{ "type": "Feature", "properties": { "name": "Elmfield Dental Practice", "type": "Dentist", "address": "194 Stockport Road, Marple, Stockport", "postcode": "SK6 6DL", "telephone": 1614499740.0, "website": null, "area_name": "Stockport", "area_code": "E0800007" }, "geometry": { "type": "Point", "coordinates": [ -2.072611, 53.396107 ] } },
{ "type": "Feature", "properties": { "name": "Wallace Thomas Hobson & Emmett - Glebe Street", "type": "Dentist", "address": "Dental Surgery, Glebe Street, Ashton Under Lyne", "postcode": "OL6 6HD", "telephone": 1613302351.0, "website": null, "area_name": "Tameside", "area_code": "E0800008" }, "geometry": { "type": "Point", "coordinates": [ -2.089184, 53.489361 ] } },
{ "type": "Feature", "properties": { "name": "Rosehill Dental Practice", "type": "Dentist", "address": "301 Stockport Road, Marple, Stockport", "postcode": "SK6 6ES", "telephone": 1614272255.0, "website": "http:\/\/www.rosehilldentalpractice.co.uk", "area_name": "Stockport", "area_code": "E0800007" }, "geometry": { "type": "Point", "coordinates": [ -2.082657, 53.396164 ] } },
{ "type": "Feature", "properties": { "name": "Kinshuck Family Dentistry Limited", "type": "Dentist", "address": "341 Ormskirk Road, Pemberton, Wigan", "postcode": "WN5 9DL", "telephone": 1942214605.0, "website": "http:\/\/www.famdentistry.co.uk", "area_name": "Wigan", "area_code": "E08000010" }, "geometry": { "type": "Point", "coordinates": [ -2.663036, 53.537108 ] } },
{ "type": "Feature", "properties": { "name": "East Road Care Limited", "type": "Dentist", "address": "73 East Road, Longsight, Manchester", "postcode": "M12 5QY", "telephone": 1612245875.0, "website": null, "area_name": "Manchester", "area_code": "E0800003" }, "geometry": { "type": "Point", "coordinates": [ -2.193587, 53.453849 ] } },
{ "type": "Feature", "properties": { "name": "Lowton Dental Centre", "type": "Dentist", "address": "7a Stone Cross Lane, Lowton, Warrington", "postcode": "WA3 2SA", "telephone": 1942722224.0, "website": null, "area_name": "Wigan", "area_code": "E08000010" }, "geometry": { "type": "Point", "coordinates": [ -2.581607, 53.474612 ] } },
{ "type": "Feature", "properties": { "name": "Hindley Dental Practice", "type": "Dentist", "address": "1-3 Ladies Lane, Hindley, Wigan", "postcode": "WN2 2QA", "telephone": 1942255315.0, "website": null, "area_name": "Wigan", "area_code": "E08000010" }, "geometry": { "type": "Point", "coordinates": [ -2.576461, 53.538446 ] } },
{ "type": "Feature", "properties": { "name": "Pritchards Dental Practice Limited", "type": "Dentist", "address": "20 Union Street, Oldham", "postcode": "OL1 1BE", "telephone": 1616787287.0, "website": "http:\/\/www.pritcharddental.co.uk", "area_name": "Oldham", "area_code": "E0800004" }, "geometry": { "type": "Point", "coordinates": [ -2.114549, 53.539593 ] } },
{ "type": "Feature", "properties": { "name": "Simkins Dental Care", "type": "Dentist", "address": "7 Lostock Road, Davyhulme, Manchester", "postcode": "M41 0SU", "telephone": 1617483378.0, "website": null, "area_name": "Trafford", "area_code": "E0800009" }, "geometry": { "type": "Point", "coordinates": [ -2.35454, 53.458028 ] } },
{ "type": "Feature", "properties": { "name": "The Blackley Dental Practice", "type": "Dentist", "address": "371 Victoria Avenue, Blackley, Manchester", "postcode": "M9 8WQ", "telephone": 1617954547.0, "website": "http:\/\/www.pipdentalcare.com", "area_name": "Manchester", "area_code": "E0800003" }, "geometry": { "type": "Point", "coordinates": [ -2.231243, 53.533391 ] } },
{ "type": "Feature", "properties": { "name": "Revive Dental Care", "type": "Dentist", "address": "72 Rocky Lane, Monton, Eccles, Manchester", "postcode": "M30 9LY", "telephone": 1617891557.0, "website": "http:\/\/www.revivedentalcare.co.uk", "area_name": "Salford", "area_code": "E0800006" }, "geometry": { "type": "Point", "coordinates": [ -2.350298, 53.495172 ] } },
{ "type": "Feature", "properties": { "name": "Pinfold Dental Practice Limited", "type": "Dentist", "address": "34 Hattersley Road East, Hattersley, Hyde", "postcode": "SK14 3QJ", "telephone": 1613681390.0, "website": null, "area_name": "Tameside", "area_code": "E0800008" }, "geometry": { "type": "Point", "coordinates": [ -2.029306, 53.44639 ] } },
{ "type": "Feature", "properties": { "name": "Horwich Dental Care Centre Limited", "type": "Dentist", "address": "517 Chorley New Road, Horwich, Bolton", "postcode": "BL6 6JT", "telephone": 8445769984.0, "website": "http:\/\/www.horwichdentalcare.net", "area_name": "Bolton", "area_code": "E0800001" }, "geometry": { "type": "Point", "coordinates": [ -2.534953, 53.590017 ] } },
{ "type": "Feature", "properties": { "name": "H M Forest Bank Prison", "type": "Dentist", "address": "Forestbank, Swinton, Manchester", "postcode": "M27 8FB", "telephone": 1619257000.0, "website": null, "area_name": "Salford", "area_code": "E0800006" }, "geometry": { "type": "Point", "coordinates": [ -2.302093, 53.514251 ] } },
{ "type": "Feature", "properties": { "name": "Bupa - St Anns Square, Manchester", "type": "Dentist", "address": "14 St Ann's Square, Manchester", "postcode": "M2 7HQ", "telephone": 1618342627.0, "website": null, "area_name": "Manchester", "area_code": "E0800003" }, "geometry": { "type": "Point", "coordinates": [ -2.245837, 53.482236 ] } },
{ "type": "Feature", "properties": { "name": "Hale Family Dental Centre", "type": "Dentist", "address": "1a Cambridge Road, Hale, Altrincham", "postcode": "WA15 9SY", "telephone": 1619281380.0, "website": "http:\/\/www.halefamilydental.co.uk", "area_name": "Trafford", "area_code": "E0800009" }, "geometry": { "type": "Point", "coordinates": [ -2.342935, 53.376518 ] } },
{ "type": "Feature", "properties": { "name": "Bridgewater Dental Surgery", "type": "Dentist", "address": "4 The Packet House & Boatsteps, Barton Road, Worsley, Manchester", "postcode": "M28 2PB", "telephone": 1617279119.0, "website": "http:\/\/www.bridgewaterdentalsurgery.com", "area_name": "Salford", "area_code": "E0800006" }, "geometry": { "type": "Point", "coordinates": [ -2.381317, 53.499895 ] } },
{ "type": "Feature", "properties": { "name": "The Cottage Dental Practice", "type": "Dentist", "address": "38 Ack Lane West, Cheadle Hulme, Cheadle", "postcode": "SK8 7EL", "telephone": 1614858000.0, "website": null, "area_name": "Stockport", "area_code": "E0800007" }, "geometry": { "type": "Point", "coordinates": [ -2.182803, 53.365734 ] } },
{ "type": "Feature", "properties": { "name": "Gary Knowles Dental Practice", "type": "Dentist", "address": "Partington Health Centre, Central Road, Partington, Manchester", "postcode": "M31 4FL", "telephone": 1617759053.0, "website": null, "area_name": "Trafford", "area_code": "E0800009" }, "geometry": { "type": "Point", "coordinates": [ -2.425053, 53.417437 ] } },
{ "type": "Feature", "properties": { "name": "Dash Dental Care", "type": "Dentist", "address": "76 Church Road, Northenden, Manchester", "postcode": "M22 4NW", "telephone": 1619983630.0, "website": null, "area_name": "Manchester", "area_code": "E0800003" }, "geometry": { "type": "Point", "coordinates": [ -2.256131, 53.407162 ] } },
{ "type": "Feature", "properties": { "name": "Mr E H Burke Surgery", "type": "Dentist", "address": "265 London Road, Hazel Grove, Stockport", "postcode": "SK7 4PL", "telephone": 1614832099.0, "website": null, "area_name": "Stockport", "area_code": "E0800007" }, "geometry": { "type": "Point", "coordinates": [ -2.118386, 53.378947 ] } },
{ "type": "Feature", "properties": { "name": "Church Road Dental and Cosmetic", "type": "Dentist", "address": "32 Church Road, Cheadle Hulme, Cheshire, Cheadle", "postcode": "SK8 7JB", "telephone": 1614860743.0, "website": null, "area_name": "Stockport", "area_code": "E0800007" }, "geometry": { "type": "Point", "coordinates": [ -2.185722, 53.366619 ] } },
{ "type": "Feature", "properties": { "name": "Birch Dental Practice Limited", "type": "Dentist", "address": "2 Hythe Close, Rusholme, Manchester", "postcode": "M14 5AT", "telephone": 1612248127.0, "website": null, "area_name": "Manchester", "area_code": "E0800003" }, "geometry": { "type": "Point", "coordinates": [ -2.221393, 53.452336 ] } },
{ "type": "Feature", "properties": { "name": "The Square Advanced Dental Care", "type": "Dentist", "address": "2 Hollins House, 327 Hale Road, Hale Barns, Altrincham", "postcode": "WA15 8TS", "telephone": 7921040842.0, "website": "http:\/\/www.thesquaredental.com", "area_name": "Trafford", "area_code": "E0800009" }, "geometry": { "type": "Point", "coordinates": [ -2.312745, 53.369473 ] } },
{ "type": "Feature", "properties": { "name": "Inglewood House Dental Practice", "type": "Dentist", "address": "225 Bury New Road, Whitefield, Manchester", "postcode": "M45 8GW", "telephone": 1617664506.0, "website": "http:\/\/www.inglewood-house.co.uk", "area_name": "Bury", "area_code": "E0800002" }, "geometry": { "type": "Point", "coordinates": [ -2.295923, 53.550715 ] } },
{ "type": "Feature", "properties": { "name": "Ramsbottom Dental Care", "type": "Dentist", "address": "9-11 Peel Brow, Ramsbottom, Bury", "postcode": "BL0 0AA", "telephone": 1706829201.0, "website": null, "area_name": "Bury", "area_code": "E0800002" }, "geometry": { "type": "Point", "coordinates": [ -2.312381, 53.647755 ] } },
{ "type": "Feature", "properties": { "name": "Wigan Dental Centre", "type": "Dentist", "address": "44 Whelley, Whelley, Wigan", "postcode": "WN1 3PQ", "telephone": 1942826366.0, "website": null, "area_name": "Wigan", "area_code": "E08000010" }, "geometry": { "type": "Point", "coordinates": [ -2.617943, 53.551126 ] } },
{ "type": "Feature", "properties": { "name": "Ashton Dental Practice", "type": "Dentist", "address": "19 Wigan Road, Ashton-in-Makerfield, Wigan", "postcode": "WN4 9AR", "telephone": 1942271827.0, "website": "http:\/\/www.wecareforyoursmile.com", "area_name": "Wigan", "area_code": "E08000010" }, "geometry": { "type": "Point", "coordinates": [ -2.637556, 53.488211 ] } },
{ "type": "Feature", "properties": { "name": "The Dental Health Centre", "type": "Dentist", "address": "1b School Lane, Didsbury, Manchester", "postcode": "M20 6RD", "telephone": 1614455459.0, "website": "http:\/\/www.didsburydentalhealth.com", "area_name": "Manchester", "area_code": "E0800003" }, "geometry": { "type": "Point", "coordinates": [ -2.230962, 53.417631 ] } },
{ "type": "Feature", "properties": { "name": "Mr John Booth - 4A Dental", "type": "Dentist", "address": "4a Balderstone Road, Rochdale", "postcode": "OL11 2AJ", "telephone": 1706394470.0, "website": null, "area_name": "Rochdale", "area_code": "E0800005" }, "geometry": { "type": "Point", "coordinates": [ -2.145694, 53.596976 ] } },
{ "type": "Feature", "properties": { "name": "Horwich Dental Practice", "type": "Dentist", "address": "19-21 Winter Hey Lane, Horwich, Bolton", "postcode": "BL6 7AD", "telephone": null, "website": null, "area_name": "Bolton", "area_code": "E0800001" }, "geometry": { "type": "Point", "coordinates": [ -2.547054, 53.599391 ] } },
{ "type": "Feature", "properties": { "name": "Grays Dental Care", "type": "Dentist", "address": "62 Manchester Road, Altrincham", "postcode": "WA14 4PJ", "telephone": 1619281813.0, "website": "http:\/\/www.graysdental.co.uk", "area_name": "Trafford", "area_code": "E0800009" }, "geometry": { "type": "Point", "coordinates": [ -2.35188, 53.394981 ] } },
{ "type": "Feature", "properties": { "name": "Shaw Heath Family Dental Health Centre", "type": "Dentist", "address": "212 Shaw Heath, Stockport", "postcode": "SK2 6QZ", "telephone": 1614298851.0, "website": null, "area_name": "Stockport", "area_code": "E0800007" }, "geometry": { "type": "Point", "coordinates": [ -2.156921, 53.397706 ] } },
{ "type": "Feature", "properties": { "name": "Mr C Carre BDS Dental Practice", "type": "Dentist", "address": "Upper Unit 43, Stretford Mall, Manchester", "postcode": "M32 9BB", "telephone": 1618652431.0, "website": null, "area_name": "Trafford", "area_code": "E0800009" }, "geometry": { "type": "Point", "coordinates": [ -2.310817, 53.445206 ] } },
{ "type": "Feature", "properties": { "name": "KS Dental Sale Manchester", "type": "Dentist", "address": "331 Washway Road, Sale", "postcode": "M33 4EE", "telephone": 1619732753.0, "website": null, "area_name": "Trafford", "area_code": "E0800009" }, "geometry": { "type": "Point", "coordinates": [ -2.337966, 53.413385 ] } },
{ "type": "Feature", "properties": { "name": "Langworthy Dental Practice", "type": "Dentist", "address": "192 Langworthy Road, Salford", "postcode": "M6 5PP", "telephone": 1617362695.0, "website": null, "area_name": "Salford", "area_code": "E0800006" }, "geometry": { "type": "Point", "coordinates": [ -2.294577, 53.487206 ] } },
{ "type": "Feature", "properties": { "name": "Edgeley Dental Practice Limited", "type": "Dentist", "address": "146 Grenville Street, Edgeley, Stockport", "postcode": "SK3 9ET", "telephone": 1614803083.0, "website": null, "area_name": "Stockport", "area_code": "E0800007" }, "geometry": { "type": "Point", "coordinates": [ -2.170461, 53.40238 ] } },
{ "type": "Feature", "properties": { "name": "Denuvo Dental", "type": "Dentist", "address": "143 Lea Gate, Bolton", "postcode": "BL2 4BQ", "telephone": 1204593300.0, "website": "http:\/\/www.denuvodental.co.uk", "area_name": "Bolton", "area_code": "E0800001" }, "geometry": { "type": "Point", "coordinates": [ -2.396245, 53.605235 ] } },
{ "type": "Feature", "properties": { "name": "Oakley Dental", "type": "Dentist", "address": "59 Bury Old Road, Prestwich, Manchester", "postcode": "M25 0FG", "telephone": 1617730111.0, "website": "http:\/\/www.oakleydental.co.uk", "area_name": "Bury", "area_code": "E0800002" }, "geometry": { "type": "Point", "coordinates": [ -2.261372, 53.520828 ] } },
{ "type": "Feature", "properties": { "name": "The Dental Practice - Wilbraham Road", "type": "Dentist", "address": "135 Wilbraham Road, Fallowfield, Manchester", "postcode": "M14 7DS", "telephone": 1612247621.0, "website": "http:\/\/www.thedentalpracticefallowfield.com", "area_name": "Manchester", "area_code": "E0800003" }, "geometry": { "type": "Point", "coordinates": [ -2.233932, 53.443431 ] } },
{ "type": "Feature", "properties": { "name": "Boothstown Dental Practice", "type": "Dentist", "address": "51 Leigh Road, Boothstown, Worsely, Manchester", "postcode": "M28 1HP", "telephone": 1617902830.0, "website": null, "area_name": "Salford", "area_code": "E0800006" }, "geometry": { "type": "Point", "coordinates": [ -2.420855, 53.502522 ] } },
{ "type": "Feature", "properties": { "name": "Collegiate Dental Practice", "type": "Dentist", "address": "76 Brideoak Street, Cheetham Hill, Manchester", "postcode": "M8 0AB", "telephone": 1612051000.0, "website": null, "area_name": "Manchester", "area_code": "E0800003" }, "geometry": { "type": "Point", "coordinates": [ -2.241421, 53.505581 ] } },
{ "type": "Feature", "properties": { "name": "The Sandy Lane Dental Practice", "type": "Dentist", "address": "7 Sandy Lane, Chorlton-Cum-Hardy, Manchester", "postcode": "M21 8TL", "telephone": 1618816560.0, "website": null, "area_name": "Manchester", "area_code": "E0800003" }, "geometry": { "type": "Point", "coordinates": [ -2.273708, 53.438763 ] } },
{ "type": "Feature", "properties": { "name": "Dental Practice - Manchester Road", "type": "Dentist", "address": "63 Manchester Road, Altrincham", "postcode": "WA14 4RH", "telephone": 1619282886.0, "website": null, "area_name": "Trafford", "area_code": "E0800009" }, "geometry": { "type": "Point", "coordinates": [ -2.352566, 53.396022 ] } },
{ "type": "Feature", "properties": { "name": "Broom Lane Dental Care", "type": "Dentist", "address": "52 Broom Lane, Levenshulme, Manchester", "postcode": "M19 2TG", "telephone": 1614324477.0, "website": null, "area_name": "Manchester", "area_code": "E0800003" }, "geometry": { "type": "Point", "coordinates": [ -2.185469, 53.439687 ] } },
{ "type": "Feature", "properties": { "name": "Burton Dental Care", "type": "Dentist", "address": "125 Burton Road, West Didsbury, Manchester", "postcode": "M20 1JP", "telephone": 1614380446.0, "website": null, "area_name": "Manchester", "area_code": "E0800003" }, "geometry": { "type": "Point", "coordinates": [ -2.239063, 53.429426 ] } },
{ "type": "Feature", "properties": { "name": "Saddleworth Dental Clinic", "type": "Dentist", "address": "36 Oldham Road, Uppermill, Oldham", "postcode": "OL3 6HY", "telephone": 1457872108.0, "website": null, "area_name": "Oldham", "area_code": "E0800004" }, "geometry": { "type": "Point", "coordinates": [ -2.009333, 53.544537 ] } },
{ "type": "Feature", "properties": { "name": "Whalley Range Dental Practice", "type": "Dentist", "address": "132 Withington Road, Whalley Range, Manchester", "postcode": "M16 8FB", "telephone": 1612269647.0, "website": null, "area_name": "Manchester", "area_code": "E0800003" }, "geometry": { "type": "Point", "coordinates": [ -2.258096, 53.450914 ] } },
{ "type": "Feature", "properties": { "name": "Park House Dental Practice Bury", "type": "Dentist", "address": "311 Walmersley Road, Bury", "postcode": "BL9 5EZ", "telephone": 1617051746.0, "website": null, "area_name": "Bury", "area_code": "E0800002" }, "geometry": { "type": "Point", "coordinates": [ -2.292723, 53.609677 ] } },
{ "type": "Feature", "properties": { "name": "S Patel & Associates", "type": "Dentist", "address": "112 Walmersley Road, Bury", "postcode": "BL9 6DX", "telephone": 1617648822.0, "website": null, "area_name": "Bury", "area_code": "E0800002" }, "geometry": { "type": "Point", "coordinates": [ -2.289512, 53.599735 ] } },
{ "type": "Feature", "properties": { "name": "Absolute Dental - Prestwich", "type": "Dentist", "address": "111 Bury Old Road, Prestwich, Manchester", "postcode": "M25 0EQ", "telephone": 1617739922.0, "website": null, "area_name": "Bury", "area_code": "E0800002" }, "geometry": { "type": "Point", "coordinates": [ -2.26406, 53.523788 ] } },
{ "type": "Feature", "properties": { "name": "DHS Dental Practice - Phoenix Centre", "type": "Dentist", "address": "The Phoenix Centre, 1 Church Street, Heywood", "postcode": "OL10 1LR", "telephone": 1706764334.0, "website": null, "area_name": "Rochdale", "area_code": "E0800005" }, "geometry": { "type": "Point", "coordinates": [ -2.218662, 53.592207 ] } },
{ "type": "Feature", "properties": { "name": "Greenwood Dental Practice", "type": "Dentist", "address": "16 Greenwood Street, Altrincham", "postcode": "WA14 1RZ", "telephone": 1612330610.0, "website": "http:\/\/www.greenwooddental.co.uk", "area_name": "Trafford", "area_code": "E0800009" }, "geometry": { "type": "Point", "coordinates": [ -2.352158, 53.38672 ] } },
{ "type": "Feature", "properties": { "name": "Vallance, Segal & Shupac - Failsworth", "type": "Dentist", "address": "149 Lord Lane, Failsworth, Manchester", "postcode": "M35 0QH", "telephone": 1616815400.0, "website": null, "area_name": "Oldham", "area_code": "E0800004" }, "geometry": { "type": "Point", "coordinates": [ -2.156717, 53.501309 ] } },
{ "type": "Feature", "properties": { "name": "Vallance, Segal & Shupac - Whitefield", "type": "Dentist", "address": "55 Bury Old Road, Whitefield, Manchester", "postcode": "M45 6TB", "telephone": 1617732361.0, "website": null, "area_name": "Bury", "area_code": "E0800002" }, "geometry": { "type": "Point", "coordinates": [ -2.283141, 53.539645 ] } },
{ "type": "Feature", "properties": { "name": "The Dental Treatment Centre", "type": "Dentist", "address": "436 Flixton Road, Flixton, Manchester", "postcode": "M41 6QT", "telephone": 1617482490.0, "website": "http:\/\/www.clickdentist.co.uk", "area_name": "Trafford", "area_code": "E0800009" }, "geometry": { "type": "Point", "coordinates": [ -2.384388, 53.44448 ] } },
{ "type": "Feature", "properties": { "name": "Standish Dental Practice", "type": "Dentist", "address": "Rodenhurst, 59 Church Street, Standish, Wigan", "postcode": "WN6 0JJ", "telephone": 1257422114.0, "website": null, "area_name": "Wigan", "area_code": "E08000010" }, "geometry": { "type": "Point", "coordinates": [ -2.662777, 53.587166 ] } },
{ "type": "Feature", "properties": { "name": "Ocean Dental", "type": "Dentist", "address": "169 Mauldeth Road, Manchester", "postcode": "M14 6SG", "telephone": 1612247135.0, "website": null, "area_name": "Manchester", "area_code": "E0800003" }, "geometry": { "type": "Point", "coordinates": [ -2.209976, 53.433508 ] } },
{ "type": "Feature", "properties": { "name": "Regent Dental Centre", "type": "Dentist", "address": "22 Regent Road, Altrincham", "postcode": "WA14 1RP", "telephone": 1619412143.0, "website": "http:\/\/www.regentdentalcentre.co.uk", "area_name": "Trafford", "area_code": "E0800009" }, "geometry": { "type": "Point", "coordinates": [ -2.352258, 53.386045 ] } },
{ "type": "Feature", "properties": { "name": "H Showman & Associates Dental Practice", "type": "Dentist", "address": "353 Oldham Road, Failsworth, Manchester", "postcode": "M35 0AN", "telephone": 1616824751.0, "website": null, "area_name": "Oldham", "area_code": "E0800004" }, "geometry": { "type": "Point", "coordinates": [ -2.161181, 53.509662 ] } },
{ "type": "Feature", "properties": { "name": "Heaton Mersey Orthodontic Centre", "type": "Dentist", "address": "458 Didsbury Road, Heaton Mersey, Stockport", "postcode": "SK4 3BS", "telephone": 1619479900.0, "website": "http:\/\/www.hmorthoc.co.uk", "area_name": "Stockport", "area_code": "E0800007" }, "geometry": { "type": "Point", "coordinates": [ -2.205509, 53.412338 ] } },
{ "type": "Feature", "properties": { "name": "S D Walmsley Dental Practice", "type": "Dentist", "address": "253 Manchester Road, Droylsden, Manchester", "postcode": "M43 6HE", "telephone": 1613702869.0, "website": null, "area_name": "Tameside", "area_code": "E0800008" }, "geometry": { "type": "Point", "coordinates": [ -2.157046, 53.480015 ] } },
{ "type": "Feature", "properties": { "name": "MIDHS at Beacon Business Centre", "type": "Dentist", "address": "14 Arundel Street, Mossley, Ashton Under Lyne", "postcode": "OL5 0LS", "telephone": 1457838995.0, "website": "http:\/\/www.midhs.co.uk", "area_name": "Tameside", "area_code": "E0800008" }, "geometry": { "type": "Point", "coordinates": [ -2.047107, 53.518372 ] } },
{ "type": "Feature", "properties": { "name": "Bupa - St Anns Square, Manchester", "type": "Dentist", "address": "14 St Ann's Square, Manchester", "postcode": "M2 7HQ", "telephone": 1618342627.0, "website": null, "area_name": "Manchester", "area_code": "E0800003" }, "geometry": { "type": "Point", "coordinates": [ -2.245837, 53.482236 ] } },
{ "type": "Feature", "properties": { "name": "Bupa - Buxton Road, Stockport", "type": "Dentist", "address": "73 Buxton Road, High Lane, Stockport", "postcode": "SK6 8DR", "telephone": 1663764924.0, "website": null, "area_name": "Stockport", "area_code": "E0800007" }, "geometry": { "type": "Point", "coordinates": [ -2.075293, 53.364978 ] } },
{ "type": "Feature", "properties": { "name": "Bupa - Stockport Road, Timperley", "type": "Dentist", "address": "415 Stockport Road, Timperley, Altrincham", "postcode": "WA15 7XR", "telephone": 1619808010.0, "website": null, "area_name": "Trafford", "area_code": "E0800009" }, "geometry": { "type": "Point", "coordinates": [ -2.315515, 53.398597 ] } },
{ "type": "Feature", "properties": { "name": "Malt House Specialist Dental Centre", "type": "Dentist", "address": "Deva Centre, Trinity Way, Salford", "postcode": "M3 7BD", "telephone": 1618329400.0, "website": null, "area_name": "Salford", "area_code": "E0800006" }, "geometry": { "type": "Point", "coordinates": [ -2.254112, 53.484728 ] } },
{ "type": "Feature", "properties": { "name": "The Bridge Dental Care", "type": "Dentist", "address": "58 Town Street, Marple Bridge, Stockport", "postcode": "SK6 5AA", "telephone": 1614497080.0, "website": null, "area_name": "Stockport", "area_code": "E0800007" }, "geometry": { "type": "Point", "coordinates": [ -2.053323, 53.400594 ] } },
{ "type": "Feature", "properties": { "name": "Glen Maye Dental Practice", "type": "Dentist", "address": "Sale Road, Northenden, Manchester", "postcode": "M23 0DF", "telephone": 1619985588.0, "website": "http:\/\/www.glenmayedental.co.uk", "area_name": "Manchester", "area_code": "E0800003" }, "geometry": { "type": "Point", "coordinates": [ -2.271165, 53.408153 ] } },
{ "type": "Feature", "properties": { "name": "Elli and Associates", "type": "Dentist", "address": "Ashton Road Limited Company, 234 Ashton Road, Hathershaw, Oldham", "postcode": "OL8 1QN", "telephone": 1616285676.0, "website": null, "area_name": "Oldham", "area_code": "E0800004" }, "geometry": { "type": "Point", "coordinates": [ -2.112559, 53.529133 ] } },
{ "type": "Feature", "properties": { "name": "High Lane Partnership", "type": "Dentist", "address": "73 Buxton Road, High Lane, Stockport", "postcode": "SK6 8DR", "telephone": 1454771570.0, "website": null, "area_name": "Stockport", "area_code": "E0800007" }, "geometry": { "type": "Point", "coordinates": [ -2.075293, 53.364978 ] } },
{ "type": "Feature", "properties": { "name": "Mydentist - King Street - Dukinfield", "type": "Dentist", "address": "140 King Street, Dukinfield", "postcode": "SK16 4LG", "telephone": 1613301036.0, "website": "http:\/\/www.mydentist.co.uk", "area_name": "Tameside", "area_code": "E0800008" }, "geometry": { "type": "Point", "coordinates": [ -2.092728, 53.476936 ] } },
{ "type": "Feature", "properties": { "name": "GreenLane Dental Practice", "type": "Dentist", "address": "96-98 Manchester Road, Leigh", "postcode": "WN7 2LD", "telephone": 1942260597.0, "website": null, "area_name": "Wigan", "area_code": "E08000010" }, "geometry": { "type": "Point", "coordinates": [ -2.495535, 53.494217 ] } },
{ "type": "Feature", "properties": { "name": "Church Street Dental Practice", "type": "Dentist", "address": "52 Church Street, Orrell, Wigan", "postcode": "WN5 8TQ", "telephone": 1695625565.0, "website": null, "area_name": "Wigan", "area_code": "E08000010" }, "geometry": { "type": "Point", "coordinates": [ -2.709831, 53.531086 ] } },
{ "type": "Feature", "properties": { "name": "Malmin Dental Manchester", "type": "Dentist", "address": "44-46 John Dalton Street, Manchester", "postcode": "M2 6LE", "telephone": 1612144800.0, "website": "http:\/\/www.malmin.co.uk", "area_name": "Manchester", "area_code": "E0800003" }, "geometry": { "type": "Point", "coordinates": [ -2.24587, 53.480186 ] } },
{ "type": "Feature", "properties": { "name": "North Road Dental Practice", "type": "Dentist", "address": "6 North Road, Clayton, Manchester", "postcode": "M11 4WE", "telephone": 1612232145.0, "website": null, "area_name": "Manchester", "area_code": "E0800003" }, "geometry": { "type": "Point", "coordinates": [ -2.178975, 53.484855 ] } },
{ "type": "Feature", "properties": { "name": "Northenden House Orthodontics", "type": "Dentist", "address": "Sale Road, Northenden, Manchester", "postcode": "M23 0DF", "telephone": 1619982622.0, "website": "http:\/\/www.manchesterorthodontics.co.uk", "area_name": "Manchester", "area_code": "E0800003" }, "geometry": { "type": "Point", "coordinates": [ -2.271165, 53.408153 ] } },
{ "type": "Feature", "properties": { "name": "61 Dental", "type": "Dentist", "address": "61 Church Road, Gatley, Cheadle", "postcode": "SK8 4NG", "telephone": 1614282447.0, "website": "http:\/\/www.61dental.co.uk", "area_name": "Stockport", "area_code": "E0800007" }, "geometry": { "type": "Point", "coordinates": [ -2.235845, 53.39186 ] } },
{ "type": "Feature", "properties": { "name": "BramcoteDental Practice", "type": "Dentist", "address": "3 Syddal Road, Bramhall, Stockport", "postcode": "SK7 1AB", "telephone": 1614394297.0, "website": "http:\/\/www.smiledoc.co.uk", "area_name": "Stockport", "area_code": "E0800007" }, "geometry": { "type": "Point", "coordinates": [ -2.168202, 53.35585 ] } },
{ "type": "Feature", "properties": { "name": "Mr Gehad Philobbos", "type": "Dentist", "address": "756 Hollins Road, Oldham", "postcode": "OL8 4SA", "telephone": 1616823587.0, "website": null, "area_name": "Oldham", "area_code": "E0800004" }, "geometry": { "type": "Point", "coordinates": [ -2.136126, 53.520605 ] } },
{ "type": "Feature", "properties": { "name": "128 Dental Care", "type": "Dentist", "address": "128 Mile End Lane, Stockport", "postcode": "SK2 6BY", "telephone": 1614832823.0, "website": null, "area_name": "Stockport", "area_code": "E0800007" }, "geometry": { "type": "Point", "coordinates": [ -2.136339, 53.394962 ] } },
{ "type": "Feature", "properties": { "name": "Ortho 2008 - Wigan", "type": "Dentist", "address": "2-6 King Street, Wigan", "postcode": "WN1 1BS", "telephone": 1942821166.0, "website": "http:\/\/www.ortho2008.co.uk", "area_name": "Wigan", "area_code": "E08000010" }, "geometry": { "type": "Point", "coordinates": [ -2.631644, 53.544735 ] } },
{ "type": "Feature", "properties": { "name": "Mydentist - Gorton Road - Stockport", "type": "Dentist", "address": "268 Gorton Road, Reddish, Stockport", "postcode": "SK5 6RN", "telephone": 1614329600.0, "website": "http:\/\/www.mydentist.co.uk", "area_name": "Stockport", "area_code": "E0800007" }, "geometry": { "type": "Point", "coordinates": [ -2.157026, 53.446056 ] } },
{ "type": "Feature", "properties": { "name": "Derby Street Dentist", "type": "Dentist", "address": "288 Derby Street, Bolton", "postcode": "BL3 6LF", "telephone": 1204366954.0, "website": null, "area_name": "Bolton", "area_code": "E0800001" }, "geometry": { "type": "Point", "coordinates": [ -2.442806, 53.567653 ] } },
{ "type": "Feature", "properties": { "name": "G & L Askins - Lowton", "type": "Dentist", "address": "71a Church Lane, Lowton, Warrington", "postcode": "WA3 2QZ", "telephone": 1942726494.0, "website": null, "area_name": "Wigan", "area_code": "E08000010" }, "geometry": { "type": "Point", "coordinates": [ -2.575409, 53.470858 ] } },
{ "type": "Feature", "properties": { "name": "Bupa - Drake Street, Rochdale", "type": "Dentist", "address": "121 Drake Street, Rochdale", "postcode": "OL16 1PZ", "telephone": 1706643203.0, "website": "http:\/\/www.rochdaledental.co.uk", "area_name": "Rochdale", "area_code": "E0800005" }, "geometry": { "type": "Point", "coordinates": [ -2.155723, 53.612379 ] } },
{ "type": "Feature", "properties": { "name": "Bupa - Rochdale Road, Oldham", "type": "Dentist", "address": "118 Rochdale Road, Royton, Oldham", "postcode": "OL2 6QF", "telephone": 1616242730.0, "website": "http:\/\/www.roytondental.co.uk", "area_name": "Oldham", "area_code": "E0800004" }, "geometry": { "type": "Point", "coordinates": [ -2.123759, 53.568066 ] } },
{ "type": "Feature", "properties": { "name": "Bupa - Washway Road, Sale", "type": "Dentist", "address": "23 Washway Road, Sale", "postcode": "M33 7AD", "telephone": 1619695513.0, "website": "http:\/\/www.haddonlodgedental.co.uk", "area_name": "Trafford", "area_code": "E0800009" }, "geometry": { "type": "Point", "coordinates": [ -2.325507, 53.424941 ] } },
{ "type": "Feature", "properties": { "name": "Oasis Dental Care - Stockport", "type": "Dentist", "address": "99 Edgeley Road, Edgeley, Stockport", "postcode": "SK3 9NG", "telephone": 1614808828.0, "website": "http:\/\/www.stockportorthodontist.co.uk", "area_name": "Stockport", "area_code": "E0800007" }, "geometry": { "type": "Point", "coordinates": [ -2.176511, 53.399693 ] } },
{ "type": "Feature", "properties": { "name": "Bupa - Bramhall Lane South, Bramhall", "type": "Dentist", "address": "233 Bramhall Lane South, Bramhall, Stockport", "postcode": "SK7 3EP", "telephone": 1614392360.0, "website": "http:\/\/www.bramhallparkdental.co.uk", "area_name": "Stockport", "area_code": "E0800007" }, "geometry": { "type": "Point", "coordinates": [ -2.162344, 53.376037 ] } },
{ "type": "Feature", "properties": { "name": "Bupa - Liverpool Road, Irlam", "type": "Dentist", "address": "125 Liverpool Road, Irlam, Manchester", "postcode": "M44 6DP", "telephone": 1617752184.0, "website": "http:\/\/www.irlamdental.co.uk", "area_name": "Salford", "area_code": "E0800006" }, "geometry": { "type": "Point", "coordinates": [ -2.417074, 53.449107 ] } },
{ "type": "Feature", "properties": { "name": "Bupa - Wilmslow Road, Withington", "type": "Dentist", "address": "429 Wilmslow Road, Withington, Manchester", "postcode": "M20 4AF", "telephone": 1614453104.0, "website": "http:\/\/www.glynhousedental.co.uk", "area_name": "Manchester", "area_code": "E0800003" }, "geometry": { "type": "Point", "coordinates": [ -2.226511, 53.435104 ] } },
{ "type": "Feature", "properties": { "name": "Silverwell Dental Surgery", "type": "Dentist", "address": "18 Silverwell Street, Bolton", "postcode": "BL1 1PP", "telephone": 1204533341.0, "website": "http:\/\/www.silverwell.co.uk", "area_name": "Bolton", "area_code": "E0800001" }, "geometry": { "type": "Point", "coordinates": [ -2.425228, 53.578079 ] } },
{ "type": "Feature", "properties": { "name": "Kingsway Dental Care", "type": "Dentist", "address": "7 Lane End Road, Burnage, Manchester", "postcode": "M19 1WA", "telephone": 1614328741.0, "website": null, "area_name": "Manchester", "area_code": "E0800003" }, "geometry": { "type": "Point", "coordinates": [ -2.212276, 53.420911 ] } },
{ "type": "Feature", "properties": { "name": "Heaton Mersey Orthodontic Centre Limited", "type": "Dentist", "address": "458 Didsbury Road, Heaton Mersey, Stockport", "postcode": "SK4 3BS", "telephone": 1619479900.0, "website": "http:\/\/www.hmorthoc.co.uk", "area_name": "Stockport", "area_code": "E0800007" }, "geometry": { "type": "Point", "coordinates": [ -2.205509, 53.412338 ] } },
{ "type": "Feature", "properties": { "name": "Lees Dental Centre", "type": "Dentist", "address": "74 High Street, Lees, Oldham", "postcode": "OL4 5AA", "telephone": 1616338227.0, "website": null, "area_name": "Oldham", "area_code": "E0800004" }, "geometry": { "type": "Point", "coordinates": [ -2.072191, 53.537856 ] } },
{ "type": "Feature", "properties": { "name": "The Ivy Dental Practice", "type": "Dentist", "address": "161 Wellington Road South, Stockport", "postcode": "SK1 3UA", "telephone": 1614802913.0, "website": "http:\/\/www.theivydentalpractice.co.uk", "area_name": "Stockport", "area_code": "E0800007" }, "geometry": { "type": "Point", "coordinates": [ -2.156308, 53.40231 ] } },
{ "type": "Feature", "properties": { "name": "Dental Surgery", "type": "Dentist", "address": "295 Broadstone Road, Heaton Chapel, Stockport", "postcode": "SK4 5HQ", "telephone": 1614314524.0, "website": null, "area_name": "Stockport", "area_code": "E0800007" }, "geometry": { "type": "Point", "coordinates": [ -2.173609, 53.429368 ] } },
{ "type": "Feature", "properties": { "name": "Mydentist - Marple Road - Offerton", "type": "Dentist", "address": "1 Marple Road, Offerton, Stockport", "postcode": "SK2 5EH", "telephone": 1614833898.0, "website": "http:\/\/www.mydentist.co.uk", "area_name": "Stockport", "area_code": "E0800007" }, "geometry": { "type": "Point", "coordinates": [ -2.12902, 53.400967 ] } },
{ "type": "Feature", "properties": { "name": "Pemberton Dental Practice", "type": "Dentist", "address": "655 Ormskirk Road, Pemberton, Wigan", "postcode": "WN5 8AG", "telephone": 1942223815.0, "website": null, "area_name": "Wigan", "area_code": "E08000010" }, "geometry": { "type": "Point", "coordinates": [ -2.677634, 53.535677 ] } },
{ "type": "Feature", "properties": { "name": "Firswood Dental Practice", "type": "Dentist", "address": "90-92 Warwick Road South, Firswood, Manchester", "postcode": "M16 0HU", "telephone": null, "website": null, "area_name": "Trafford", "area_code": "E0800009" }, "geometry": { "type": "Point", "coordinates": [ -2.281641, 53.452335 ] } },
{ "type": "Feature", "properties": { "name": "The Railway Road Dental Surgery", "type": "Dentist", "address": "26 Railway Road, Leigh", "postcode": "WN7 4AU", "telephone": 1942673201.0, "website": null, "area_name": "Wigan", "area_code": "E08000010" }, "geometry": { "type": "Point", "coordinates": [ -2.522088, 53.497331 ] } },
{ "type": "Feature", "properties": { "name": "Freedom Dental", "type": "Dentist", "address": "105 Station Road, Cheadle Hulme", "postcode": "SK8 7BG", "telephone": 1614866821.0, "website": null, "area_name": "Stockport", "area_code": "E0800007" }, "geometry": { "type": "Point", "coordinates": [ -2.183013, 53.372807 ] } },
{ "type": "Feature", "properties": { "name": "Mayfield Dental Care", "type": "Dentist", "address": "3 Mayfield Street, Atherton", "postcode": "M46 0BF", "telephone": 1942877130.0, "website": null, "area_name": "Wigan", "area_code": "E08000010" }, "geometry": { "type": "Point", "coordinates": [ -2.49295, 53.523414 ] } },
{ "type": "Feature", "properties": { "name": "Sale Moor Dental Practice", "type": "Dentist", "address": "15 Marsland Road, Sale", "postcode": "M33 3HP", "telephone": 1619629990.0, "website": null, "area_name": "Trafford", "area_code": "E0800009" }, "geometry": { "type": "Point", "coordinates": [ -2.304805, 53.41929 ] } },
{ "type": "Feature", "properties": { "name": "Didsbury Family Dental Care", "type": "Dentist", "address": "121 School Lane, Didsbury, Manchester", "postcode": "M20 6HS", "telephone": 1614451010.0, "website": null, "area_name": "Manchester", "area_code": "E0800003" }, "geometry": { "type": "Point", "coordinates": [ -2.221882, 53.416255 ] } },
{ "type": "Feature", "properties": { "name": "Green Lane Dental Practice", "type": "Dentist", "address": "46 Green Lane, Ashton-on-Mersey, Sale", "postcode": "M33 5PP", "telephone": 1619733802.0, "website": null, "area_name": "Trafford", "area_code": "E0800009" }, "geometry": { "type": "Point", "coordinates": [ -2.341857, 53.429643 ] } },
{ "type": "Feature", "properties": { "name": "Ascroft Medical", "type": "Doctors\/GPs|Dentist|Doctors\/GPs", "address": "3 Ascroft Court, Peter Street, Oldham", "postcode": "OL1 1HP", "telephone": null, "website": "http:\/\/www.ascroftmedical.co.uk", "area_name": "Oldham", "area_code": "E0800004" }, "geometry": { "type": "Point", "coordinates": [ -2.11304, 53.540644 ] } },
{ "type": "Feature", "properties": { "name": "Bredbury Dental Practice Limited", "type": "Dentist", "address": "219 George Lane, Bredbury, Stockport", "postcode": "SK6 1DJ", "telephone": 1614305999.0, "website": null, "area_name": "Stockport", "area_code": "E0800007" }, "geometry": { "type": "Point", "coordinates": [ -2.101442, 53.416722 ] } },
{ "type": "Feature", "properties": { "name": "Castle Street Dental Practice", "type": "Dentist", "address": "136 Castle Street, Edgeley, Stockport", "postcode": "SK3 9JH", "telephone": 1614805068.0, "website": "http:\/\/www.castle-dentist.com", "area_name": "Stockport", "area_code": "E0800007" }, "geometry": { "type": "Point", "coordinates": [ -2.170802, 53.401238 ] } },
{ "type": "Feature", "properties": { "name": "Whitefield Dental Practice", "type": "Dentist", "address": "118 Radcliffe New Road, Whitefield, Manchester", "postcode": "M45 7WQ", "telephone": 1617666164.0, "website": "http:\/\/www.whitefielddentalpractice.co.uk", "area_name": "Bury", "area_code": "E0800002" }, "geometry": { "type": "Point", "coordinates": [ -2.309206, 53.555263 ] } },
{ "type": "Feature", "properties": { "name": "Mydentist - Bedford Street - Leigh", "type": "Dentist", "address": "3-5 Bedford Street, Leigh", "postcode": "WN7 1BX", "telephone": 1942673691.0, "website": "http:\/\/www.mydentist.co.uk", "area_name": "Wigan", "area_code": "E08000010" }, "geometry": { "type": "Point", "coordinates": [ -2.513273, 53.496495 ] } },
{ "type": "Feature", "properties": { "name": "Mydentist - Beal Lane - Oldham", "type": "Dentist", "address": "12 Beal Lane, Shaw, Oldham", "postcode": "OL2 8PB", "telephone": null, "website": "http:\/\/www.mydentist.co.uk", "area_name": "Oldham", "area_code": "E0800004" }, "geometry": { "type": "Point", "coordinates": [ -2.092314, 53.577345 ] } },
{ "type": "Feature", "properties": { "name": "Mydentist - Victoria Street - Denton", "type": "Dentist", "address": "2 Victoria Street, Denton, Manchester", "postcode": "M34 3JQ", "telephone": null, "website": "http:\/\/www.mydentist.co.uk", "area_name": "Tameside", "area_code": "E0800008" }, "geometry": { "type": "Point", "coordinates": [ -2.114112, 53.455759 ] } },
{ "type": "Feature", "properties": { "name": "Aligned Orthodontics", "type": "Dentist", "address": "56 Chorley Road, Swinton, Manchester", "postcode": "M27 5AD", "telephone": 1617939802.0, "website": null, "area_name": "Salford", "area_code": "E0800006" }, "geometry": { "type": "Point", "coordinates": [ -2.335368, 53.509685 ] } },
{ "type": "Feature", "properties": { "name": "Mydentist - Reddish Road - Stockport", "type": "Dentist", "address": "345 Reddish Road, Stockport", "postcode": "SK5 7EN", "telephone": null, "website": "http:\/\/www.mydentist.co.uk", "area_name": "Stockport", "area_code": "E0800007" }, "geometry": { "type": "Point", "coordinates": [ -2.15663, 53.43279 ] } },
{ "type": "Feature", "properties": { "name": "Mydentist - Bolton Road - Salford", "type": "Dentist", "address": "371 Bolton Road, Irlam O'th' Heights, Salford", "postcode": "M6 7NJ", "telephone": 1617366411.0, "website": "http:\/\/www.mydentist.co.uk", "area_name": "Salford", "area_code": "E0800006" }, "geometry": { "type": "Point", "coordinates": [ -2.308735, 53.500671 ] } },
{ "type": "Feature", "properties": { "name": "Mydentist - King Street - Leigh", "type": "Dentist", "address": "14 King Street, Leigh", "postcode": "WN7 4LR", "telephone": null, "website": "http:\/\/www.mydentist.co.uk", "area_name": "Wigan", "area_code": "E08000010" }, "geometry": { "type": "Point", "coordinates": [ -2.519316, 53.496388 ] } },
{ "type": "Feature", "properties": { "name": "Cahill Dental Care Centre", "type": "Dentist", "address": "38 Higher Bridge Street, Bolton", "postcode": "BL1 2HA", "telephone": 1204895774.0, "website": null, "area_name": "Bolton", "area_code": "E0800001" }, "geometry": { "type": "Point", "coordinates": [ -2.428633, 53.583066 ] } },
{ "type": "Feature", "properties": { "name": "Arundel Dental Practice", "type": "Dentist", "address": "33 Bramhall Lane South, Bramhall, Stockport", "postcode": "SK7 2DN", "telephone": 1614392048.0, "website": "http:\/\/www.arundeldentalpractice.co.uk", "area_name": "Stockport", "area_code": "E0800007" }, "geometry": { "type": "Point", "coordinates": [ -2.165195, 53.35927 ] } },
{ "type": "Feature", "properties": { "name": "Apollonia House Dental & Health Care", "type": "Dentist", "address": "167 Mossley Road, Grasscroft, Oldham", "postcode": "OL4 4HA", "telephone": 1457821800.0, "website": "http:\/\/www.apolloniahouse.com", "area_name": "Oldham", "area_code": "E0800004" }, "geometry": { "type": "Point", "coordinates": [ -2.033274, 53.533873 ] } },
{ "type": "Feature", "properties": { "name": "Claremont Dental Surgery - Wigan", "type": "Dentist", "address": "Mesnes Street, Wigan", "postcode": "WN1 1SS", "telephone": 1942242334.0, "website": null, "area_name": "Wigan", "area_code": "E08000010" }, "geometry": { "type": "Point", "coordinates": [ -2.633033, 53.550798 ] } },
{ "type": "Feature", "properties": { "name": "Mydentist - Ripponden Road - Oldham", "type": "Dentist", "address": "177-187 Littlemoor Lane, Watersheddings, Oldham", "postcode": "OL4 2SF", "telephone": null, "website": "http:\/\/www.mydentist.co.uk", "area_name": "Oldham", "area_code": "E0800004" }, "geometry": { "type": "Point", "coordinates": [ -2.085195, 53.552093 ] } },
{ "type": "Feature", "properties": { "name": "Mydentist - Lees Road - Oldham", "type": "Dentist", "address": "341 Lees Road, Oldham", "postcode": "OL4 1LR", "telephone": null, "website": "http:\/\/www.mydentist.co.uk", "area_name": "Oldham", "area_code": "E0800004" }, "geometry": { "type": "Point", "coordinates": [ -2.088612, 53.540163 ] } },
{ "type": "Feature", "properties": { "name": "Butterfly Dental Care Limited - Altrincham", "type": "Dentist", "address": "17 Barrington Road, Altrincham", "postcode": "WA14 1HP", "telephone": 1619412048.0, "website": null, "area_name": "Trafford", "area_code": "E0800009" }, "geometry": { "type": "Point", "coordinates": [ -2.348577, 53.391872 ] } },
{ "type": "Feature", "properties": { "name": "Dentist On The Rock", "type": "Dentist", "address": "26 The Rock, Bury", "postcode": "BL9 0NT", "telephone": 1612224840.0, "website": "http:\/\/www.dentistontherock.com", "area_name": "Bury", "area_code": "E0800002" }, "geometry": { "type": "Point", "coordinates": [ -2.296616, 53.593596 ] } },
{ "type": "Feature", "properties": { "name": "ICE Hospital and Postgraduate Training Centre", "type": "Dentist", "address": "24 Furness Quay, Salford Quays, Manchester", "postcode": "M50 3XZ", "telephone": 8000141882.0, "website": "http:\/\/www.icedentalimplants.com", "area_name": "Salford", "area_code": "E0800006" }, "geometry": { "type": "Point", "coordinates": [ -2.282982, 53.472968 ] } },
{ "type": "Feature", "properties": { "name": "Charisma Clinic Ltd", "type": "Dentist", "address": "6 Chepstow Drive, Hazel Grove, Stockport", "postcode": "SK7 4RY", "telephone": 1614835433.0, "website": null, "area_name": "Stockport", "area_code": "E0800007" }, "geometry": { "type": "Point", "coordinates": [ -2.103709, 53.377064 ] } },
{ "type": "Feature", "properties": { "name": "Droylsden Road Dental Practice", "type": "Dentist", "address": "117 Droylsden Road, Newton Heath, Manchester", "postcode": "M40 1NT", "telephone": 1616826991.0, "website": null, "area_name": "Manchester", "area_code": "E0800003" }, "geometry": { "type": "Point", "coordinates": [ -2.175662, 53.499916 ] } },
{ "type": "Feature", "properties": { "name": "Dukinfield Dental Care", "type": "Dentist", "address": "137 King Street, Dukinfield", "postcode": "SK16 4JZ", "telephone": 1613083763.0, "website": null, "area_name": "Tameside", "area_code": "E0800008" }, "geometry": { "type": "Point", "coordinates": [ -2.093455, 53.478589 ] } },
{ "type": "Feature", "properties": { "name": "Simply Smiles Manchester Limited", "type": "Dentist", "address": "35 Holden Road, Higher Broughton, Salford", "postcode": "M7 4LR", "telephone": 1617926502.0, "website": null, "area_name": "Salford", "area_code": "E0800006" }, "geometry": { "type": "Point", "coordinates": [ -2.265447, 53.516433 ] } },
{ "type": "Feature", "properties": { "name": "Bryn Street Dental Clinic Limited", "type": "Dentist", "address": "23 Bryn Street, Ashton-in-Makerfield, Wigan", "postcode": "WN4 9AX", "telephone": 1942727465.0, "website": "http:\/\/www.brynstreetdental.co.uk", "area_name": "Wigan", "area_code": "E08000010" }, "geometry": { "type": "Point", "coordinates": [ -2.63928, 53.487584 ] } },
{ "type": "Feature", "properties": { "name": "Mossley Dental Care", "type": "Dentist", "address": "16 Lancaster Street, Mossley, Ashton Under Lyne", "postcode": "OL5 0PD", "telephone": 1457837361.0, "website": "http:\/\/www.mossleydental.co.uk", "area_name": "Tameside", "area_code": "E0800008" }, "geometry": { "type": "Point", "coordinates": [ -2.046926, 53.518265 ] } },
{ "type": "Feature", "properties": { "name": "Mydentist - Cross Street - Wigan", "type": "Dentist", "address": "2 Cross Street, Hindley, Wigan", "postcode": "WN2 3AT", "telephone": 1942200600.0, "website": "http:\/\/www.mydentist.co.uk", "area_name": "Wigan", "area_code": "E08000010" }, "geometry": { "type": "Point", "coordinates": [ -2.579601, 53.53524 ] } },
{ "type": "Feature", "properties": { "name": "Dental Surgery", "type": "Dentist", "address": "96 Union Street, Oldham", "postcode": "OL1 1DU", "telephone": 1616204343.0, "website": null, "area_name": "Oldham", "area_code": "E0800004" }, "geometry": { "type": "Point", "coordinates": [ -2.10737, 53.540975 ] } },
{ "type": "Feature", "properties": { "name": "Ellesmere Dental Practice", "type": "Dentist", "address": "70 Ellesmere Road, Altrincham", "postcode": "WA14 1JD", "telephone": 1619291009.0, "website": null, "area_name": "Trafford", "area_code": "E0800009" }, "geometry": { "type": "Point", "coordinates": [ -2.349202, 53.394746 ] } },
{ "type": "Feature", "properties": { "name": "Endo 61 Limited - Gatley", "type": "Dentist", "address": "61 Church Road, Gatley, Cheadle", "postcode": "SK8 4NG", "telephone": 1614957293.0, "website": "http:\/\/www.endo61.com", "area_name": "Stockport", "area_code": "E0800007" }, "geometry": { "type": "Point", "coordinates": [ -2.235845, 53.39186 ] } },
{ "type": "Feature", "properties": { "name": "Rokni Euro - Dental Practice", "type": "Dentist", "address": "2A Copson Street, Withington, Manchester", "postcode": "M20 3HE", "telephone": 1614349129.0, "website": null, "area_name": "Manchester", "area_code": "E0800003" }, "geometry": { "type": "Point", "coordinates": [ -2.229695, 53.433705 ] } },
{ "type": "Feature", "properties": { "name": "Dental Surgery", "type": "Dentist", "address": "555 Barlow Moor Road, Chorlton-cum-Hardy, Manchester", "postcode": "M21 8AN", "telephone": 1618811257.0, "website": null, "area_name": "Manchester", "area_code": "E0800003" }, "geometry": { "type": "Point", "coordinates": [ -2.2761, 53.440824 ] } },
{ "type": "Feature", "properties": { "name": "Market Street Dental Practice", "type": "Dentist", "address": "28 Market Street, Wigan", "postcode": "WN1 1HX", "telephone": 1942243720.0, "website": null, "area_name": "Wigan", "area_code": "E08000010" }, "geometry": { "type": "Point", "coordinates": [ -2.633606, 53.547748 ] } },
{ "type": "Feature", "properties": { "name": "Platt Bridge Dental Practice", "type": "Dentist", "address": "152 Walthew Lane, Platt Bridge, Wigan", "postcode": "WN2 5AW", "telephone": 1942865115.0, "website": null, "area_name": "Wigan", "area_code": "E08000010" }, "geometry": { "type": "Point", "coordinates": [ -2.600357, 53.522087 ] } },
{ "type": "Feature", "properties": { "name": "P V McCrory- The Dental Practice", "type": "Dentist", "address": "58 Ainsworth Road, Radcliffe, Manchester", "postcode": "M26 4FA", "telephone": 1617259542.0, "website": null, "area_name": "Bury", "area_code": "E0800002" }, "geometry": { "type": "Point", "coordinates": [ -2.334228, 53.565786 ] } },
{ "type": "Feature", "properties": { "name": "Dr David Ian Llewellyn - Parrswood Road", "type": "Dentist", "address": "162 Parrswood Road, Withington, Manchester", "postcode": "M20 4RQ", "telephone": 1614459033.0, "website": null, "area_name": "Manchester", "area_code": "E0800003" }, "geometry": { "type": "Point", "coordinates": [ -2.216574, 53.428597 ] } },
{ "type": "Feature", "properties": { "name": "The Dental Surgery", "type": "Dentist", "address": "28 Delaunays Road, Crumpsall, Manchester", "postcode": "M8 4QS", "telephone": 1617402956.0, "website": null, "area_name": "Manchester", "area_code": "E0800003" }, "geometry": { "type": "Point", "coordinates": [ -2.235291, 53.517512 ] } },
{ "type": "Feature", "properties": { "name": "Stalybridge Dental Care", "type": "Dentist", "address": "42 Acres Lane, Stalybridge", "postcode": "SK15 2JU", "telephone": 1613382341.0, "website": "http:\/\/www.stalybridgedentalcare.co.uk", "area_name": "Tameside", "area_code": "E0800008" }, "geometry": { "type": "Point", "coordinates": [ -2.051828, 53.482372 ] } },
{ "type": "Feature", "properties": { "name": "Peter Watson Dental Practice", "type": "Dentist", "address": "4th Floor St John Chambers, 2 St John Street, Manchester", "postcode": "M3 4DA", "telephone": 1618345691.0, "website": null, "area_name": "Manchester", "area_code": "E0800003" }, "geometry": { "type": "Point", "coordinates": [ -2.250301, 53.477706 ] } },
{ "type": "Feature", "properties": { "name": "Synergy Dental Clinic", "type": "Dentist", "address": "10 Tenterden Street, Bury", "postcode": "BL9 0EG", "telephone": 1617644366.0, "website": "http:\/\/www.synergydental.org.uk", "area_name": "Bury", "area_code": "E0800002" }, "geometry": { "type": "Point", "coordinates": [ -2.300951, 53.591266 ] } },
{ "type": "Feature", "properties": { "name": "Ravat and Ray Dental Care (Rumworth) Ltd", "type": "Dentist", "address": "Rumworth House, 512 Wigan Road, Bolton", "postcode": "BL3 4QW", "telephone": 1204850285.0, "website": "http:\/\/www.ravatandray.com", "area_name": "Bolton", "area_code": "E0800001" }, "geometry": { "type": "Point", "coordinates": [ -2.469641, 53.565232 ] } },
{ "type": "Feature", "properties": { "name": "Ravat & Ray Dental Care (Wigan) Ltd", "type": "Dentist", "address": "Pemberton Health Centre, Sherwood Drive, Wigan", "postcode": "WN5 9QX", "telephone": 1942481929.0, "website": "http:\/\/www.ravatandray.com", "area_name": "Wigan", "area_code": "E08000010" }, "geometry": { "type": "Point", "coordinates": [ -2.669697, 53.538479 ] } },
{ "type": "Feature", "properties": { "name": "Ravat & Ray Dental Care (Chadderton) Ltd", "type": "Dentist", "address": "Fields New Road Primary Care Centre, Fields New Road, Oldham", "postcode": "OL9 8NH", "telephone": 1616336193.0, "website": "http:\/\/www.ravatandray.com", "area_name": "Oldham", "area_code": "E0800004" }, "geometry": { "type": "Point", "coordinates": [ -2.145068, 53.533205 ] } },
{ "type": "Feature", "properties": { "name": "W B Whittle", "type": "Dentist", "address": "202\/204 Tonge Moor Road, Bolton", "postcode": "BL2 2HN", "telephone": 1204521514.0, "website": "http:\/\/www.cosmeticdentistbolton.co.uk", "area_name": "Bolton", "area_code": "E0800001" }, "geometry": { "type": "Point", "coordinates": [ -2.412144, 53.589766 ] } },
{ "type": "Feature", "properties": { "name": "Bryn Dental Practice t\/a Smiles R US Limited", "type": "Dentist", "address": "8 Downall Green Road, Ashton-in-Makerfield, Wigan", "postcode": "WN4 0DH", "telephone": 1942275001.0, "website": null, "area_name": "Wigan", "area_code": "E08000010" }, "geometry": { "type": "Point", "coordinates": [ -2.649133, 53.501176 ] } },
{ "type": "Feature", "properties": { "name": "Mydentist - Platt Lane - Fallowfield", "type": "Dentist", "address": "306 Platt Lane, Fallowfield, Manchester", "postcode": "M14 7BZ", "telephone": 1612242532.0, "website": "http:\/\/www.mydentist.co.uk", "area_name": "Manchester", "area_code": "E0800003" }, "geometry": { "type": "Point", "coordinates": [ -2.237552, 53.44719 ] } },
{ "type": "Feature", "properties": { "name": "Manchester Dental", "type": "Dentist", "address": "154 Flixton Road, Urmston, Manchester", "postcode": "M41 5BG", "telephone": 1617482674.0, "website": "http:\/\/www.manchesterdental.co.uk", "area_name": "Trafford", "area_code": "E0800009" }, "geometry": { "type": "Point", "coordinates": [ -2.362664, 53.448267 ] } },
{ "type": "Feature", "properties": { "name": "Hyde Dental Practice Limited", "type": "Dentist", "address": "203 Market Street, Hyde", "postcode": "SK14 1HF", "telephone": 1613682167.0, "website": null, "area_name": "Tameside", "area_code": "E0800008" }, "geometry": { "type": "Point", "coordinates": [ -2.07562, 53.44752 ] } },
{ "type": "Feature", "properties": { "name": "Mydentist - Park Road - Westhoughton", "type": "Dentist", "address": "53 Park Road, Westhoughton, Bolton", "postcode": "BL5 3BX", "telephone": 1942812239.0, "website": "http:\/\/www.mydentist.co.uk", "area_name": "Bolton", "area_code": "E0800001" }, "geometry": { "type": "Point", "coordinates": [ -2.518336, 53.548105 ] } },
{ "type": "Feature", "properties": { "name": "Oakmount Dental Practice", "type": "Dentist", "address": "628 Wilmslow Road, Manchester", "postcode": "M20 3QX", "telephone": 1614451211.0, "website": "http:\/\/www.oakdental.co.uk", "area_name": "Manchester", "area_code": "E0800003" }, "geometry": { "type": "Point", "coordinates": [ -2.231705, 53.424272 ] } },
{ "type": "Feature", "properties": { "name": "Glyn House Dental Partnership", "type": "Dentist", "address": "429 Wilmslow Road, Withington, Manchester", "postcode": "M20 4AF", "telephone": 1614453104.0, "website": null, "area_name": "Manchester", "area_code": "E0800003" }, "geometry": { "type": "Point", "coordinates": [ -2.226511, 53.435104 ] } },
{ "type": "Feature", "properties": { "name": "Holly House Dental Practice", "type": "Dentist", "address": "105 Hyde Road, Woodley, Stockport", "postcode": "SK6 1NB", "telephone": 1614948621.0, "website": null, "area_name": "Stockport", "area_code": "E0800007" }, "geometry": { "type": "Point", "coordinates": [ -2.099991, 53.426073 ] } },
{ "type": "Feature", "properties": { "name": "Corra Linn House Dental Practice", "type": "Dentist", "address": "316b Buxton Road, Stockport", "postcode": "SK2 7DD", "telephone": 1614832816.0, "website": null, "area_name": "Stockport", "area_code": "E0800007" }, "geometry": { "type": "Point", "coordinates": [ -2.136905, 53.388526 ] } },
{ "type": "Feature", "properties": { "name": "Dr Pauline Gail Carmichael", "type": "Dentist", "address": "7 Longsight Road, Holcombe Brook, Bury", "postcode": "BL0 9SL", "telephone": 1204886408.0, "website": null, "area_name": "Bury", "area_code": "E0800002" }, "geometry": { "type": "Point", "coordinates": [ -2.333361, 53.63205 ] } },
{ "type": "Feature", "properties": { "name": "Ravat & Ray Dental Care (Fitton Hill) Ltd", "type": "Dentist", "address": "Ravat & Ray Dental Care, Tanhill Lane, Oldham", "postcode": "OL8 2QL", "telephone": 1616277065.0, "website": "http:\/\/www.ravatandray.com", "area_name": "Oldham", "area_code": "E0800004" }, "geometry": { "type": "Point", "coordinates": [ -2.103488, 53.520791 ] } },
{ "type": "Feature", "properties": { "name": "Concord Dental Practice", "type": "Dentist", "address": "36 Concord Way, Dukinfield", "postcode": "SK16 4DB", "telephone": 1613305682.0, "website": null, "area_name": "Tameside", "area_code": "E0800008" }, "geometry": { "type": "Point", "coordinates": [ -2.083416, 53.476538 ] } },
{ "type": "Feature", "properties": { "name": "Openshaw Dental Practice", "type": "Dentist", "address": "1333 Ashton Old Road, Openshaw, Manchester", "postcode": "M11 1JT", "telephone": 1613702213.0, "website": null, "area_name": "Manchester", "area_code": "E0800003" }, "geometry": { "type": "Point", "coordinates": [ -2.161494, 53.472998 ] } },
{ "type": "Feature", "properties": { "name": "The St John Street Surgery", "type": "Dentist", "address": "14 St John Street, Manchester", "postcode": "M3 4DZ", "telephone": 1618349468.0, "website": null, "area_name": "Manchester", "area_code": "E0800003" }, "geometry": { "type": "Point", "coordinates": [ -2.251027, 53.477823 ] } },
{ "type": "Feature", "properties": { "name": "Bupa - Chorley New Road, Bolton", "type": "Dentist", "address": "40 Chorley New Road, Bolton", "postcode": "BL1 4AP", "telephone": 1204521734.0, "website": "http:\/\/www.boltondental.co.uk", "area_name": "Bolton", "area_code": "E0800001" }, "geometry": { "type": "Point", "coordinates": [ -2.44329, 53.582159 ] } },
{ "type": "Feature", "properties": { "name": "Bupa - Northenden Road, Sale Moor", "type": "Dentist", "address": "116 Northenden Road, Sale", "postcode": "M33 3HD", "telephone": 1619736356.0, "website": "http:\/\/www.salemoordentist.co.uk", "area_name": "Trafford", "area_code": "E0800009" }, "geometry": { "type": "Point", "coordinates": [ -2.306545, 53.420551 ] } },
{ "type": "Feature", "properties": { "name": "DCO Dental Group - Sale", "type": "Dentist", "address": "1 Hope Road, Sale", "postcode": "M33 3AB", "telephone": 1619627465.0, "website": "http:\/\/www.dcodental.co.uk", "area_name": "Trafford", "area_code": "E0800009" }, "geometry": { "type": "Point", "coordinates": [ -2.319176, 53.423511 ] } },
{ "type": "Feature", "properties": { "name": "DCO Dental Group - Timperley", "type": "Dentist", "address": "The Lakes Medical Centre, 53C Mainwood Road, Timperley, Altrincham", "postcode": "WA15 7JW", "telephone": 1619806745.0, "website": "http:\/\/www.dcodental.co.uk", "area_name": "Trafford", "area_code": "E0800009" }, "geometry": { "type": "Point", "coordinates": [ -2.312943, 53.392375 ] } },
{ "type": "Feature", "properties": { "name": "Marjory Lees Dental Centre", "type": "Dentist", "address": "283 Ashton Road, Oldham", "postcode": "OL8 1NN", "telephone": 1616331234.0, "website": null, "area_name": "Oldham", "area_code": "E0800004" }, "geometry": { "type": "Point", "coordinates": [ -2.11212, 53.529203 ] } },
{ "type": "Feature", "properties": { "name": "Ayres Road Dental Surgery", "type": "Dentist", "address": "151 Ayres Road, Old Trafford, Manchester", "postcode": "M16 9WR", "telephone": 1618721695.0, "website": null, "area_name": "Trafford", "area_code": "E0800009" }, "geometry": { "type": "Point", "coordinates": [ -2.271872, 53.457679 ] } },
{ "type": "Feature", "properties": { "name": "Peel Green Dental", "type": "Dentist", "address": "419 Liverpool Road, Eccles, Manchester", "postcode": "M30 7HD", "telephone": null, "website": null, "area_name": "Salford", "area_code": "E0800006" }, "geometry": { "type": "Point", "coordinates": [ -2.364325, 53.478769 ] } },
{ "type": "Feature", "properties": { "name": "Cheadle Village Dental Practice", "type": "Dentist", "address": "89B High Street, Cheadle", "postcode": "SK8 1AA", "telephone": 1614282355.0, "website": null, "area_name": "Stockport", "area_code": "E0800007" }, "geometry": { "type": "Point", "coordinates": [ -2.216788, 53.393935 ] } },
{ "type": "Feature", "properties": { "name": "Dental Lounge", "type": "Dentist", "address": "47 Brown Lane, Heald Green, Cheadle", "postcode": "SK8 3RL", "telephone": 1614371250.0, "website": "http:\/\/www.thedental-lounge.com", "area_name": "Stockport", "area_code": "E0800007" }, "geometry": { "type": "Point", "coordinates": [ -2.233667, 53.373141 ] } },
{ "type": "Feature", "properties": { "name": "Ellesmere Endodontic Centre", "type": "Dentist", "address": "70 Ellesmere Road, Altrincham", "postcode": "WA14 1JD", "telephone": 1619269535.0, "website": null, "area_name": "Trafford", "area_code": "E0800009" }, "geometry": { "type": "Point", "coordinates": [ -2.349202, 53.394746 ] } },
{ "type": "Feature", "properties": { "name": "Shine Dental Practice Limited", "type": "Dentist", "address": "61 Stamford Square, Ashton Under Lyne", "postcode": "OL6 6QR", "telephone": 1613301178.0, "website": "http:\/\/www.shinedental.co.uk", "area_name": "Tameside", "area_code": "E0800008" }, "geometry": { "type": "Point", "coordinates": [ -2.077121, 53.486367 ] } },
{ "type": "Feature", "properties": { "name": "Delahays Dental Practice", "type": "Dentist", "address": "2 Delahays Drive, Hale, Altrincham", "postcode": "WA15 8DP", "telephone": 1619805019.0, "website": null, "area_name": "Trafford", "area_code": "E0800009" }, "geometry": { "type": "Point", "coordinates": [ -2.323197, 53.376312 ] } },
{ "type": "Feature", "properties": { "name": "Campaigne Limited", "type": "Dentist", "address": "159-161 Stockport Road, Cheadle", "postcode": "SK8 2DP", "telephone": null, "website": "http:\/\/www.cthedentist.com", "area_name": "Stockport", "area_code": "E0800007" }, "geometry": { "type": "Point", "coordinates": [ -2.205095, 53.395403 ] } },
{ "type": "Feature", "properties": { "name": "Alkrington Dental", "type": "Dentist", "address": "64 Mount Road, Middleton, Manchester", "postcode": "M24 1DZ", "telephone": 1616530777.0, "website": "http:\/\/www.alkringtondental.co.uk", "area_name": "Rochdale", "area_code": "E0800005" }, "geometry": { "type": "Point", "coordinates": [ -2.19656, 53.543225 ] } },
{ "type": "Feature", "properties": { "name": "Moston Healthcare Limited (Formerly known as Mr Michael Fine - Moston Lane)", "type": "Dentist", "address": "334 Moston Lane, Moston, Manchester", "postcode": "M40 9JS", "telephone": 1616811033.0, "website": null, "area_name": "Manchester", "area_code": "E0800003" }, "geometry": { "type": "Point", "coordinates": [ -2.194838, 53.51369 ] } },
{ "type": "Feature", "properties": { "name": "Lartey Dental Clinic", "type": "Dentist", "address": "563 Barlow Moor Road, Chorleton, Manchester", "postcode": "M21 8AE", "telephone": 1772252154.0, "website": null, "area_name": "Manchester", "area_code": "E0800003" }, "geometry": { "type": "Point", "coordinates": [ -2.276661, 53.441524 ] } },
{ "type": "Feature", "properties": { "name": "Hopwood Dental Practice", "type": "Dentist", "address": "181 Manchester Road, Hopwood", "postcode": "OL10 2PP", "telephone": 1706369636.0, "website": null, "area_name": "Rochdale", "area_code": "E0800005" }, "geometry": { "type": "Point", "coordinates": [ -2.210507, 53.583281 ] } },
{ "type": "Feature", "properties": { "name": "Swinton Practice Limited", "type": "Dentist", "address": "63 Chorley Road, Swinton, Manchester", "postcode": "M27 4AF", "telephone": 8448151368.0, "website": null, "area_name": "Salford", "area_code": "E0800006" }, "geometry": { "type": "Point", "coordinates": [ -2.33372, 53.509205 ] } },
{ "type": "Feature", "properties": { "name": "The Vallance Dental Centre", "type": "Dentist", "address": "1st Floor, The Vallance Centre, Wadeson Road, Manchester", "postcode": "M13 9UJ", "telephone": 1612735998.0, "website": null, "area_name": "Manchester", "area_code": "E0800003" }, "geometry": { "type": "Point", "coordinates": [ -2.224542, 53.469786 ] } },
{ "type": "Feature", "properties": { "name": "HMP Manchester", "type": "Dentist", "address": "Dental Department, 1 Southall Street, Manchester", "postcode": "M60 9AH", "telephone": 1612735998.0, "website": null, "area_name": "Manchester", "area_code": "E0800003" }, "geometry": { "type": "Point", "coordinates": [ -2.245686, 53.492188 ] } },
{ "type": "Feature", "properties": { "name": "Unsworth Smile Clinic", "type": "Dentist", "address": "1st Floor, 57 Parr Lane, Unsworth, Bury", "postcode": "BL9 8JR", "telephone": 1617666661.0, "website": null, "area_name": "Bury", "area_code": "E0800002" }, "geometry": { "type": "Point", "coordinates": [ -2.273074, 53.560681 ] } },
{ "type": "Feature", "properties": { "name": "Sale Dental Care", "type": "Dentist", "address": "77 Washway Road, Sale", "postcode": "M33 7TQ", "telephone": 1619697432.0, "website": "http:\/\/www.saledentalspa.co.uk", "area_name": "Trafford", "area_code": "E0800009" }, "geometry": { "type": "Point", "coordinates": [ -2.329303, 53.42158 ] } },
{ "type": "Feature", "properties": { "name": "Chadderton Dental Health Center - Oldham", "type": "Dentist", "address": "Middleton Road, Chadderton, Oldham", "postcode": "OL9 0LH", "telephone": 1616267727.0, "website": null, "area_name": "Oldham", "area_code": "E0800004" }, "geometry": { "type": "Point", "coordinates": [ -2.142182, 53.545559 ] } },
{ "type": "Feature", "properties": { "name": "Dental Surgery Offerton Health Centre", "type": "Dentist", "address": "10 Offerton Lane, Stockport", "postcode": "SK2 5AR", "telephone": 1614800327.0, "website": null, "area_name": "Stockport", "area_code": "E0800007" }, "geometry": { "type": "Point", "coordinates": [ -2.136713, 53.403467 ] } },
{ "type": "Feature", "properties": { "name": "Jct20 Dental Clinic", "type": "Dentist", "address": "1190 Rochdale Road, Blackley, Manchester", "postcode": "M9 6FR", "telephone": 1617405407.0, "website": "http:\/\/www.jct20dentalclinic.co.uk", "area_name": "Manchester", "area_code": "E0800003" }, "geometry": { "type": "Point", "coordinates": [ -2.207465, 53.532825 ] } },
{ "type": "Feature", "properties": { "name": "Langley Dental Practice", "type": "Dentist", "address": "215a Wood Street, Middleton, Manchester", "postcode": "M24 5RU", "telephone": 1616432428.0, "website": "http:\/\/www.langleydentalpractice.com", "area_name": "Rochdale", "area_code": "E0800005" }, "geometry": { "type": "Point", "coordinates": [ -2.207706, 53.554226 ] } },
{ "type": "Feature", "properties": { "name": "True Dentistry", "type": "Dentist", "address": "177 Chorley New Road, Bolton", "postcode": "BL1 4QZ", "telephone": 1204373555.0, "website": "http:\/\/www.truedentistry.co.uk", "area_name": "Bolton", "area_code": "E0800001" }, "geometry": { "type": "Point", "coordinates": [ -2.448472, 53.580809 ] } },
{ "type": "Feature", "properties": { "name": "Chariwala Smile Limited", "type": "Dentist", "address": "37 Victoria Road, Horwich, Bolton", "postcode": "BL6 5ND", "telephone": 7590928937.0, "website": null, "area_name": "Bolton", "area_code": "E0800001" }, "geometry": { "type": "Point", "coordinates": [ -2.542583, 53.595933 ] } },
{ "type": "Feature", "properties": { "name": "Chariwala Smile Limited", "type": "Dentist", "address": "9 Marsden House, Marsden Road, Bolton", "postcode": "BL1 2JT", "telephone": 7590928937.0, "website": null, "area_name": "Bolton", "area_code": "E0800001" }, "geometry": { "type": "Point", "coordinates": [ -2.43424, 53.578947 ] } },
{ "type": "Feature", "properties": { "name": "Ravat and Ray Dental Care (Salford) Ltd", "type": "Dentist", "address": "Ordsall Health Surgery, 118 Phoebe Street, Salford", "postcode": "M5 3PA", "telephone": 1618720606.0, "website": "http:\/\/www.ravatandray.com", "area_name": "Salford", "area_code": "E0800006" }, "geometry": { "type": "Point", "coordinates": [ -2.275427, 53.476322 ] } },
{ "type": "Feature", "properties": { "name": "Pracny & Strass", "type": "Dentist", "address": "195 Finney Lane, Heald Green, Cheadle", "postcode": "SK8 3PX", "telephone": 1614374040.0, "website": null, "area_name": "Stockport", "area_code": "E0800007" }, "geometry": { "type": "Point", "coordinates": [ -2.234085, 53.369887 ] } },
{ "type": "Feature", "properties": { "name": "Cheadle Heath Dental Practice", "type": "Dentist", "address": "242 Stockport Road, Cheadle Heath, Stockport", "postcode": "SK3 0LX", "telephone": 1614283024.0, "website": null, "area_name": "Stockport", "area_code": "E0800007" }, "geometry": { "type": "Point", "coordinates": [ -2.192822, 53.401322 ] } },
{ "type": "Feature", "properties": { "name": "Stephen Emmett's Dental Surgery", "type": "Dentist", "address": "165 Chapman Street, Gorton, Manchester", "postcode": "M18 8LY", "telephone": 1612231888.0, "website": null, "area_name": "Manchester", "area_code": "E0800003" }, "geometry": { "type": "Point", "coordinates": [ -2.169882, 53.464456 ] } },
{ "type": "Feature", "properties": { "name": "The Dentists of Didsbury Limited", "type": "Dentist", "address": "839 Wilmslow Road, Didsbury, Manchester", "postcode": "M20 5WD", "telephone": 1614454005.0, "website": "http:\/\/www.thedentistsofdidsbury.com", "area_name": "Manchester", "area_code": "E0800003" }, "geometry": { "type": "Point", "coordinates": [ -2.221913, 53.410619 ] } },
{ "type": "Feature", "properties": { "name": "Moston Dental Surgery", "type": "Dentist", "address": "301 Moston Lane, Moston, Manchester", "postcode": "M40 9NL", "telephone": 1612034575.0, "website": null, "area_name": "Manchester", "area_code": "E0800003" }, "geometry": { "type": "Point", "coordinates": [ -2.199381, 53.514017 ] } },
{ "type": "Feature", "properties": { "name": "Kingswater Dental Practice", "type": "Dentist", "address": "102 Denton Road, Audenshaw, Manchester", "postcode": "M34 5BD", "telephone": 1613363649.0, "website": null, "area_name": "Tameside", "area_code": "E0800008" }, "geometry": { "type": "Point", "coordinates": [ -2.117553, 53.464088 ] } },
{ "type": "Feature", "properties": { "name": "Dairyground Dental Practice", "type": "Dentist", "address": "59A Dairyground Road, Bramhall, Stockport", "postcode": "SK7 2QW", "telephone": 1614393098.0, "website": null, "area_name": "Stockport", "area_code": "E0800007" }, "geometry": { "type": "Point", "coordinates": [ -2.15709, 53.365644 ] } },
{ "type": "Feature", "properties": { "name": "White House Dental Practice", "type": "Dentist", "address": "11 Ack Lane East, Bramhall, Stockport", "postcode": "SK7 2BE", "telephone": 1614394842.0, "website": null, "area_name": "Stockport", "area_code": "E0800007" }, "geometry": { "type": "Point", "coordinates": [ -2.167762, 53.358655 ] } },
{ "type": "Feature", "properties": { "name": "Avenue Dental Surgery", "type": "Dentist", "address": "4 The Avenue, Leigh", "postcode": "WN7 1ES", "telephone": 1942676336.0, "website": null, "area_name": "Wigan", "area_code": "E08000010" }, "geometry": { "type": "Point", "coordinates": [ -2.517786, 53.499354 ] } },
{ "type": "Feature", "properties": { "name": "The Fold", "type": "Dentist", "address": "3 Back Pool Fold, Manchester", "postcode": "M2 1HB", "telephone": 7872906245.0, "website": null, "area_name": "Manchester", "area_code": "E0800003" }, "geometry": { "type": "Point", "coordinates": [ -2.243879, 53.481909 ] } },
{ "type": "Feature", "properties": { "name": "Allan Dental Practice", "type": "Dentist", "address": "60 Stamford Street East, Ashton Under Lyne", "postcode": "OL6 6QH", "telephone": 1613303419.0, "website": null, "area_name": "Tameside", "area_code": "E0800008" }, "geometry": { "type": "Point", "coordinates": [ -2.084569, 53.487872 ] } },
{ "type": "Feature", "properties": { "name": "Manchester BabyScan Clinic", "type": "Dentist|Diagnosis\/screening", "address": "Waterhouse, 41 Spring Gardens, Manchester", "postcode": "M2 2BG", "telephone": 1617130030.0, "website": "http:\/\/www.manchesterbabyscanclinic.com", "area_name": "Manchester", "area_code": "E0800003" }, "geometry": { "type": "Point", "coordinates": [ -2.241793, 53.480754 ] } },
{ "type": "Feature", "properties": { "name": "Hale Bowden Dental Practice", "type": "Dentist", "address": "118 Ashley Road, Hale, Altrincham", "postcode": "WA14 2UN", "telephone": null, "website": null, "area_name": "Trafford", "area_code": "E0800009" }, "geometry": { "type": "Point", "coordinates": [ -2.349039, 53.378531 ] } },
{ "type": "Feature", "properties": { "name": "Awburn House Dental Practice", "type": "Dentist", "address": "Mottram Moor, Mottram, Hyde", "postcode": "SK14 6LA", "telephone": 1457766050.0, "website": null, "area_name": "Tameside", "area_code": "E0800008" }, "geometry": { "type": "Point", "coordinates": [ -2.011, 53.458105 ] } },
{ "type": "Feature", "properties": { "name": "Park House Dental Surgery Brinnington Health Centre", "type": "Dentist", "address": "Brinnington Health Centre, Brinnington, Stockport", "postcode": "SK5 8BS", "telephone": 1616275242.0, "website": null, "area_name": "Stockport", "area_code": "E0800007" }, "geometry": { "type": "Point", "coordinates": [ -2.132367, 53.427651 ] } },
{ "type": "Feature", "properties": { "name": "Park House Dental Practice", "type": "Dentist", "address": "80 Manchester Road, Werneth, Oldham", "postcode": "OL9 7AP", "telephone": 1616204213.0, "website": null, "area_name": "Oldham", "area_code": "E0800004" }, "geometry": { "type": "Point", "coordinates": [ -2.132291, 53.533975 ] } },
{ "type": "Feature", "properties": { "name": "Park House Dental Practice", "type": "Dentist", "address": "74 Oldham Road, Springhead, Oldham", "postcode": "OL4 5SR", "telephone": 1616269246.0, "website": null, "area_name": "Oldham", "area_code": "E0800004" }, "geometry": { "type": "Point", "coordinates": [ -2.063771, 53.537788 ] } },
{ "type": "Feature", "properties": { "name": "The Park House Dental Practice and Cosmetic Centre", "type": "Dentist", "address": "32 Middleton Road, Crumpsall, Manchester", "postcode": "M8 4JX", "telephone": 1617402080.0, "website": null, "area_name": "Manchester", "area_code": "E0800003" }, "geometry": { "type": "Point", "coordinates": [ -2.248393, 53.519561 ] } },
{ "type": "Feature", "properties": { "name": "The Park House Dental Practice and Cosmetic Centre", "type": "Dentist", "address": "7 Slade Lane, Longsight, Manchester", "postcode": "M13 0QJ", "telephone": 1612573839.0, "website": null, "area_name": "Manchester", "area_code": "E0800003" }, "geometry": { "type": "Point", "coordinates": [ -2.196561, 53.452503 ] } },
{ "type": "Feature", "properties": { "name": "DHS Dental Practice", "type": "Dentist", "address": "1 Bridge Street, Upper Mill, Oldham", "postcode": "OL3 6HZ", "telephone": 1457874872.0, "website": null, "area_name": "Oldham", "area_code": "E0800004" }, "geometry": { "type": "Point", "coordinates": [ -2.007251, 53.545931 ] } },
{ "type": "Feature", "properties": { "name": "Dental Care Plus Manchester", "type": "Dentist", "address": "268 Finney Lane, Heald Green, Cheadle", "postcode": "SK8 3QD", "telephone": 1614379622.0, "website": null, "area_name": "Stockport", "area_code": "E0800007" }, "geometry": { "type": "Point", "coordinates": [ -2.234718, 53.370308 ] } },
{ "type": "Feature", "properties": { "name": "The Bank Dental Practice Limited", "type": "Dentist", "address": "437 Bury New Road, Prestwich, Manchester", "postcode": "M25 1AF", "telephone": 1617989955.0, "website": null, "area_name": "Bury", "area_code": "E0800002" }, "geometry": { "type": "Point", "coordinates": [ -2.284871, 53.532082 ] } },
{ "type": "Feature", "properties": { "name": "Oldham Orthodontics", "type": "Dentist", "address": "221 Hollins Road, Oldham", "postcode": "OL8 3AA", "telephone": 1616220987.0, "website": "http:\/\/www.oldhamorthodontics.co.uk", "area_name": "Oldham", "area_code": "E0800004" }, "geometry": { "type": "Point", "coordinates": [ -2.12006, 53.524793 ] } },
{ "type": "Feature", "properties": { "name": "Crescent Orthodontics & Dental Practice", "type": "Dentist", "address": "107 Drake Street, Rochdale", "postcode": "OL16 1PZ", "telephone": 1706645125.0, "website": "http:\/\/www.rochdaleorthodontics.co.uk", "area_name": "Rochdale", "area_code": "E0800005" }, "geometry": { "type": "Point", "coordinates": [ -2.155723, 53.612379 ] } },
{ "type": "Feature", "properties": { "name": "Boothstown Dental Practice", "type": "Dentist", "address": "51 Leigh Road, Boothstown Dental Practice, Manchester", "postcode": "M28 1HP", "telephone": 1617902830.0, "website": null, "area_name": "Salford", "area_code": "E0800006" }, "geometry": { "type": "Point", "coordinates": [ -2.420855, 53.502522 ] } },
{ "type": "Feature", "properties": { "name": "Barton Cosmetic Dentistry Centre", "type": "Dentist", "address": "Barton Arcade, Deansgate, Manchester", "postcode": "M3 2BH", "telephone": 1618329559.0, "website": null, "area_name": "Manchester", "area_code": "E0800003" }, "geometry": { "type": "Point", "coordinates": [ -2.246384, 53.48265 ] } },
{ "type": "Feature", "properties": { "name": "Dale Street Dental Practice", "type": "Dentist", "address": "36 Dale Street, Milnrow, Rochdale", "postcode": "OL16 4HS", "telephone": 1706641051.0, "website": null, "area_name": "Rochdale", "area_code": "E0800005" }, "geometry": { "type": "Point", "coordinates": [ -2.111778, 53.610424 ] } },
{ "type": "Feature", "properties": { "name": "Ringway Dental Care", "type": "Dentist", "address": "187 Finney Lane, Heald Green, Cheadle", "postcode": "SK8 3PX", "telephone": 1614372029.0, "website": null, "area_name": "Stockport", "area_code": "E0800007" }, "geometry": { "type": "Point", "coordinates": [ -2.234085, 53.369887 ] } },
{ "type": "Feature", "properties": { "name": "Glodwick Dental Centre", "type": "Dentist", "address": "12 Abbey Hills Road, Oldham", "postcode": "OL8 2BS", "telephone": 1616289567.0, "website": null, "area_name": "Oldham", "area_code": "E0800004" }, "geometry": { "type": "Point", "coordinates": [ -2.096442, 53.533828 ] } },
{ "type": "Feature", "properties": { "name": "Bamford Dental Practice", "type": "Dentist", "address": "Norden Road, Bamford, Rochdale", "postcode": "OL11 5PT", "telephone": 1706527700.0, "website": "http:\/\/www.bamforddental.co.uk", "area_name": "Rochdale", "area_code": "E0800005" }, "geometry": { "type": "Point", "coordinates": [ -2.206315, 53.615745 ] } },
{ "type": "Feature", "properties": { "name": "Urban Dental", "type": "Dentist", "address": "185 Langworthy Road, Salford", "postcode": "M6 5PW", "telephone": 1617374714.0, "website": "http:\/\/www.urbandental.co.uk", "area_name": "Salford", "area_code": "E0800006" }, "geometry": { "type": "Point", "coordinates": [ -2.295174, 53.486395 ] } },
{ "type": "Feature", "properties": { "name": "Littleton Road Dental Practice", "type": "Dentist", "address": "311 Littleton Road, Salford", "postcode": "M7 3TA", "telephone": 1617089644.0, "website": null, "area_name": "Salford", "area_code": "E0800006" }, "geometry": { "type": "Point", "coordinates": [ -2.280008, 53.503968 ] } },
{ "type": "Feature", "properties": { "name": "Dental @ MediaCity", "type": "Dentist", "address": "Blue, The Garage, Media City UK, Salford", "postcode": "M50 2TG", "telephone": 1617133655.0, "website": "http:\/\/www.dentalatmediacityuk.co.uk", "area_name": "Salford", "area_code": "E0800006" }, "geometry": { "type": "Point", "coordinates": [ -2.301304, 53.473283 ] } },
{ "type": "Feature", "properties": { "name": "Love-Teeth Dental Practice Ltd", "type": "Dentist", "address": "3 Kings Road, Prestwich, Manchester", "postcode": "M25 0LE", "telephone": 1617737080.0, "website": "http:\/\/www.loveteethdp.co.uk", "area_name": "Bury", "area_code": "E0800002" }, "geometry": { "type": "Point", "coordinates": [ -2.270288, 53.518831 ] } },
{ "type": "Feature", "properties": { "name": "Milnrow Center OF Dental Excellence", "type": "Dentist", "address": "107 Dale Street, Milnrow, Rochdale", "postcode": "OL16 3NW", "telephone": 1706710209.0, "website": "http:\/\/www.skexceldental.net", "area_name": "Rochdale", "area_code": "E0800005" }, "geometry": { "type": "Point", "coordinates": [ -2.108328, 53.608899 ] } },
{ "type": "Feature", "properties": { "name": "Fog Lane Dental Practice", "type": "Dentist", "address": "3 Fog Lane, Manchester", "postcode": "M20 6AX", "telephone": 7849709620.0, "website": null, "area_name": "Manchester", "area_code": "E0800003" }, "geometry": { "type": "Point", "coordinates": [ -2.229859, 53.422298 ] } },
{ "type": "Feature", "properties": { "name": "Dental Surgery - Oldham Road", "type": "Dentist", "address": "293 Oldham Road, Failsworth, Manchester", "postcode": "M35 0AS", "telephone": 7849709620.0, "website": null, "area_name": "Oldham", "area_code": "E0800004" }, "geometry": { "type": "Point", "coordinates": [ -2.164162, 53.508346 ] } },
{ "type": "Feature", "properties": { "name": "First Dental Care", "type": "Dentist", "address": "22 Manchester Road, Denton, Manchester", "postcode": "M34 3LE", "telephone": 1613362710.0, "website": "http:\/\/www.firstdentalcare.co.uk", "area_name": "Tameside", "area_code": "E0800008" }, "geometry": { "type": "Point", "coordinates": [ -2.115619, 53.45635 ] } },
{ "type": "Feature", "properties": { "name": "Harmony Dental Spa", "type": "Dentist", "address": "36 High Street, Lees, Oldham", "postcode": "OL4 5AQ", "telephone": 161629000000.0, "website": null, "area_name": "Oldham", "area_code": "E0800004" }, "geometry": { "type": "Point", "coordinates": [ -2.074001, 53.537854 ] } },
{ "type": "Feature", "properties": { "name": "Bury Dental Practice", "type": "Dentist", "address": "434 Manchester Road, Bury", "postcode": "BL9 9NS", "telephone": 1617644960.0, "website": null, "area_name": "Bury", "area_code": "E0800002" }, "geometry": { "type": "Point", "coordinates": [ -2.297108, 53.57576 ] } },
{ "type": "Feature", "properties": { "name": "Heywood Dental Practice", "type": "Dentist", "address": "6 Manchester Street, Heywood", "postcode": "OL10 1DL", "telephone": 1706369810.0, "website": null, "area_name": "Rochdale", "area_code": "E0800005" }, "geometry": { "type": "Point", "coordinates": [ -2.213445, 53.591174 ] } },
{ "type": "Feature", "properties": { "name": "Waterside Dental Care", "type": "Dentist", "address": "330 Yorkshire Street, Rochdale", "postcode": "OL16 2DS", "telephone": 1706632661.0, "website": null, "area_name": "Rochdale", "area_code": "E0800005" }, "geometry": { "type": "Point", "coordinates": [ -2.145874, 53.622683 ] } },
{ "type": "Feature", "properties": { "name": "Mydentist - Market Street - Shaw", "type": "Dentist", "address": "56 Market Street, Shaw, Oldham", "postcode": "OL2 8NH", "telephone": 1706843637.0, "website": "http:\/\/www.mydentist.co.uk", "area_name": "Oldham", "area_code": "E0800004" }, "geometry": { "type": "Point", "coordinates": [ -2.093915, 53.577083 ] } },
{ "type": "Feature", "properties": { "name": "G T Bennett", "type": "Dentist", "address": "38 Durnford Street, Middleton, Manchester", "postcode": "M24 5UD", "telephone": 1616434932.0, "website": null, "area_name": "Rochdale", "area_code": "E0800005" }, "geometry": { "type": "Point", "coordinates": [ -2.198084, 53.552867 ] } },
{ "type": "Feature", "properties": { "name": "Polska Przychodnia", "type": "Doctors\/GPs|Dentist|Doctors\/GPs", "address": "482-484 Liverpool Road, Eccles, Manchester", "postcode": "M30 7HZ", "telephone": 8442092149.0, "website": null, "area_name": "Salford", "area_code": "E0800006" }, "geometry": { "type": "Point", "coordinates": [ -2.364765, 53.478949 ] } },
{ "type": "Feature", "properties": { "name": "Bury Dental Centre", "type": "Dentist", "address": "Brook House, 10a Wash Lane, Bury", "postcode": "BL9 6AS", "telephone": 1617611909.0, "website": null, "area_name": "Bury", "area_code": "E0800002" }, "geometry": { "type": "Point", "coordinates": [ -2.286407, 53.596461 ] } },
{ "type": "Feature", "properties": { "name": "Bury Smile Line", "type": "Dentist", "address": "83 Bolton Street, Ramsbottom, Bury", "postcode": "BL0 9HY", "telephone": 1706822138.0, "website": null, "area_name": "Bury", "area_code": "E0800002" }, "geometry": { "type": "Point", "coordinates": [ -2.318648, 53.646274 ] } },
{ "type": "Feature", "properties": { "name": "Avenue Dental Surgery", "type": "Dentist", "address": "4 The Avenue, Leigh", "postcode": "WN7 1ES", "telephone": 1942676336.0, "website": null, "area_name": "Wigan", "area_code": "E08000010" }, "geometry": { "type": "Point", "coordinates": [ -2.517786, 53.499354 ] } },
{ "type": "Feature", "properties": { "name": "Heyside Dental Practice Partnership", "type": "Dentist", "address": "84 Heyside, Royton, Oldham", "postcode": "OL2 6LS", "telephone": 1706849392.0, "website": null, "area_name": "Oldham", "area_code": "E0800004" }, "geometry": { "type": "Point", "coordinates": [ -2.101689, 53.564141 ] } },
{ "type": "Feature", "properties": { "name": "Precision Dental Clinic", "type": "Dentist", "address": "284 Adswood Road, Stockport", "postcode": "SK3 8PN", "telephone": 161419928.0, "website": null, "area_name": "Stockport", "area_code": "E0800007" }, "geometry": { "type": "Point", "coordinates": [ -2.169912, 53.389481 ] } },
{ "type": "Feature", "properties": { "name": "Salford Dental Practice", "type": "Dentist", "address": "483 Liverpool Street, Salford", "postcode": "M6 5QQ", "telephone": 1617457972.0, "website": null, "area_name": "Salford", "area_code": "E0800006" }, "geometry": { "type": "Point", "coordinates": [ -2.296843, 53.483785 ] } },
{ "type": "Feature", "properties": { "name": "Bupa - Wilbraham Road, Chorlton-cum-Hardy", "type": "Dentist", "address": "513 Wilbraham Road, Manchester", "postcode": "M21 0UF", "telephone": 1618813599.0, "website": null, "area_name": "Manchester", "area_code": "E0800003" }, "geometry": { "type": "Point", "coordinates": [ -2.271518, 53.442318 ] } },
{ "type": "Feature", "properties": { "name": "Withington Dental Care", "type": "Dentist", "address": "240 Mauldeth Road West, Withington, Manchester", "postcode": "M20 1BE", "telephone": 1614456000.0, "website": null, "area_name": "Manchester", "area_code": "E0800003" }, "geometry": { "type": "Point", "coordinates": [ -2.242872, 53.440205 ] } },
{ "type": "Feature", "properties": { "name": "The Tooth Place", "type": "Dentist", "address": "63-65 Yorkshire Street, Oldham", "postcode": "OL1 3SL", "telephone": 1616521205.0, "website": null, "area_name": "Oldham", "area_code": "E0800004" }, "geometry": { "type": "Point", "coordinates": [ -2.109064, 53.542376 ] } },
{ "type": "Feature", "properties": { "name": "The Dental Practice", "type": "Dentist", "address": "135 Wilbraham Road, Manchester", "postcode": "M14 7DS", "telephone": 1612247621.0, "website": "http:\/\/www.thedentalpracticefallowfield.com", "area_name": "Manchester", "area_code": "E0800003" }, "geometry": { "type": "Point", "coordinates": [ -2.233932, 53.443431 ] } },
{ "type": "Feature", "properties": { "name": "Turret Orthodontics Practice", "type": "Dentist", "address": "258 Washway road, Sale", "postcode": "M33 4RZ", "telephone": 1619733501.0, "website": null, "area_name": "Trafford", "area_code": "E0800009" }, "geometry": { "type": "Point", "coordinates": [ -2.335899, 53.416537 ] } },
{ "type": "Feature", "properties": { "name": "Bolton Road Dental Centre", "type": "Dentist", "address": "1 Bolton Road, Bolton", "postcode": "BL4 8DB", "telephone": null, "website": null, "area_name": "Bolton", "area_code": "E0800001" }, "geometry": { "type": "Point", "coordinates": [ -2.388475, 53.544353 ] } },
{ "type": "Feature", "properties": { "name": "Worsley Dental Centre", "type": "Dentist", "address": "383 Worsley Road, Swinton, Manchester", "postcode": "M27 0EJ", "telephone": null, "website": null, "area_name": "Salford", "area_code": "E0800006" }, "geometry": { "type": "Point", "coordinates": [ -2.360769, 53.503482 ] } },
{ "type": "Feature", "properties": { "name": "Marple Dental Practice", "type": "Dentist", "address": "48A Stockport Road, Marple, Stockport", "postcode": "SK6 6AB", "telephone": 1614271366.0, "website": null, "area_name": "Stockport", "area_code": "E0800007" }, "geometry": { "type": "Point", "coordinates": [ -2.064638, 53.394852 ] } },
{ "type": "Feature", "properties": { "name": "New Cross Dental Surgery", "type": "Dentist", "address": "50-52 Oldham Road, Ancoat, Manchester", "postcode": "M4 5EE", "telephone": 1612360458.0, "website": null, "area_name": "Manchester", "area_code": "E0800003" }, "geometry": { "type": "Point", "coordinates": [ -2.230292, 53.485684 ] } },
{ "type": "Feature", "properties": { "name": "300 Great Western Street", "type": "Dentist", "address": "300 Great Western Street, Rusholme, Manchester", "postcode": "M14 4LP", "telephone": 1612262548.0, "website": null, "area_name": "Manchester", "area_code": "E0800003" }, "geometry": { "type": "Point", "coordinates": [ -2.234152, 53.456051 ] } },
{ "type": "Feature", "properties": { "name": "32 Whites", "type": "Dentist", "address": "100-102 Church Lane, Marple, Stockport", "postcode": "SK6 7AR", "telephone": null, "website": null, "area_name": "Stockport", "area_code": "E0800007" }, "geometry": { "type": "Point", "coordinates": [ -2.064335, 53.39275 ] } },
{ "type": "Feature", "properties": { "name": "32 Whites - Church Lane", "type": "Dentist", "address": "100-102 Church Lane, Marple, Stockport", "postcode": "SK6 7AR", "telephone": null, "website": null, "area_name": "Stockport", "area_code": "E0800007" }, "geometry": { "type": "Point", "coordinates": [ -2.064335, 53.39275 ] } },
{ "type": "Feature", "properties": { "name": "P & J  Noble Dental Practice", "type": "Dentist", "address": "146 Chew Valley Road, Greenfield, Oldham", "postcode": "OL3 7DD", "telephone": null, "website": null, "area_name": "Oldham", "area_code": "E0800004" }, "geometry": { "type": "Point", "coordinates": [ -2.00272, 53.534057 ] } },
{ "type": "Feature", "properties": { "name": "Barrington Dental Care", "type": "Dentist", "address": "23A Barrington Road, Altrincham", "postcode": "WA14 1HP", "telephone": null, "website": null, "area_name": "Trafford", "area_code": "E0800009" }, "geometry": { "type": "Point", "coordinates": [ -2.348577, 53.391872 ] } },
{ "type": "Feature", "properties": { "name": "Jackson's Dental Care", "type": "Dentist", "address": "244 Huddersfield Road, Oldham", "postcode": "OL4 2RB", "telephone": 1616274914.0, "website": null, "area_name": "Oldham", "area_code": "E0800004" }, "geometry": { "type": "Point", "coordinates": [ -2.08404, 53.548121 ] } },
{ "type": "Feature", "properties": { "name": "KS Dental", "type": "Dentist", "address": "55 Flixton Road, Urmston, Manchester", "postcode": "M41 5AN", "telephone": 1617484473.0, "website": null, "area_name": "Trafford", "area_code": "E0800009" }, "geometry": { "type": "Point", "coordinates": [ -2.358598, 53.44803 ] } },
{ "type": "Feature", "properties": { "name": "Dr S Hafiz's Dental Surgery", "type": "Dentist", "address": "194 Oldham Road, Ashton Under Lyne", "postcode": "OL7 9AW", "telephone": 1613395426.0, "website": null, "area_name": "Tameside", "area_code": "E0800008" }, "geometry": { "type": "Point", "coordinates": [ -2.101164, 53.495014 ] } },
{ "type": "Feature", "properties": { "name": "Kissdental Flixton", "type": "Dentist", "address": "157 Woodsend Road, Flixton, Manchester", "postcode": "M41 8GN", "telephone": 1617485250.0, "website": "http:\/\/www.kissdental.co.uk", "area_name": "Trafford", "area_code": "E0800009" }, "geometry": { "type": "Point", "coordinates": [ -2.393504, 53.455039 ] } },
{ "type": "Feature", "properties": { "name": "Kissdental Altrincham", "type": "Dentist", "address": "2 New Street, Altrincham", "postcode": "WA14 2QS", "telephone": 1619281628.0, "website": "http:\/\/www.kissdental.co.uk", "area_name": "Trafford", "area_code": "E0800009" }, "geometry": { "type": "Point", "coordinates": [ -2.354115, 53.385292 ] } },
{ "type": "Feature", "properties": { "name": "Kissdental Manchester", "type": "Dentist", "address": "13 Stanley Street, Manchester", "postcode": "M8 8SH", "telephone": 1618329477.0, "website": "http:\/\/www.kissdental.co.uk", "area_name": "Manchester", "area_code": "E0800003" }, "geometry": { "type": "Point", "coordinates": [ -2.236925, 53.494631 ] } },
{ "type": "Feature", "properties": { "name": "Griffin Dental Partnership LTD", "type": "Dentist", "address": "1-3 Great Cheetham Street West, Salford", "postcode": "M7 2JB", "telephone": 7738839339.0, "website": null, "area_name": "Salford", "area_code": "E0800006" }, "geometry": { "type": "Point", "coordinates": [ -2.268749, 53.499698 ] } },
{ "type": "Feature", "properties": { "name": "Heaton Moor Dental", "type": "Dentist", "address": "32 Heaton Moor Road, Stockport", "postcode": "SK4 4NX", "telephone": 7946582290.0, "website": null, "area_name": "Stockport", "area_code": "E0800007" }, "geometry": { "type": "Point", "coordinates": [ -2.180393, 53.424819 ] } },
{ "type": "Feature", "properties": { "name": "Staly Dental", "type": "Dentist", "address": "2 Waterloo Road, Stalybridge", "postcode": "SK15 2AU", "telephone": null, "website": null, "area_name": "Tameside", "area_code": "E0800008" }, "geometry": { "type": "Point", "coordinates": [ -2.059094, 53.484668 ] } },
{ "type": "Feature", "properties": { "name": "Bupa - Kenworthy Street, Stalybridge", "type": "Dentist", "address": "1 Kenworthy Street, Stalybridge", "postcode": "SK15 2DX", "telephone": 1613038767.0, "website": null, "area_name": "Tameside", "area_code": "E0800008" }, "geometry": { "type": "Point", "coordinates": [ -2.056601, 53.479026 ] } },
{ "type": "Feature", "properties": { "name": "Timperley Village Dental Practice", "type": "Dentist", "address": "273 Stockport Road, Timperley, Altrincham", "postcode": "WA15 7SP", "telephone": 1619803485.0, "website": null, "area_name": "Trafford", "area_code": "E0800009" }, "geometry": { "type": "Point", "coordinates": [ -2.323207, 53.395555 ] } },
{ "type": "Feature", "properties": { "name": "Kenworthy Street Partnership", "type": "Dentist", "address": "1 Kenworthy Street, Stalybridge", "postcode": "SK15 2DX", "telephone": 1613038767.0, "website": null, "area_name": "Tameside", "area_code": "E0800008" }, "geometry": { "type": "Point", "coordinates": [ -2.056601, 53.479026 ] } },
{ "type": "Feature", "properties": { "name": "Simon Taylor Dental Practice", "type": "Dentist", "address": "89 Bolton Road, Salford", "postcode": "M6 7HN", "telephone": 1617362493.0, "website": null, "area_name": "Salford", "area_code": "E0800006" }, "geometry": { "type": "Point", "coordinates": [ -2.297326, 53.49465 ] } },
{ "type": "Feature", "properties": { "name": "Stonemount Dental Surgery", "type": "Dentist", "address": "35 Victoria Avenue, Manchester", "postcode": "M9 6RA", "telephone": 1617959000.0, "website": null, "area_name": "Manchester", "area_code": "E0800003" }, "geometry": { "type": "Point", "coordinates": [ -2.210347, 53.532793 ] } },
{ "type": "Feature", "properties": { "name": "Wong Dental Surgery", "type": "Dentist", "address": "35 Victoria Avenue, Manchester", "postcode": "M9 6RA", "telephone": 1617959000.0, "website": null, "area_name": "Manchester", "area_code": "E0800003" }, "geometry": { "type": "Point", "coordinates": [ -2.210347, 53.532793 ] } },
{ "type": "Feature", "properties": { "name": "Parkside Dental Care", "type": "Dentist", "address": "610 Liverpool Road, Irlam, Manchester", "postcode": "M44 5AA", "telephone": 1617778606.0, "website": null, "area_name": "Salford", "area_code": "E0800006" }, "geometry": { "type": "Point", "coordinates": [ -2.429227, 53.437334 ] } },
{ "type": "Feature", "properties": { "name": "Nicol Dental Practice", "type": "Dentist", "address": "Turncroft Lane, Stockport", "postcode": "SK1 4AB", "telephone": 1614803822.0, "website": null, "area_name": "Stockport", "area_code": "E0800007" }, "geometry": { "type": "Point", "coordinates": [ -2.146163, 53.408974 ] } },
{ "type": "Feature", "properties": { "name": "Ocean Dental Manchester", "type": "Dentist", "address": "32 Market Street, Boots, 2nd Floor, Manchester", "postcode": "M1 1PW", "telephone": 1616600200.0, "website": "http:\/\/www.odental.co.uk", "area_name": "Manchester", "area_code": "E0800003" }, "geometry": { "type": "Point", "coordinates": [ -2.24239, 53.482496 ] } },
{ "type": "Feature", "properties": { "name": "Brinnington Dental Practice", "type": "Dentist", "address": "Brinnington Health Centre, Brinnington Road, Stockport", "postcode": "SK5 8BS", "telephone": 1614946445.0, "website": null, "area_name": "Stockport", "area_code": "E0800007" }, "geometry": { "type": "Point", "coordinates": [ -2.132367, 53.427651 ] } },
{ "type": "Feature", "properties": { "name": "Manor Dental Practice", "type": "Dentist", "address": "216 Washway Road, Sale", "postcode": "M33 4RA", "telephone": 1619733501.0, "website": null, "area_name": "Trafford", "area_code": "E0800009" }, "geometry": { "type": "Point", "coordinates": [ -2.332836, 53.419231 ] } },
{ "type": "Feature", "properties": { "name": "Andrew Shelley and Simon Pope Dental Practice", "type": "Dentist", "address": "117 Stockport Road, Denton, Manchester", "postcode": "M34 6DH", "telephone": 1613204230.0, "website": null, "area_name": "Tameside", "area_code": "E0800008" }, "geometry": { "type": "Point", "coordinates": [ -2.111906, 53.453019 ] } },
{ "type": "Feature", "properties": { "name": "MF Dental Littleborough", "type": "Dentist", "address": "60-62 Church Street, Littleborough", "postcode": "OL15 8AU", "telephone": 1706370058.0, "website": "http:\/\/www.mfdental.co.uk", "area_name": "Rochdale", "area_code": "E0800005" }, "geometry": { "type": "Point", "coordinates": [ -2.097829, 53.643656 ] } },
{ "type": "Feature", "properties": { "name": "MF Dental Littleborough", "type": "Dentist", "address": "60 -62 Church Street, Littleborough", "postcode": "OL15 8AU", "telephone": 1706370058.0, "website": "http:\/\/www.mfdental.co.uk", "area_name": "Rochdale", "area_code": "E0800005" }, "geometry": { "type": "Point", "coordinates": [ -2.097829, 53.643656 ] } },
{ "type": "Feature", "properties": { "name": "Church Street Dental Care", "type": "Dentist", "address": "69 Church Street, Littleborough", "postcode": "OL15 8AB", "telephone": 1706379672.0, "website": null, "area_name": "Rochdale", "area_code": "E0800005" }, "geometry": { "type": "Point", "coordinates": [ -2.097239, 53.643468 ] } },
{ "type": "Feature", "properties": { "name": "York Street Dental Care", "type": "Dentist", "address": "27 York Street, Heywood", "postcode": "OL10 4NN", "telephone": 1706360176.0, "website": null, "area_name": "Rochdale", "area_code": "E0800005" }, "geometry": { "type": "Point", "coordinates": [ -2.217672, 53.593638 ] } },
{ "type": "Feature", "properties": { "name": "Westpoint Dental Centre", "type": "Dentist", "address": "160 Slade Lane, Manchester", "postcode": "M19 2AQ", "telephone": null, "website": null, "area_name": "Manchester", "area_code": "E0800003" }, "geometry": { "type": "Point", "coordinates": [ -2.198071, 53.446633 ] } },
{ "type": "Feature", "properties": { "name": "518 Dental", "type": "Dentist", "address": "518 Bury Road, Rochdale", "postcode": "OL11 4DQ", "telephone": 1706527127.0, "website": null, "area_name": "Rochdale", "area_code": "E0800005" }, "geometry": { "type": "Point", "coordinates": [ -2.188326, 53.612662 ] } },
{ "type": "Feature", "properties": { "name": "Dental Surgery", "type": "Dentist", "address": "272 St Helens Road, Bolton", "postcode": "BL3 3PZ", "telephone": 120461935.0, "website": null, "area_name": "Bolton", "area_code": "E0800001" }, "geometry": { "type": "Point", "coordinates": [ -2.454998, 53.561244 ] } },
{ "type": "Feature", "properties": { "name": "Maypole Dental & Implant Clinic", "type": "Dentist", "address": "20 Middleton Road, Royton, Oldham", "postcode": "OL2 5PA", "telephone": 1616272184.0, "website": null, "area_name": "Oldham", "area_code": "E0800004" }, "geometry": { "type": "Point", "coordinates": [ -2.122559, 53.565004 ] } },
{ "type": "Feature", "properties": { "name": "DHS Dental Practice - Langley Clinic", "type": "Dentist", "address": "Langley Clinic, Borrowdale Road, Middleton", "postcode": "M24 5QG", "telephone": 1616551334.0, "website": null, "area_name": "Rochdale", "area_code": "E0800005" }, "geometry": { "type": "Point", "coordinates": [ -2.211846, 53.558048 ] } },
{ "type": "Feature", "properties": { "name": "Deansgate Dental Practice", "type": "Dentist", "address": "3 Deansgate, Radcliffe, Manchester", "postcode": "M26 2SH", "telephone": 1617258090.0, "website": null, "area_name": "Bury", "area_code": "E0800002" }, "geometry": { "type": "Point", "coordinates": [ -2.324757, 53.559581 ] } },
{ "type": "Feature", "properties": { "name": "Cheadle Smile Centre", "type": "Dentist", "address": "145A Councillor Lane, Cheadle", "postcode": "SK8 2JE", "telephone": 1614287226.0, "website": null, "area_name": "Stockport", "area_code": "E0800007" }, "geometry": { "type": "Point", "coordinates": [ -2.194159, 53.391081 ] } },
{ "type": "Feature", "properties": { "name": "The Dental Practice", "type": "Dentist", "address": "757 Blackburn Road, Sharples, Bolton", "postcode": "BL1 7JJ", "telephone": 1204306010.0, "website": null, "area_name": "Bolton", "area_code": "E0800001" }, "geometry": { "type": "Point", "coordinates": [ -2.431654, 53.606757 ] } },
{ "type": "Feature", "properties": { "name": "Claremont Dental Surgery", "type": "Dentist", "address": "11 Claremont Road, Sale", "postcode": "M33 7DZ", "telephone": 1619690434.0, "website": null, "area_name": "Trafford", "area_code": "E0800009" }, "geometry": { "type": "Point", "coordinates": [ -2.321359, 53.425646 ] } },
{ "type": "Feature", "properties": { "name": "Meridian Dental Clinic", "type": "Dentist", "address": "4 The Packet House, Barton Road, Worsley, Manchester", "postcode": "M28 2PB", "telephone": 7399839083.0, "website": null, "area_name": "Salford", "area_code": "E0800006" }, "geometry": { "type": "Point", "coordinates": [ -2.381317, 53.499895 ] } },
{ "type": "Feature", "properties": { "name": "Cheadle Dental Centre", "type": "Dentist", "address": "12 Gatley Road, Cheadle", "postcode": "SK8 1PY", "telephone": 1612825921.0, "website": null, "area_name": "Stockport", "area_code": "E0800007" }, "geometry": { "type": "Point", "coordinates": [ -2.219116, 53.393446 ] } },
{ "type": "Feature", "properties": { "name": "Ravat & Ray Dental Care [Farnworth]", "type": "Dentist", "address": "Brackley House, Brackley Street, Farnworth, Bolton", "postcode": "BL4 9ES", "telephone": 12045731000.0, "website": null, "area_name": "Bolton", "area_code": "E0800001" }, "geometry": { "type": "Point", "coordinates": [ -2.397074, 53.54706 ] } },
{ "type": "Feature", "properties": { "name": "Highfield Dental Practice Limited", "type": "Dentist", "address": "Brackley House, Brackley Street, Farnworth, Bolton", "postcode": "BL4 9ES", "telephone": 1204705363.0, "website": null, "area_name": "Bolton", "area_code": "E0800001" }, "geometry": { "type": "Point", "coordinates": [ -2.397074, 53.54706 ] } },
{ "type": "Feature", "properties": { "name": "John A Gibb and Associates Dental Practice", "type": "Dentist", "address": "66 Church Street, Heywood", "postcode": "OL10 1LJ", "telephone": 1706364200.0, "website": null, "area_name": "Rochdale", "area_code": "E0800005" }, "geometry": { "type": "Point", "coordinates": [ -2.216382, 53.592508 ] } },
{ "type": "Feature", "properties": { "name": "Fletcher Fosbrook Dental Surgery", "type": "Dentist", "address": "42 Market Street, Heywood", "postcode": "OL10 4LY", "telephone": 1706624677.0, "website": null, "area_name": "Rochdale", "area_code": "E0800005" }, "geometry": { "type": "Point", "coordinates": [ -2.22251, 53.593829 ] } },
{ "type": "Feature", "properties": { "name": "M20 Dental", "type": "Dentist", "address": "150-152 Burton Road, Manchester", "postcode": "M20 1LH", "telephone": 7771537908.0, "website": null, "area_name": "Manchester", "area_code": "E0800003" }, "geometry": { "type": "Point", "coordinates": [ -2.241957, 53.427658 ] } },
{ "type": "Feature", "properties": { "name": "The Dental Team", "type": "Dentist", "address": "858 Chester Road, Stretford, Manchester", "postcode": "M32 0QJ", "telephone": 7969333461.0, "website": null, "area_name": "Trafford", "area_code": "E0800009" }, "geometry": { "type": "Point", "coordinates": [ -2.297611, 53.455685 ] } },
{ "type": "Feature", "properties": { "name": "Ashton Primary Care Centre, Dental Department", "type": "Dentist", "address": "193 Old Street, Ashton Under Lyne", "postcode": "OL6 7SR", "telephone": 1616220987.0, "website": null, "area_name": "Tameside", "area_code": "E0800008" }, "geometry": { "type": "Point", "coordinates": [ -2.099981, 53.485827 ] } },
{ "type": "Feature", "properties": { "name": "Deane Dental Practice", "type": "Dentist", "address": "Unit 6a, The Vibe, Broughton Lane, Salford", "postcode": "M7 1US", "telephone": 1614782980.0, "website": null, "area_name": "Salford", "area_code": "E0800006" }, "geometry": { "type": "Point", "coordinates": [ -2.261598, 53.496316 ] } },
{ "type": "Feature", "properties": { "name": "Portway Dental Practice", "type": "Dentist", "address": "40 Portway, Manchester", "postcode": "M22 1UB", "telephone": 1614372382.0, "website": null, "area_name": "Manchester", "area_code": "E0800003" }, "geometry": { "type": "Point", "coordinates": [ -2.276472, 53.37996 ] } },
{ "type": "Feature", "properties": { "name": "Parkfield Dental Practice", "type": "Dentist", "address": "637 Wilmslow Road, Manchester", "postcode": "M20 6DF", "telephone": 1614452397.0, "website": "http:\/\/www.parkfield-dental.co.uk", "area_name": "Manchester", "area_code": "E0800003" }, "geometry": { "type": "Point", "coordinates": [ -2.232053, 53.421881 ] } },
{ "type": "Feature", "properties": { "name": "Longfield Lodge Dental", "type": "Dentist", "address": "276 Liverpool Road, Cadishead, Manchester", "postcode": "M44 5DX", "telephone": 1617752211.0, "website": null, "area_name": "Salford", "area_code": "E0800006" }, "geometry": { "type": "Point", "coordinates": [ -2.442294, 53.42152 ] } },
{ "type": "Feature", "properties": { "name": "Showmans the Dentist", "type": "Dentist", "address": "36 Queens Walk, The Precinct, Droylsden, Manchester", "postcode": "M43 7AD", "telephone": 1613707213.0, "website": null, "area_name": "Tameside", "area_code": "E0800008" }, "geometry": { "type": "Point", "coordinates": [ -2.14606, 53.480045 ] } },
{ "type": "Feature", "properties": { "name": "Dentistry@442 Limited", "type": "Dentist", "address": "442 Birch Road, Wardle, Rochdale", "postcode": "OL12 9LH", "telephone": 1706372088.0, "website": null, "area_name": "Rochdale", "area_code": "E0800005" }, "geometry": { "type": "Point", "coordinates": [ -2.132203, 53.645681 ] } },
{ "type": "Feature", "properties": { "name": "Birchfields Family Dental Care", "type": "Dentist", "address": "Longsight, Manchester", "postcode": "M13 0XQ", "telephone": 1612249813.0, "website": null, "area_name": "Manchester", "area_code": "E0800003" }, "geometry": { "type": "Point", "coordinates": [ -2.209253, 53.451738 ] } },
{ "type": "Feature", "properties": { "name": "Pearldent Dental Surgery", "type": "Dentist", "address": "442 Buxton Road, Stockport", "postcode": "SK2 7JB", "telephone": 1614833408.0, "website": null, "area_name": "Stockport", "area_code": "E0800007" }, "geometry": { "type": "Point", "coordinates": [ -2.130402, 53.385685 ] } },
{ "type": "Feature", "properties": { "name": "Maple Road Dental Practice", "type": "Dentist", "address": "11 Maple Road, Manchester", "postcode": "M23 9HN", "telephone": 1619730565.0, "website": null, "area_name": "Manchester", "area_code": "E0800003" }, "geometry": { "type": "Point", "coordinates": [ -2.309653, 53.407303 ] } },
{ "type": "Feature", "properties": { "name": "Brooklands Dental Surgery", "type": "Dentist", "address": "203 Marsland Road, Sale", "postcode": "M33 3ND", "telephone": 1619620066.0, "website": null, "area_name": "Trafford", "area_code": "E0800009" }, "geometry": { "type": "Point", "coordinates": [ -2.320468, 53.417325 ] } },
{ "type": "Feature", "properties": { "name": "Archway Dental Practice", "type": "Dentist", "address": "21 Radnor Street, Hulme, Manchester", "postcode": "M15 5RD", "telephone": 1612328403.0, "website": null, "area_name": "Manchester", "area_code": "E0800003" }, "geometry": { "type": "Point", "coordinates": [ -2.246495, 53.460251 ] } },
{ "type": "Feature", "properties": { "name": "SimplyOne Dental", "type": "Dentist", "address": "36 Queens Walk, Droylsden, Manchester", "postcode": "M43 7AD", "telephone": 1613707213.0, "website": null, "area_name": "Tameside", "area_code": "E0800008" }, "geometry": { "type": "Point", "coordinates": [ -2.14606, 53.480045 ] } },
{ "type": "Feature", "properties": { "name": "Parkhill Healthcare Medical and Dental Surgery", "type": "Dentist", "address": "501 Crompton Way, Bolton", "postcode": "BL1 8UP", "telephone": 1204770600.0, "website": null, "area_name": "Bolton", "area_code": "E0800001" }, "geometry": { "type": "Point", "coordinates": [ -2.415226, 53.597486 ] } },
{ "type": "Feature", "properties": { "name": "Manchester St Anns Square", "type": "Dentist", "address": "14 St Anns Square, Manchester", "postcode": "M2 7HQ", "telephone": 1618342627.0, "website": null, "area_name": "Manchester", "area_code": "E0800003" }, "geometry": { "type": "Point", "coordinates": [ -2.245837, 53.482236 ] } },
{ "type": "Feature", "properties": { "name": "Parsonage Dental Practice", "type": "Dentist", "address": "1B Parsonage Street, Hulme, Manchester", "postcode": "M15 5WD", "telephone": 1612277570.0, "website": null, "area_name": "Manchester", "area_code": "E0800003" }, "geometry": { "type": "Point", "coordinates": [ -2.251229, 53.460942 ] } },
{ "type": "Feature", "properties": { "name": "Park Dental Practice", "type": "Dentist", "address": "191 Bury Old Road, Prestwich, Manchester", "postcode": "M25 1JF", "telephone": 7988163461.0, "website": null, "area_name": "Bury", "area_code": "E0800002" }, "geometry": { "type": "Point", "coordinates": [ -2.266414, 53.529183 ] } },
{ "type": "Feature", "properties": { "name": "K.L.M. Dental", "type": "Dentist", "address": "Croft Shifa Health Centre, Belfield Road, Rochdale", "postcode": "OL16 2UP", "telephone": 7594170746.0, "website": null, "area_name": "Rochdale", "area_code": "E0800005" }, "geometry": { "type": "Point", "coordinates": [ -2.14084, 53.622824 ] } },
{ "type": "Feature", "properties": { "name": "Mile Lane Dental Practice", "type": "Dentist", "address": "Mile Lane Health Centre, 80 Mile Lane, Bury", "postcode": "BL8 2JR", "telephone": 1617617550.0, "website": "http:\/\/www.milelanedentalpractice.co.uk", "area_name": "Bury", "area_code": "E0800002" }, "geometry": { "type": "Point", "coordinates": [ -2.335248, 53.587814 ] } },
{ "type": "Feature", "properties": { "name": "Horwich Dental Practice", "type": "Dentist", "address": "19-21 Winter Hey Lane, Horwich, Bolton", "postcode": "BL6 7AD", "telephone": 1204468210.0, "website": null, "area_name": "Bolton", "area_code": "E0800001" }, "geometry": { "type": "Point", "coordinates": [ -2.547054, 53.599391 ] } },
{ "type": "Feature", "properties": { "name": "Dr I Saleem and Colleagues", "type": "Dentist", "address": "566 Stockport Road, Longsight, Manchester", "postcode": "M12 4JJ", "telephone": 1612256944.0, "website": null, "area_name": "Manchester", "area_code": "E0800003" }, "geometry": { "type": "Point", "coordinates": [ -2.200799, 53.456858 ] } },
{ "type": "Feature", "properties": { "name": "City Centre Dentist", "type": "Dentist", "address": "3rd Floor, 20 St Anns Square, Manchester", "postcode": "M2 7HG", "telephone": 1618341643.0, "website": null, "area_name": "Manchester", "area_code": "E0800003" }, "geometry": { "type": "Point", "coordinates": [ -2.246198, 53.48219 ] } },
{ "type": "Feature", "properties": { "name": "Re-Enhance Limited", "type": "Clinic|Dentist", "address": "Progress House, 17 Cecil Road, Hale, Altrincham", "postcode": "WA15 9NZ", "telephone": 1619299530.0, "website": null, "area_name": "Trafford", "area_code": "E0800009" }, "geometry": { "type": "Point", "coordinates": [ -2.346183, 53.376688 ] } },
{ "type": "Feature", "properties": { "name": "Manchester Dental Practice", "type": "Dentist", "address": "34 High Street, Manchester", "postcode": "M4 1QB", "telephone": 1618330704.0, "website": null, "area_name": "Manchester", "area_code": "E0800003" }, "geometry": { "type": "Point", "coordinates": [ -2.238969, 53.482789 ] } },
{ "type": "Feature", "properties": { "name": "City Centre Dentist", "type": "Dentist", "address": "3rd Floor, 20 St Anns Square, Manchester", "postcode": "M2 7HG", "telephone": 1618341643.0, "website": null, "area_name": "Manchester", "area_code": "E0800003" }, "geometry": { "type": "Point", "coordinates": [ -2.246198, 53.48219 ] } },
{ "type": "Feature", "properties": { "name": "dental.care@62", "type": "Dentist", "address": "62 Market Street, Marple, Stockport", "postcode": "SK6 7AD", "telephone": 1612210062.0, "website": "http:\/\/www.dentalcare62.com", "area_name": "Stockport", "area_code": "E0800007" }, "geometry": { "type": "Point", "coordinates": [ -2.0639, 53.393685 ] } },
{ "type": "Feature", "properties": { "name": "Denton Orthodontic Centre Limited", "type": "Dentist", "address": "1 Walker Street, Denton, Manchester", "postcode": "M34 3LH", "telephone": 1613364075.0, "website": "http:\/\/www.dentonorthodontics.co.uk", "area_name": "Tameside", "area_code": "E0800008" }, "geometry": { "type": "Point", "coordinates": [ -2.114989, 53.457025 ] } },
{ "type": "Feature", "properties": { "name": "Gidlow Dental Surgery", "type": "Dentist", "address": "328 Gidlow Lane, Wigan", "postcode": "WN6 7PJ", "telephone": 1942824167.0, "website": null, "area_name": "Wigan", "area_code": "E08000010" }, "geometry": { "type": "Point", "coordinates": [ -2.64478, 53.557009 ] } },
{ "type": "Feature", "properties": { "name": "Victoria Dental & Healthcare", "type": "Doctors\/GPs|Dentist|Doctors\/GPs", "address": "109 Corporation Street, Manchester", "postcode": "M4 4DX", "telephone": 1618324153.0, "website": null, "area_name": "Manchester", "area_code": "E0800003" }, "geometry": { "type": "Point", "coordinates": [ -2.23974, 53.488227 ] } },
{ "type": "Feature", "properties": { "name": "Eye and Dental Clinic", "type": "Doctors\/GPs|Dentist|Doctors\/GPs", "address": "110 Ainsworth Road, Bury", "postcode": "BL8 2RS", "telephone": 1612225730.0, "website": null, "area_name": "Bury", "area_code": "E0800002" }, "geometry": { "type": "Point", "coordinates": [ -2.318773, 53.592667 ] } },
{ "type": "Feature", "properties": { "name": "SimplyOne Dental Droylsden", "type": "Dentist", "address": "36 Queens Walk, Droylsden, Manchester", "postcode": "M43 7AD", "telephone": 7050013222.0, "website": "http:\/\/www.simplyonedental.com", "area_name": "Tameside", "area_code": "E0800008" }, "geometry": { "type": "Point", "coordinates": [ -2.14606, 53.480045 ] } },
{ "type": "Feature", "properties": { "name": "Ashton-in-Makerfield", "type": "Dentist", "address": "19 Wigan Road, Ashton-in-Makerfield, Wigan", "postcode": "WN4 9AR", "telephone": 1942271827.0, "website": null, "area_name": "Wigan", "area_code": "E08000010" }, "geometry": { "type": "Point", "coordinates": [ -2.637556, 53.488211 ] } },
{ "type": "Feature", "properties": { "name": "KS Dental Care Limited", "type": "Dentist", "address": "331 Washway Road, Sale", "postcode": "M33 4EE", "telephone": 1619732753.0, "website": null, "area_name": "Trafford", "area_code": "E0800009" }, "geometry": { "type": "Point", "coordinates": [ -2.337966, 53.413385 ] } },
{ "type": "Feature", "properties": { "name": "Edenfield Dental Care", "type": "Dentist", "address": "386 Edenfield Road, Rochdale", "postcode": "OL12 7NH", "telephone": 1706644301.0, "website": null, "area_name": "Rochdale", "area_code": "E0800005" }, "geometry": { "type": "Point", "coordinates": [ -2.188087, 53.622956 ] } },
{ "type": "Feature", "properties": { "name": "Hale Dental Clinic", "type": "Dentist", "address": "163a Ashley Road, Hale, Altrincham", "postcode": "WA15 9SD", "telephone": 8456046448.0, "website": null, "area_name": "Trafford", "area_code": "E0800009" }, "geometry": { "type": "Point", "coordinates": [ -2.346371, 53.377613 ] } },
{ "type": "Feature", "properties": { "name": "S Ward Dental Practice", "type": "Dentist", "address": "Stamford Road, Mossley, Ashton-under-lyne", "postcode": "OL5 0BA", "telephone": 1618338444.0, "website": null, "area_name": "Tameside", "area_code": "E0800008" }, "geometry": { "type": "Point", "coordinates": [ -2.042293, 53.516163 ] } },
{ "type": "Feature", "properties": { "name": "IMI Manchester", "type": "Dentist", "address": "13 Stanley Street, Manchester", "postcode": "M8 8SH", "telephone": 1134408770.0, "website": null, "area_name": "Manchester", "area_code": "E0800003" }, "geometry": { "type": "Point", "coordinates": [ -2.236925, 53.494631 ] } },
{ "type": "Feature", "properties": { "name": "Knowsley Dental", "type": "Dentist", "address": "37 Knowsley Street, Bury", "postcode": "BL9 0ST", "telephone": 1617641089.0, "website": null, "area_name": "Bury", "area_code": "E0800002" }, "geometry": { "type": "Point", "coordinates": [ -2.300551, 53.588497 ] } },
{ "type": "Feature", "properties": { "name": "Romiley Dental Practice", "type": "Dentist", "address": "91 Compstall Road, Romiley, Stockport", "postcode": "SK6 4HT", "telephone": null, "website": null, "area_name": "Stockport", "area_code": "E0800007" }, "geometry": { "type": "Point", "coordinates": [ -2.079925, 53.414826 ] } },
{ "type": "Feature", "properties": { "name": "Dental Surgery", "type": "Dentist", "address": "155 Kenyon Lane, Moston, Manchester", "postcode": "M40 9DJ", "telephone": 1617887757.0, "website": null, "area_name": "Manchester", "area_code": "E0800003" }, "geometry": { "type": "Point", "coordinates": [ -2.193737, 53.510277 ] } },
{ "type": "Feature", "properties": { "name": "Ashton Smile Clinic", "type": "Dentist", "address": "16 The Gerard Centre, Gerard Street, Ashton-in-makerfield, Wigan", "postcode": "WN4 9AN", "telephone": null, "website": null, "area_name": "Wigan", "area_code": "E08000010" }, "geometry": { "type": "Point", "coordinates": [ -2.636639, 53.486373 ] } },
{ "type": "Feature", "properties": { "name": "Smilestylist - House of Fraser Manchester", "type": "Dentist", "address": "98-116 Deansgate, Manchester", "postcode": "M3 2QG", "telephone": 7989356786.0, "website": "http:\/\/www.smilestylist.co.uk", "area_name": "Manchester", "area_code": "E0800003" }, "geometry": { "type": "Point", "coordinates": [ -2.247346, 53.482217 ] } },
{ "type": "Feature", "properties": { "name": "Burton Road Dental", "type": "Dentist", "address": "148a Burton Road, Manchester", "postcode": "M20 1LH", "telephone": 1614457311.0, "website": null, "area_name": "Manchester", "area_code": "E0800003" }, "geometry": { "type": "Point", "coordinates": [ -2.241957, 53.427658 ] } },
{ "type": "Feature", "properties": { "name": "New Moston Dental Centre", "type": "Dentist", "address": "209-211 Moston Lane East, Manchester", "postcode": "M40 3HY", "telephone": 1616812483.0, "website": "http:\/\/www.newmostondental.com", "area_name": "Manchester", "area_code": "E0800003" }, "geometry": { "type": "Point", "coordinates": [ -2.167759, 53.521994 ] } },
{ "type": "Feature", "properties": { "name": "Smiles Better", "type": "Dentist", "address": "243 Bury New Road, Whitefield, Manchester", "postcode": "M45 8QP", "telephone": 1617962404.0, "website": "http:\/\/www.theuksmilecentre.co.uk", "area_name": "Bury", "area_code": "E0800002" }, "geometry": { "type": "Point", "coordinates": [ -2.296823, 53.55231 ] } },
{ "type": "Feature", "properties": { "name": "Middleton Bank Dental", "type": "Dentist", "address": "1 Long Street, Middleton, Manchester", "postcode": "M24 6TE", "telephone": 7770629573.0, "website": null, "area_name": "Rochdale", "area_code": "E0800005" }, "geometry": { "type": "Point", "coordinates": [ -2.198281, 53.550142 ] } },
{ "type": "Feature", "properties": { "name": "Dental Surgery", "type": "Dentist", "address": "Dental Surgery, 71 Sandy Lane, Prestwich, Manchester", "postcode": "M25 9PS", "telephone": 1617732762.0, "website": null, "area_name": "Bury", "area_code": "E0800002" }, "geometry": { "type": "Point", "coordinates": [ -2.288298, 53.523642 ] } },
{ "type": "Feature", "properties": { "name": "Whitefield Orthodontic Clinic", "type": "Dentist", "address": "Orthodontic Practice, 208 Bury New Road, Whitefield, Manchester", "postcode": "M45 6GG", "telephone": 1617661366.0, "website": null, "area_name": "Bury", "area_code": "E0800002" }, "geometry": { "type": "Point", "coordinates": [ -2.294282, 53.549146 ] } },
{ "type": "Feature", "properties": { "name": "Deansgate Dental Practice", "type": "Dentist", "address": "3-5 Deansgate, Manchester", "postcode": "M26 2SH", "telephone": 1617258090.0, "website": "http:\/\/www.deansgatedental.com", "area_name": "Bury", "area_code": "E0800002" }, "geometry": { "type": "Point", "coordinates": [ -2.324757, 53.559581 ] } },
{ "type": "Feature", "properties": { "name": "Withers & Ripley Dental Surgery", "type": "Dentist", "address": "794 Bury Road, Breightment, Bolton", "postcode": "BL2 6PA", "telephone": 1204524046.0, "website": null, "area_name": "Bolton", "area_code": "E0800001" }, "geometry": { "type": "Point", "coordinates": [ -2.385653, 53.580678 ] } },
{ "type": "Feature", "properties": { "name": "214 Dental", "type": "Dentist", "address": "214 Victoria Avenue, Manchester", "postcode": "M9 0RR", "telephone": 7873200422.0, "website": null, "area_name": "Manchester", "area_code": "E0800003" }, "geometry": { "type": "Point", "coordinates": [ -2.224292, 53.533802 ] } },
{ "type": "Feature", "properties": { "name": "Crescent Dental Care", "type": "Dentist", "address": "2 Crescent Road, Hale, Altrincham", "postcode": "WA15 9NA", "telephone": 1619298111.0, "website": "http:\/\/www.crescentdentalcare-hale.co.uk", "area_name": "Trafford", "area_code": "E0800009" }, "geometry": { "type": "Point", "coordinates": [ -2.343866, 53.374573 ] } },
{ "type": "Feature", "properties": { "name": "Gartside Street Dental Lounge", "type": "Dentist", "address": "74 Gartside Street, Manchester", "postcode": "M3 3EL", "telephone": 1616600200.0, "website": null, "area_name": "Manchester", "area_code": "E0800003" }, "geometry": { "type": "Point", "coordinates": [ -2.253188, 53.479281 ] } },
{ "type": "Feature", "properties": { "name": "M.A. Dental Care", "type": "Dentist", "address": "394 Palatine Road, Manchester", "postcode": "M22 4FZ", "telephone": 783378919.0, "website": null, "area_name": "Manchester", "area_code": "E0800003" }, "geometry": { "type": "Point", "coordinates": [ -2.258392, 53.40782 ] } },
{ "type": "Feature", "properties": { "name": "Dental Surgery", "type": "Dentist", "address": "401-405, Halliwell Road, Bolton", "postcode": "BL1 8DE", "telephone": 1204491946.0, "website": "http:\/\/www.andrewbennison.co.uk", "area_name": "Bolton", "area_code": "E0800001" }, "geometry": { "type": "Point", "coordinates": [ -2.444339, 53.594271 ] } },
{ "type": "Feature", "properties": { "name": "Middleton Bank Dental", "type": "Dentist", "address": "1 Long Street, Middleton, Manchester", "postcode": "M24 6TE", "telephone": null, "website": null, "area_name": "Rochdale", "area_code": "E0800005" }, "geometry": { "type": "Point", "coordinates": [ -2.198281, 53.550142 ] } },
{ "type": "Feature", "properties": { "name": "Clarity Dental Clinic", "type": "Dentist", "address": "7 Sandy Lane, Chorlton-Cum-Hardy, Manchester", "postcode": "M21 8TL", "telephone": 1618816560.0, "website": "http:\/\/www.claritydentalclinic.co.uk", "area_name": "Manchester", "area_code": "E0800003" }, "geometry": { "type": "Point", "coordinates": [ -2.273708, 53.438763 ] } },
{ "type": "Feature", "properties": { "name": "Brandlesholme Road Dental Practice", "type": "Dentist", "address": "400 Brandlesholme Road, Bury", "postcode": "BL8 1HP", "telephone": 1617052882.0, "website": null, "area_name": "Bury", "area_code": "E0800002" }, "geometry": { "type": "Point", "coordinates": [ -2.314626, 53.6099 ] } },
{ "type": "Feature", "properties": { "name": "Hope Dental Practice", "type": "Dentist", "address": "146 Eccles Old Road, Salford", "postcode": "M6 8QQ", "telephone": 8448565546.0, "website": "http:\/\/www.hopedentalpractice.co.uk", "area_name": "Salford", "area_code": "E0800006" }, "geometry": { "type": "Point", "coordinates": [ -2.309912, 53.49256 ] } },
{ "type": "Feature", "properties": { "name": "Atherton Dental Centre", "type": "Dentist", "address": "52 Market Street, Atherton, Manchester", "postcode": "M46 0DP", "telephone": 1942889931.0, "website": null, "area_name": "Wigan", "area_code": "E08000010" }, "geometry": { "type": "Point", "coordinates": [ -2.494505, 53.523613 ] } },
{ "type": "Feature", "properties": { "name": "Cavendish Dental Surgery", "type": "Dentist", "address": "117 Chester Road, Hazel Grove, Stockport", "postcode": "SK7 6HG", "telephone": 1625878750.0, "website": null, "area_name": "Stockport", "area_code": "E0800007" }, "geometry": { "type": "Point", "coordinates": [ -2.123103, 53.372713 ] } },
{ "type": "Feature", "properties": { "name": "Pendlebury Dental Centre", "type": "Dentist", "address": "Dental Surgery, 661 Bolton Road, Pendlebury, Swinton, Manchester", "postcode": "M27 4EJ", "telephone": 1617943540.0, "website": "http:\/\/www.smartdentalcare.co.uk", "area_name": "Salford", "area_code": "E0800006" }, "geometry": { "type": "Point", "coordinates": [ -2.330335, 53.517691 ] } },
{ "type": "Feature", "properties": { "name": "Astley Dental Centre", "type": "Dentist", "address": "396 Manchester Road, Astley, Tyldesley, Manchester", "postcode": "M29 7DY", "telephone": 1942882070.0, "website": "http:\/\/www.smartdentalcare.co.uk", "area_name": "Wigan", "area_code": "E08000010" }, "geometry": { "type": "Point", "coordinates": [ -2.460604, 53.499157 ] } },
{ "type": "Feature", "properties": { "name": "Trafford Dental Centre", "type": "Dentist", "address": "86 Davyhulme Road East, Stretford, Manchester", "postcode": "M32 0DJ", "telephone": 1618654629.0, "website": "http:\/\/www.smartdentalcare.co.uk", "area_name": "Trafford", "area_code": "E0800009" }, "geometry": { "type": "Point", "coordinates": [ -2.309059, 53.451988 ] } },
{ "type": "Feature", "properties": { "name": "Mr Tariq Idrees - Carisbrook", "type": "Dentist", "address": "6 Knowsley Road, Whitefield, Manchester", "postcode": "M45 6BF", "telephone": 1617664906.0, "website": "http:\/\/www.carisbrookdental.co.uk", "area_name": "Bury", "area_code": "E0800002" }, "geometry": { "type": "Point", "coordinates": [ -2.293374, 53.546541 ] } },
{ "type": "Feature", "properties": { "name": "The Heaton Mersey Dental Practice", "type": "Dentist", "address": "418 Didsbury Road, Stockport", "postcode": "SK4 3BY", "telephone": 1614426869.0, "website": null, "area_name": "Stockport", "area_code": "E0800007" }, "geometry": { "type": "Point", "coordinates": [ -2.202232, 53.412883 ] } },
{ "type": "Feature", "properties": { "name": "Tyldesley Dental Centre", "type": "Dentist", "address": "219 Elliott Street, Tyldesley, Manchester", "postcode": "M29 8DG", "telephone": 1942882151.0, "website": null, "area_name": "Wigan", "area_code": "E08000010" }, "geometry": { "type": "Point", "coordinates": [ -2.463798, 53.514191 ] } },
{ "type": "Feature", "properties": { "name": "Turncroft Dental Practice", "type": "Dentist", "address": "30 Turncroft Lane, Offerton, Stockport", "postcode": "SK1 4AB", "telephone": 1614803822.0, "website": null, "area_name": "Stockport", "area_code": "E0800007" }, "geometry": { "type": "Point", "coordinates": [ -2.146163, 53.408974 ] } },
{ "type": "Feature", "properties": { "name": "Better Dental Ltd", "type": "Dentist", "address": "758 Manchester Road, Rochdale", "postcode": "OL11 3AW", "telephone": 1706352348.0, "website": null, "area_name": "Rochdale", "area_code": "E0800005" }, "geometry": { "type": "Point", "coordinates": [ -2.180229, 53.592559 ] } },
{ "type": "Feature", "properties": { "name": "Synergy Dental Clinic", "type": "Dentist", "address": "274 Blackburn Road, Bolton", "postcode": "BL1 8DT", "telephone": 1204522090.0, "website": null, "area_name": "Bolton", "area_code": "E0800001" }, "geometry": { "type": "Point", "coordinates": [ -2.430727, 53.592919 ] } },
{ "type": "Feature", "properties": { "name": "Kirkholt Dental Centre", "type": "Dentist", "address": "6-7 The Strand, Kirkholt, Rochdale", "postcode": "OL11 2JG", "telephone": 1706352319.0, "website": null, "area_name": "Rochdale", "area_code": "E0800005" }, "geometry": { "type": "Point", "coordinates": [ -2.156245, 53.593988 ] } },
{ "type": "Feature", "properties": { "name": "Mydentist - St.Marys Place - Bury", "type": "Dentist", "address": "2 St. Marys Place, Bury", "postcode": "BL9 0DZ", "telephone": 1617644151.0, "website": "http:\/\/www.mydentist.co.uk", "area_name": "Bury", "area_code": "E0800002" }, "geometry": { "type": "Point", "coordinates": [ -2.300288, 53.591547 ] } },
{ "type": "Feature", "properties": { "name": "MyDentist - Ripponden Road - Oldham", "type": "Dentist", "address": "177 Littlemoor Lane, Oldham", "postcode": "OL4 2SF", "telephone": 1616248551.0, "website": "http:\/\/www.mydentist.co.uk", "area_name": "Oldham", "area_code": "E0800004" }, "geometry": { "type": "Point", "coordinates": [ -2.085195, 53.552093 ] } },
{ "type": "Feature", "properties": { "name": "MyDentist - Atherton Road - Hindley", "type": "Dentist", "address": "51 Atherton Road, Hindley, Wigan", "postcode": "WN2 3EA", "telephone": 1942258888.0, "website": "http:\/\/www.mydentist.co.uk", "area_name": "Wigan", "area_code": "E08000010" }, "geometry": { "type": "Point", "coordinates": [ -2.57969, 53.532885 ] } },
{ "type": "Feature", "properties": { "name": "MyDentist - Crab Tree Lane - Manchester", "type": "Dentist", "address": "17 Crab Tree Lane, Atherton, Manchester", "postcode": "M46 0AU", "telephone": 1942883103.0, "website": "http:\/\/www.mydentist.co.uk", "area_name": "Wigan", "area_code": "E08000010" }, "geometry": { "type": "Point", "coordinates": [ -2.491323, 53.52235 ] } },
{ "type": "Feature", "properties": { "name": "Mydentist -Advanced Oral Health Care - Red Rose - Wigan", "type": "Dentist", "address": "50 New Market Street, Wigan", "postcode": "WN1 1SJ", "telephone": 1942242632.0, "website": "http:\/\/www.mydentist.co.uk", "area_name": "Wigan", "area_code": "E08000010" }, "geometry": { "type": "Point", "coordinates": [ -2.631877, 53.550202 ] } },
{ "type": "Feature", "properties": { "name": "Mydentist - Moor Road - Orrell", "type": "Dentist", "address": "7 Moor Road, Orrell, Wigan", "postcode": "WN5 8ND", "telephone": 1942215091.0, "website": "http:\/\/www.mydentist.co.uk", "area_name": "Wigan", "area_code": "E08000010" }, "geometry": { "type": "Point", "coordinates": [ -2.704943, 53.53925 ] } },
{ "type": "Feature", "properties": { "name": "Mydentist - Manchester Road - Oldham", "type": "Dentist", "address": "580 Manchester Road, Oldham", "postcode": "OL9 7LS", "telephone": 1616811022.0, "website": "http:\/\/www.mydentist.co.uk", "area_name": "Oldham", "area_code": "E0800004" }, "geometry": { "type": "Point", "coordinates": [ -2.143803, 53.520731 ] } },
{ "type": "Feature", "properties": { "name": "Mydentist - Church Street - Eccles", "type": "Dentist", "address": "107 Church Street, Eccles, Manchester", "postcode": "M30 0EJ", "telephone": 1617889815.0, "website": null, "area_name": "Salford", "area_code": "E0800006" }, "geometry": { "type": "Point", "coordinates": [ -2.338336, 53.482659 ] } },
{ "type": "Feature", "properties": { "name": "Mydentist - High Street - Cheadle", "type": "Dentist", "address": "19a, High Street, Cheadle", "postcode": "SK8 1AX", "telephone": 1614911936.0, "website": null, "area_name": "Stockport", "area_code": "E0800007" }, "geometry": { "type": "Point", "coordinates": [ -2.214146, 53.394733 ] } },
{ "type": "Feature", "properties": { "name": "Gatley Park Dental Practice", "type": "Dentist", "address": "7 Northenden Road, Gatley, Cheadle", "postcode": "SK8 4EN", "telephone": 1614283484.0, "website": null, "area_name": "Stockport", "area_code": "E0800007" }, "geometry": { "type": "Point", "coordinates": [ -2.235639, 53.39267 ] } },
{ "type": "Feature", "properties": { "name": "Didsbury Dental Practice", "type": "Dentist", "address": "90 Barlow Moor Road, Manchester", "postcode": "M20 2PN", "telephone": 1614450005.0, "website": "http:\/\/www.emergencydentistmanchester.com", "area_name": "Manchester", "area_code": "E0800003" }, "geometry": { "type": "Point", "coordinates": [ -2.242719, 53.421347 ] } },
{ "type": "Feature", "properties": { "name": "Mydentist - Heaton Moor Road  Stockport", "type": "Dentist", "address": "162 Heaton Moor Road, Stockport", "postcode": "SK4 4HS", "telephone": 1614327400.0, "website": "http:\/\/www.mydentist.co.uk", "area_name": "Stockport", "area_code": "E0800007" }, "geometry": { "type": "Point", "coordinates": [ -2.188975, 53.419053 ] } },
{ "type": "Feature", "properties": { "name": "Mydentist - Standishgate - Wigan", "type": "Dentist", "address": "100 Standishgate, Wigan", "postcode": "WN1 1XP", "telephone": 1942242620.0, "website": "http:\/\/www.mydentist.co.uk", "area_name": "Wigan", "area_code": "E08000010" }, "geometry": { "type": "Point", "coordinates": [ -2.628308, 53.550802 ] } },
{ "type": "Feature", "properties": { "name": "Mydentist - Lees Road - Oldham", "type": "Dentist", "address": "341 Lees Road, Oldham", "postcode": "OL4 1LR", "telephone": 1616247817.0, "website": null, "area_name": "Oldham", "area_code": "E0800004" }, "geometry": { "type": "Point", "coordinates": [ -2.088612, 53.540163 ] } },
{ "type": "Feature", "properties": { "name": "Mydentist - Parsonage Street - Bury", "type": "Dentist", "address": "1-5 Parsonage Street, Bury", "postcode": "BL9 6BG", "telephone": 1617643993.0, "website": "http:\/\/www.mydentist.co.uk", "area_name": "Bury", "area_code": "E0800002" }, "geometry": { "type": "Point", "coordinates": [ -2.28154, 53.59657 ] } },
{ "type": "Feature", "properties": { "name": "Mydentist - Market Street - Shaw", "type": "Dentist", "address": "56 Market Street, Shaw, Oldham", "postcode": "OL2 8NH", "telephone": 1706843637.0, "website": "http:\/\/www.mydentist.co.uk", "area_name": "Oldham", "area_code": "E0800004" }, "geometry": { "type": "Point", "coordinates": [ -2.093915, 53.577083 ] } },
{ "type": "Feature", "properties": { "name": "Northern Orthodontics", "type": "Dentist", "address": "193 Old Street, Ashton-under-lyne", "postcode": "OL6 7SR", "telephone": null, "website": null, "area_name": "Tameside", "area_code": "E0800008" }, "geometry": { "type": "Point", "coordinates": [ -2.099981, 53.485827 ] } },
{ "type": "Feature", "properties": { "name": "M Russell Dental Practice", "type": "Dentist", "address": "329 Wellington Road North, Stockport", "postcode": "SK4 4QG", "telephone": 1614324768.0, "website": null, "area_name": "Stockport", "area_code": "E0800007" }, "geometry": { "type": "Point", "coordinates": [ -2.178678, 53.428964 ] } },
{ "type": "Feature", "properties": { "name": "Mandley Park Dental Practice", "type": "Dentist", "address": "494 Great Cheetham Street East, Salford", "postcode": "M7 4TW", "telephone": 1617923783.0, "website": null, "area_name": "Salford", "area_code": "E0800006" }, "geometry": { "type": "Point", "coordinates": [ -2.250986, 53.506478 ] } },
{ "type": "Feature", "properties": { "name": "Croft Shifa Dental Practice", "type": "Dentist", "address": "Croft Shifa Health Centre, Belfield Road, Rochdale", "postcode": "OL16 2UY", "telephone": 1706764738.0, "website": null, "area_name": "Rochdale", "area_code": "E0800005" }, "geometry": { "type": "Point", "coordinates": [ -2.138254, 53.622746 ] } },
{ "type": "Feature", "properties": { "name": "Long Lane Dental Practice", "type": "Dentist", "address": "176 Wilmslow Road, Heald Green, Cheadle", "postcode": "SK8 3BG", "telephone": 1614371594.0, "website": null, "area_name": "Stockport", "area_code": "E0800007" }, "geometry": { "type": "Point", "coordinates": [ -2.217195, 53.370521 ] } },
{ "type": "Feature", "properties": { "name": "Talking Teeth Dental Practice", "type": "Dentist", "address": "56 Ince Green Lane, Ince, Wigan", "postcode": "WN2 2AR", "telephone": 1942323058.0, "website": null, "area_name": "Wigan", "area_code": "E08000010" }, "geometry": { "type": "Point", "coordinates": [ -2.606525, 53.542178 ] } },
{ "type": "Feature", "properties": { "name": "Goose Green Dental", "type": "Dentist", "address": "5 Goose Green, Altrincham", "postcode": "WA14 1DW", "telephone": 1619284882.0, "website": null, "area_name": "Trafford", "area_code": "E0800009" }, "geometry": { "type": "Point", "coordinates": [ -2.350554, 53.385457 ] } },
{ "type": "Feature", "properties": { "name": "Fusion Dental Practice", "type": "Dentist", "address": "98 Mauldeth Road West, Withington, Manchester", "postcode": "M20 1AB", "telephone": 1614346239.0, "website": null, "area_name": "Manchester", "area_code": "E0800003" }, "geometry": { "type": "Point", "coordinates": [ -2.232612, 53.438724 ] } },
{ "type": "Feature", "properties": { "name": "Roch Valley Dental", "type": "Dentist", "address": "23 Roch Valley Way, Rochdale", "postcode": "OL11 4PZ", "telephone": 1706524469.0, "website": null, "area_name": "Rochdale", "area_code": "E0800005" }, "geometry": { "type": "Point", "coordinates": [ -2.173938, 53.605199 ] } },
{ "type": "Feature", "properties": { "name": "Fogg & Whittingham Dental Surgeons", "type": "Dentist", "address": "Dental Surgery, 117 Long Street, Middleton, Manchester", "postcode": "M24 6DL", "telephone": 1616432176.0, "website": null, "area_name": "Rochdale", "area_code": "E0800005" }, "geometry": { "type": "Point", "coordinates": [ -2.197033, 53.554038 ] } },
{ "type": "Feature", "properties": { "name": "Brooks Bar Dental Practice", "type": "Dentist", "address": "176 Chorlton Road, Manchester", "postcode": "M16 7WW", "telephone": 1612262841.0, "website": null, "area_name": "Trafford", "area_code": "E0800009" }, "geometry": { "type": "Point", "coordinates": [ -2.258524, 53.459478 ] } },
{ "type": "Feature", "properties": { "name": "Stretford Road Dental Practice", "type": "Dentist", "address": "13 Stretford Road, Urmston, Manchester", "postcode": "M41 9JY", "telephone": 1617475375.0, "website": null, "area_name": "Trafford", "area_code": "E0800009" }, "geometry": { "type": "Point", "coordinates": [ -2.351459, 53.445957 ] } },
{ "type": "Feature", "properties": { "name": "The Broadway Dental Practice", "type": "Dentist", "address": "449 Broadway, Chadderton, Oldham", "postcode": "OL9 8AP", "telephone": 1616811187.0, "website": null, "area_name": "Oldham", "area_code": "E0800004" }, "geometry": { "type": "Point", "coordinates": [ -2.157195, 53.528606 ] } },
{ "type": "Feature", "properties": { "name": "Talking Teeth Dental Practice", "type": "Dentist", "address": "6 Scot Lane, Aspull, Wigan", "postcode": "WN2 1YX", "telephone": 1942833595.0, "website": null, "area_name": "Wigan", "area_code": "E08000010" }, "geometry": { "type": "Point", "coordinates": [ -2.58361, 53.570015 ] } },
{ "type": "Feature", "properties": { "name": "Bamford Dental Practice", "type": "Dentist", "address": "Norden Road, Bamford, Rochdale", "postcode": "OL11 5PT", "telephone": 1706860831.0, "website": "http:\/\/www.bamforddental.co.uk", "area_name": "Rochdale", "area_code": "E0800005" }, "geometry": { "type": "Point", "coordinates": [ -2.206315, 53.615745 ] } },
{ "type": "Feature", "properties": { "name": "High Street Smiles - Golborne", "type": "Dentist", "address": "107-109 High Street, Golborne, Warrington", "postcode": "WA3 3BZ", "telephone": 1942726983.0, "website": "http:\/\/www.highstreetsmiles.com", "area_name": "Wigan", "area_code": "E08000010" }, "geometry": { "type": "Point", "coordinates": [ -2.596079, 53.477399 ] } },
{ "type": "Feature", "properties": { "name": "Dental Hospital Manchester", "type": "Clinic|Dentist", "address": "University Dental Hospital Of Manchester, Higher Cambridge Street, Manchester", "postcode": "M15 6FH", "telephone": 1613937730.0, "website": "http:\/\/www.cmft.nhs.uk", "area_name": "Manchester", "area_code": "E0800003" }, "geometry": { "type": "Point", "coordinates": [ -2.236704, 53.465385 ] } },
{ "type": "Feature", "properties": { "name": "Wythenshawe Hospital", "type": "Hospital|Blood and transplant service|Dentist|Rehabilitation (illness\/injury)|Urgent care centres", "address": "Southmoor Road, Manchester", "postcode": "M23 9LT", "telephone": 1619987070.0, "website": "http:\/\/www.uhsm.nhs.uk\/", "area_name": "Manchester", "area_code": "E0800003" }, "geometry": { "type": "Point", "coordinates": [ -2.293183, 53.387922 ] } },
{ "type": "Feature", "properties": { "name": "The Cornerstone Centre", "type": "Community services - Healthcare|Dentist", "address": "Dental Department, 2 Graham Street, Manchester", "postcode": "M11 3AA", "telephone": 1612302200.0, "website": "http:\/\/www.cmft.nhs.uk", "area_name": "Manchester", "area_code": "E0800003" }, "geometry": { "type": "Point", "coordinates": [ -2.195097, 53.474422 ] } },
{ "type": "Feature", "properties": { "name": "Longsight Health Centre", "type": "Community services - Healthcare|Dentist", "address": "Dental Department, 526-528 Stockport Road, Manchester", "postcode": "M13 0RR", "telephone": 1612259274.0, "website": "http:\/\/www.cmft.nhs.uk", "area_name": "Manchester", "area_code": "E0800003" }, "geometry": { "type": "Point", "coordinates": [ -2.201887, 53.457584 ] } },
{ "type": "Feature", "properties": { "name": "Moss Side Health Centre", "type": "Community services - Healthcare|Dentist", "address": "Dental Department, Monton Street, Manchester", "postcode": "M14 4GP", "telephone": 1612265031.0, "website": "http:\/\/www.cmft.nhs.uk", "area_name": "Manchester", "area_code": "E0800003" }, "geometry": { "type": "Point", "coordinates": [ -2.23745, 53.45875 ] } },
{ "type": "Feature", "properties": { "name": "Withington Community Clinic", "type": "Community services - Healthcare|Dentist", "address": "Dental Department, 535 Wilmslow Road, Manchester", "postcode": "M20 4BA", "telephone": 1614451555.0, "website": "http:\/\/www.cmft.nhs.uk", "area_name": "Manchester", "area_code": "E0800003" }, "geometry": { "type": "Point", "coordinates": [ -2.228386, 53.431029 ] } },
{ "type": "Feature", "properties": { "name": "Wythenshawe Forum", "type": "Community services - Healthcare|Dentist", "address": "Dental Department, Forum Square, Wythenshawe, Manchester", "postcode": "M22 5RX", "telephone": 1614353695.0, "website": "http:\/\/www.cmft.nhs.uk", "area_name": "Manchester", "area_code": "E0800003" }, "geometry": { "type": "Point", "coordinates": [ -2.265017, 53.379925 ] } },
{ "type": "Feature", "properties": { "name": "Newton Heath Health Centre", "type": "Community services - Healthcare|Dentist", "address": "Dental Department, 2 Old Church Street, Manchester", "postcode": "M40 2JF", "telephone": 1616811353.0, "website": "http:\/\/www.cmft.nhs.uk", "area_name": "Manchester", "area_code": "E0800003" }, "geometry": { "type": "Point", "coordinates": [ -2.181199, 53.500995 ] } },
{ "type": "Feature", "properties": { "name": "Harpurhey Health Clinic", "type": "Community services - Healthcare|Dentist", "address": "Dental Department, 1 Church Lane, Manchester", "postcode": "M9 4BE", "telephone": 1618614200.0, "website": "http:\/\/www.cmft.nhs.uk", "area_name": "Manchester", "area_code": "E0800003" }, "geometry": { "type": "Point", "coordinates": [ -2.213622, 53.512042 ] } },
{ "type": "Feature", "properties": { "name": "Brownley Green Health Centre", "type": "Community services - Healthcare|Dentist", "address": "Dental Department, Brownley Road, Manchester", "postcode": "M22 4GA", "telephone": 1612092600.0, "website": "http:\/\/www.cmft.nhs.uk", "area_name": "Manchester", "area_code": "E0800003" }, "geometry": { "type": "Point", "coordinates": [ -2.256686, 53.391916 ] } },
{ "type": "Feature", "properties": { "name": "Plant Hill Clinic", "type": "Community services - Healthcare|Dentist", "address": "Dental Department, Plant Hill Road, Manchester", "postcode": "M9 8LX", "telephone": 1617408004.0, "website": "http:\/\/www.cmft.nhs.uk", "area_name": "Manchester", "area_code": "E0800003" }, "geometry": { "type": "Point", "coordinates": [ -2.225566, 53.526885 ] } },
{ "type": "Feature", "properties": { "name": "Pendleton Gateway", "type": "Community services - Healthcare|Dentist|Long-term conditions", "address": "1 Broadwalk, Salford", "postcode": "M6 5FX", "telephone": null, "website": null, "area_name": "Salford", "area_code": "E0800006" }, "geometry": { "type": "Point", "coordinates": [ -2.284742, 53.488361 ] } },
{ "type": "Feature", "properties": { "name": "Walkden Gateway", "type": "Community services - Healthcare|Dentist|Long-term conditions", "address": "2 Smith Street, Walkden, Salford", "postcode": "M28 3EZ", "telephone": null, "website": "http:\/\/www.srht.nhs.uk", "area_name": "Salford", "area_code": "E0800006" }, "geometry": { "type": "Point", "coordinates": [ -2.398541, 53.524898 ] } },
{ "type": "Feature", "properties": { "name": "Eccles Gateway", "type": "Community services - Healthcare|Dentist|Long-term conditions", "address": "28 Barton Lane, Eccles, Manchester", "postcode": "M30 0TU", "telephone": null, "website": "http:\/\/www.srht.nhs.uk", "area_name": "Salford", "area_code": "E0800006" }, "geometry": { "type": "Point", "coordinates": [ -2.339314, 53.48253 ] } },
{ "type": "Feature", "properties": { "name": "Barton Moss Secure Childrens Home", "type": "Dentist", "address": "Barton Moss Secure Care Centre, Barton Moss Road, Chat Moss, Eccles, Manchester", "postcode": "M30 7RL", "telephone": 1616865900.0, "website": "http:\/\/www.srft.nhs.uk", "area_name": "Salford", "area_code": "E0800006" }, "geometry": { "type": "Point", "coordinates": [ -2.39687, 53.468834 ] } },
{ "type": "Feature", "properties": { "name": "Community Dental Department", "type": "Dentist", "address": "1st Floor, Orsdall Health Surgery, 118 Phoebe Street, Salford", "postcode": "M5 3PH", "telephone": 1612124755.0, "website": null, "area_name": "Salford", "area_code": "E0800006" }, "geometry": { "type": "Point", "coordinates": [ -2.280971, 53.473981 ] } },
{ "type": "Feature", "properties": { "name": "Walk in Centre", "type": "Community services - Healthcare|Dentist|Diagnosis\/screening|Community services - Mental Health|Rehabilitation (illness\/injury)|Community services - Substance abuse|Urgent care centres", "address": "Levers Chambers Centre for Health, Ashburner Street, Bolton", "postcode": "BL1 1SQ", "telephone": 1204462787.0, "website": "http:\/\/www.boltonhospitals.nhs.uk", "area_name": "Bolton", "area_code": "E0800001" }, "geometry": { "type": "Point", "coordinates": [ -2.431198, 53.576864 ] } },
{ "type": "Feature", "properties": { "name": "Moorgate Primary Care Centre", "type": "Community services - Healthcare|Dentist|Urgent care centres", "address": "22 Derby Way, Bury", "postcode": "BL9 0NJ", "telephone": 1616043000.0, "website": "http:\/\/www.penninecare.nhs.uk", "area_name": "Bury", "area_code": "E0800002" }, "geometry": { "type": "Point", "coordinates": [ -2.288591, 53.59553 ] } },
{ "type": "Feature", "properties": { "name": "Radcliffe Primary Care Centre", "type": "Dentist", "address": "69 Church Street West, Radcliffe, Manchester", "postcode": "M26 2SP", "telephone": 1614479866.0, "website": null, "area_name": "Bury", "area_code": "E0800002" }, "geometry": { "type": "Point", "coordinates": [ -2.323706, 53.560143 ] } },
{ "type": "Feature", "properties": { "name": "Integrated Care Centre", "type": "Dentist", "address": "New Radcliffe Street, Oldham", "postcode": "OL1 1NL", "telephone": null, "website": null, "area_name": "Oldham", "area_code": "E0800004" }, "geometry": { "type": "Point", "coordinates": [ -2.116945, 53.543824 ] } },
{ "type": "Feature", "properties": { "name": "Nye Bevan House", "type": "Dentist", "address": "Nye Bevan, Maclure Road, Rochdale", "postcode": "OL11 1DN", "telephone": 1706261830.0, "website": null, "area_name": "Rochdale", "area_code": "E0800005" }, "geometry": { "type": "Point", "coordinates": [ -2.154239, 53.611617 ] } },
{ "type": "Feature", "properties": { "name": "Phoenix Centre", "type": "Dentist", "address": "Church Street, Heywood", "postcode": "OL10 1LR", "telephone": 1706261952.0, "website": null, "area_name": "Rochdale", "area_code": "E0800005" }, "geometry": { "type": "Point", "coordinates": [ -2.218662, 53.592207 ] } },
{ "type": "Feature", "properties": { "name": "Whitehall Street Clinic", "type": "Dentist", "address": "Whitehall Street, Rochdale", "postcode": "OL12 0ND", "telephone": 1706764766.0, "website": null, "area_name": "Rochdale", "area_code": "E0800005" }, "geometry": { "type": "Point", "coordinates": [ -2.158351, 53.623808 ] } },
{ "type": "Feature", "properties": { "name": "HMP Buckley Hall", "type": "Dentist", "address": "Buckley Hall Road, Rochdale", "postcode": "OL12 9DP", "telephone": 1706514300.0, "website": null, "area_name": "Rochdale", "area_code": "E0800005" }, "geometry": { "type": "Point", "coordinates": [ -2.145054, 53.634962 ] } },
{ "type": "Feature", "properties": { "name": "Bridgewater CHCFT Leigh Walk In Centre", "type": "Community services - Healthcare|Doctors\/GPs|Dentist|Doctors\/GPs|Urgent care centres", "address": "Leigh Health Centre, The Avenue, Leigh", "postcode": "WN7 1HR", "telephone": 1942483453.0, "website": null, "area_name": "Wigan", "area_code": "E08000010" }, "geometry": { "type": "Point", "coordinates": [ -2.511455, 53.503236 ] } },
{ "type": "Feature", "properties": { "name": "Bridgewater CHCFT Bevan House", "type": "Community services - Healthcare|Doctors\/GPs|Dentist|Doctors\/GPs|Community services - Learning disabilities|Rehabilitation (illness\/injury)", "address": "17 Beecham Court, Pemberton Business Park, Smithy Brook Road, Wigan", "postcode": "WN3 6PR", "telephone": 1942482630.0, "website": null, "area_name": "Wigan", "area_code": "E08000010" }, "geometry": { "type": "Point", "coordinates": [ -2.658337, 53.528915 ] } },
{ "type": "Feature", "properties": { "name": "Bridgewater CHCFT Prestwich Dental Clinic", "type": "Dentist", "address": "Prestwich Hospital, Bury New Road, Prestwich, Manchester", "postcode": "M25 3BL", "telephone": 1617723879.0, "website": null, "area_name": "Bury", "area_code": "E0800002" }, "geometry": { "type": "Point", "coordinates": [ -2.291465, 53.536749 ] } },
{ "type": "Feature", "properties": { "name": "Bridgewater CHCFT HMP\/YOI Hindley", "type": "Dentist|Prison healthcare", "address": "Gibson Street, Bickershaw, Wigan", "postcode": "WN2 5TH", "telephone": null, "website": null, "area_name": "Wigan", "area_code": "E08000010" }, "geometry": { "type": "Point", "coordinates": [ -2.576949, 53.517752 ] } }
]
}
