{
"type": "FeatureCollection",
"crs": { "type": "name", "properties": { "name": "urn:ogc:def:crs:OGC:1.3:CRS84" } },
"features": [
{ "type": "Feature", "properties": { "provider": "Boots Uk Ltd (Altrincham)", "address": "Unit 8B Altrincham Retail Park, George Richards Way, Altrincham", "postcode": "WA14 5GR", "email": "6578.storemailbox@boots.com; jonathan-ken.hayes@boots.com", "telephone": "0161 928 5024", "status": 1, "precision": "Address and postcode", "notes": null, "marker-color": "#fc6721", "marker-size": "medium" }, "geometry": { "type": "Point", "coordinates": [ -2.3571949, 53.4002847 ] } },
{ "type": "Feature", "properties": { "provider": "Boots Uk Ltd (Canterbury)", "address": "179 Canterbury Road, Urmston", "postcode": "M41 0SE", "email": "pharmacy.services.dispensing@boots.co.uk or Ryan.Baistow@boots.com", "telephone": "0161 748 3016", "status": 1, "precision": "Address and postcode", "notes": null, "marker-color": "#fc6721", "marker-size": "medium" }, "geometry": { "type": "Point", "coordinates": [ -2.3447696, 53.4550798 ] } },
{ "type": "Feature", "properties": { "provider": "Boots Uk Ltd (Eden Sq)", "address": "Eden Square, Golden Way, Urmston", "postcode": "M41 0NA", "email": "1226.storemailbox@boots.com, Daniel.stanley@boots.com (manager), bethanpickup@gmail.com or bethan.pickup@boots.com", "telephone": "0161 748 2317", "status": 1, "precision": "Address and postcode", "notes": null, "marker-color": "#fc6721", "marker-size": "medium" }, "geometry": { "type": "Point", "coordinates": [ -2.3547181, 53.4492662 ] } },
{ "type": "Feature", "properties": { "provider": "Boots Uk Ltd (Stretford)", "address": "69 -72 The Mall, Stretford", "postcode": "M32 9BD", "email": "caroline.bailey@boots.com; 1157.storemailbox@boots.com  lauren.boardman@boots.com", "telephone": "0161 865 7062", "status": 1, "precision": "Address and postcode", "notes": null, "marker-color": "#fc6721", "marker-size": "medium" }, "geometry": { "type": "Point", "coordinates": [ -2.3108169, 53.4452064 ] } },
{ "type": "Feature", "properties": { "provider": "Broadheath Pharmacy (Loggerheads Pharmacy Ltd)", "address": "70 Manchester Road, Altrincham", "postcode": "WA14 4PJ", "email": "majidg82@hotmail.com or broadheathpharmacy@imaanhealthcare.com", "telephone": "0161 929 7144", "status": 1, "precision": "Address and postcode", "notes": null, "marker-color": "#fc6721", "marker-size": "medium" }, "geometry": { "type": "Point", "coordinates": [ -2.3520287, 53.395436 ] } },
{ "type": "Feature", "properties": { "provider": "Limelight Pharmacy (Prev. Brooks Bar Pharmacy)", "address": "162 - 164 Chorlton Road, Old Trafford", "postcode": "M16 7WW", "email": "dkmcc@hotmail.com brookesbarpharmacy@intrapharm.com", "telephone": "0161 226 4005", "status": 1, "precision": "Address and postcode", "notes": null, "marker-color": "#fc6721", "marker-size": "medium" }, "geometry": { "type": "Point", "coordinates": [ -2.2622713, 53.4610273 ] } },
{ "type": "Feature", "properties": { "provider": "Pathvalley Ltd TA Cohens Chemist (Hale)", "address": "177 Ashley Road, Hale, Altrincham", "postcode": "WA15 9SD", "email": "branch.326@mycohens.net", "telephone": "0161 928 1662", "status": 0, "precision": "Address and postcode", "notes": null, "marker-color": "#fc6721", "marker-size": "medium" }, "geometry": { "type": "Point", "coordinates": [ -2.3460907, 53.3774131 ] } },
{ "type": "Feature", "properties": { "provider": "Empire", "address": "122 Seymour Grove, Old Trafford, Manchester", "postcode": "M16 0FF", "email": "rx@empirepharmacy.co.uk \/ empirepharmacist@nhs.net", "telephone": "0161 258 6149", "status": 1, "precision": "Address and postcode", "notes": null, "marker-color": "#fc6721", "marker-size": "medium" }, "geometry": { "type": "Point", "coordinates": [ -2.2745777, 53.4563712 ] } },
{ "type": "Feature", "properties": { "provider": "Gorgemead TA Cohens (Bowdon Pharmacy)", "address": "6 Vale View, Vicarage Lane, Bowden", "postcode": "WA14 3BD", "email": "branch.531@mycohens.net", "telephone": "0161 929 9005", "status": 1, "precision": "Address and postcode", "notes": null, "marker-color": "#fc6721", "marker-size": "medium" }, "geometry": { "type": "Point", "coordinates": [ -2.3609196, 53.3721154 ] } },
{ "type": "Feature", "properties": { "provider": "GP Roberts Chemist Ltd", "address": "137 Ayres Road, Old Trafford, Manchester", "postcode": "M16 9WR", "email": "gprobertsltd@intrapharm.com", "telephone": "0161 872 1121", "status": 1, "precision": "Address and postcode", "notes": null, "marker-color": "#fc6721", "marker-size": "medium" }, "geometry": { "type": "Point", "coordinates": [ -2.2713664, 53.4578287 ] } },
{ "type": "Feature", "properties": { "provider": "Harrys' Pharmacy", "address": "92 Mitford Street, Stretford", "postcode": "M32 8AQ", "email": "Harryspharmacy@outlook.com", "telephone": "0161 865 6331", "status": 1, "precision": "Address and postcode", "notes": null, "marker-color": "#fc6721", "marker-size": "medium" }, "geometry": { "type": "Point", "coordinates": [ -2.312323, 53.4463283 ] } },
{ "type": "Feature", "properties": { "provider": "Hugall J Ltd (Alphega)", "address": "143 Northenden Road, Sale", "postcode": "M33 3HF", "email": "alan@johnhugallpharmacy.co.uk or alhugall03@hotmail.co.uk", "telephone": "0161 973 1056", "status": 1, "precision": "Address and postcode", "notes": null, "marker-color": "#fc6721", "marker-size": "medium" }, "geometry": { "type": "Point", "coordinates": [ -2.3037138, 53.419968700000013 ] } },
{ "type": "Feature", "properties": { "provider": "Lloyds Pharmacy (Broadway)", "address": "130 Broadway, Davyhulme, Manchester", "postcode": "M41 7WJ", "email": "LP6642@lloydspharmacy.co.uk", "telephone": "0161 748 2199", "status": 1, "precision": "Address and postcode", "notes": null, "marker-color": "#fc6721", "marker-size": "medium" }, "geometry": { "type": "Point", "coordinates": [ -2.3677805, 53.4591632 ] } },
{ "type": "Feature", "properties": { "provider": "Lloyds Pharmacy (Crofts Band Road)  CLOSED", "address": "3 Crofts Bank Road, Urmston", "postcode": "M41 0TZ", "email": "lp6341@lloydspharmacy.co.uk", "telephone": "0161 748 2966", "status": 0, "precision": "Address and postcode", "notes": null, "marker-color": "#fc6721", "marker-size": "medium" }, "geometry": { "type": "Point", "coordinates": [ -2.3532361, 53.4486731 ] } },
{ "type": "Feature", "properties": { "provider": "Lloyds Pharmacy (Grove Lane, Hale)", "address": "186-188 Grove Lane, Hale, Altrincham", "postcode": "WA15 8PU", "email": "lp6584@lloydspharmacy.co.uk", "telephone": "0161 980 2424", "status": 1, "precision": "Address and postcode", "notes": null, "marker-color": "#fc6721", "marker-size": "medium" }, "geometry": { "type": "Point", "coordinates": [ -2.313985, 53.3808894 ] } },
{ "type": "Feature", "properties": { "provider": "Malcolm's Pharmacy", "address": "28 Flixton Road, Urmston, Manchester", "postcode": "M41 5AA", "email": "info@malcolmspharmacy.co.uk", "telephone": "0161 747 2277", "status": 1, "precision": "Address and postcode", "notes": null, "marker-color": "#fc6721", "marker-size": "medium" }, "geometry": { "type": "Point", "coordinates": [ -2.3548352, 53.448519 ] } },
{ "type": "Feature", "properties": { "provider": "Oldfield Pharmacy", "address": "128 Seamons Road, Old field Brow, Altrincham", "postcode": "WA14 4LJ", "email": "oldfieldpharmacy@alliedpharmacies.com", "telephone": "0161 942 9701", "status": 1, "precision": "Address and postcode", "notes": null, "marker-color": "#fc6721", "marker-size": "medium" }, "geometry": { "type": "Point", "coordinates": [ -2.3711258, 53.3930652 ] } },
{ "type": "Feature", "properties": { "provider": "Peak Pharmacy (PCT Healthcare)", "address": "431 Barton Road, Stretford, Manchester", "postcode": "M32 9PA", "email": "stret@pcthealthcare.com", "telephone": "0161 865 1603", "status": 1, "precision": "Address and postcode", "notes": null, "marker-color": "#fc6721", "marker-size": "medium" }, "geometry": { "type": "Point", "coordinates": [ -2.3290565, 53.4547338 ] } },
{ "type": "Feature", "properties": { "provider": "Pelican Pharmacy", "address": "344 Manchester Road, West Timperley, Altrincham", "postcode": "WA14 5NH", "email": "g18chan@yahoo.co.uk", "telephone": "0161 962 4255", "status": 1, "precision": "Address and postcode", "notes": null, "marker-color": "#fc6721", "marker-size": "medium" }, "geometry": { "type": "Point", "coordinates": [ -2.3464263, 53.406865200000013 ] } },
{ "type": "Feature", "properties": { "provider": "Reeds Pharmacy (Clearcourts\/Pharmacy Care Plus)", "address": "182 Church Road, Urmston,", "postcode": "M41 9FD", "email": "MNIBLOCK@PHARMACYCAREPLUS.CO.UK or reeds166@googlemail.com", "telephone": "0161 748 2438", "status": 1, "precision": "Address and postcode", "notes": null, "marker-color": "#fc6721", "marker-size": "medium" }, "geometry": { "type": "Point", "coordinates": [ -2.3641927, 53.444762 ] } },
{ "type": "Feature", "properties": { "provider": "Rowlands Pharmacy (Altrincham)", "address": "Lloyd House, 7 Lloyd Street, Altrincham", "postcode": "WA14 2DD", "email": "altrincham@rowlandspharmacy.co.uk", "telephone": "0161 928 2114", "status": 1, "precision": "Address and postcode", "notes": null, "marker-color": "#fc6721", "marker-size": "medium" }, "geometry": { "type": "Point", "coordinates": [ -2.350219, 53.3845059 ] } },
{ "type": "Feature", "properties": { "provider": "Rowlands Pharmacy (Coppice Ave)", "address": "54 Coppice Ave, Sale", "postcode": "M33 4WB", "email": "coppiceavenue@rowlandspharmacy.co.uk", "telephone": "0161 973 3552", "status": 1, "precision": "Address and postcode", "notes": null, "marker-color": "#fc6721", "marker-size": "medium" }, "geometry": { "type": "Point", "coordinates": [ -2.351086, 53.4146083 ] } },
{ "type": "Feature", "properties": { "provider": "Sainsburys Supermarket Ltd  Sale (Lloyds)", "address": "Curzon Road, Sale", "postcode": "M33 7SA", "email": "lp5205@lloydspharmacy.co.uk", "telephone": "0161 973 1075", "status": 1, "precision": "Address and postcode", "notes": null, "marker-color": "#fc6721", "marker-size": "medium" }, "geometry": { "type": "Point", "coordinates": [ -2.3233387, 53.4261574 ] } },
{ "type": "Feature", "properties": { "provider": "Sainsburys Supermarket Ltd Alt (Lloyds)", "address": "Lloyd Street, Altrincham", "postcode": "WA14 2SU", "email": "lp5003@lloydspharmacy.co.uk", "telephone": "0161 941 3185", "status": 1, "precision": "Address and postcode", "notes": null, "marker-color": "#fc6721", "marker-size": "medium" }, "geometry": { "type": "Point", "coordinates": [ -2.3503718, 53.3839483 ] } },
{ "type": "Feature", "properties": { "provider": "Sainsburys Supermarket Ltd Urm (Lloyds)", "address": "Unit 24, Eden Square Shopping Ctr, Urmston", "postcode": "M41 0NA", "email": "lp5253@lloydspharmacy.co.uk", "telephone": "0161 911 5405", "status": 0, "precision": "Address and postcode", "notes": null, "marker-color": "#fc6721", "marker-size": "medium" }, "geometry": { "type": "Point", "coordinates": [ -2.3541132, 53.4496464 ] } },
{ "type": "Feature", "properties": { "provider": "Station Pharmacy (Vittoria Healthcare Ltd)", "address": "102 Park Road, Timperley, Altrincham", "postcode": "WA15 6TE", "email": "stationpharma@gmail.com", "telephone": "0161 973 1238", "status": 1, "precision": "Address and postcode", "notes": null, "marker-color": "#fc6721", "marker-size": "medium" }, "geometry": { "type": "Point", "coordinates": [ -2.3367324, 53.403368099999987 ] } },
{ "type": "Feature", "properties": { "provider": "Terry's Chemist (Walkabout Ltd)", "address": "28 Sinderland Road, Altrincham", "postcode": "WA14 5ET", "email": "peterabraham1@btopenworld.com", "telephone": "0161 928 1275", "status": 1, "precision": "Address and postcode", "notes": null, "marker-color": "#fc6721", "marker-size": "medium" }, "geometry": { "type": "Point", "coordinates": [ -2.3537633, 53.401342 ] } },
{ "type": "Feature", "properties": { "provider": "Tesco Stores Ltd  (Altrincham)", "address": "Manor Road, Altrincham", "postcode": "WA15 9QT", "email": "'rizwan.ahmed@uk.tesco.com'", "telephone": "0161 956 9547", "status": 1, "precision": "Address and postcode", "notes": null, "marker-color": "#fc6721", "marker-size": "medium" }, "geometry": { "type": "Point", "coordinates": [ -2.3473302, 53.3854762 ] } },
{ "type": "Feature", "properties": { "provider": "Tesco Stores Ltd  (Stretford)", "address": "Chester Road, Stretford", "postcode": "M32 0QW", "email": "sarmad.jasim@uk.tesco.com", "telephone": "0161 956 8247", "status": 0, "precision": "Address and postcode", "notes": null, "marker-color": "#fc6721", "marker-size": "medium" }, "geometry": { "type": "Point", "coordinates": [ -2.2905937, 53.4590781 ] } },
{ "type": "Feature", "properties": { "provider": "Tesco Stores Ltd (Sale)", "address": "Hereford Street, Sale", "postcode": "M33 7XN", "email": "sanket.shah@uk.tesco.com", "telephone": "0161 951 6447", "status": 1, "precision": "Address and postcode", "notes": null, "marker-color": "#fc6721", "marker-size": "medium" }, "geometry": { "type": "Point", "coordinates": [ -2.3248952, 53.424516 ] } },
{ "type": "Feature", "properties": { "provider": "Urmston Pharmacy", "address": "287B Stretford Road, Urmston,", "postcode": "M41 9NV", "email": "urmstonpharmacy@yahoo.co.uk or ma.ali@nhs.net", "telephone": "0161 864 3733", "status": 0, "precision": "Address and postcode", "notes": null, "marker-color": "#fc6721", "marker-size": "medium" }, "geometry": { "type": "Point", "coordinates": [ -2.3305341, 53.4458823 ] } },
{ "type": "Feature", "properties": { "provider": "Village Pharmacy (Hollowood Chemist)", "address": "23 Green Lane, Ashton on Mersey, Sale", "postcode": "M33 5PN", "email": "village@hollowood-chemists.co.uk", "telephone": "0161 973 6024", "status": 1, "precision": "Address and postcode", "notes": null, "marker-color": "#fc6721", "marker-size": "medium" }, "geometry": { "type": "Point", "coordinates": [ -2.3422911, 53.429456599999988 ] } },
{ "type": "Feature", "properties": { "provider": "Well Pharmacy (Ayres Road)", "address": "65 Ayres Road, Old Trafford", "postcode": "M16 9NH", "email": "hc224485@well.co.uk", "telephone": "0161 226 2163", "status": 1, "precision": "Address and postcode", "notes": null, "marker-color": "#fc6721", "marker-size": "medium" }, "geometry": { "type": "Point", "coordinates": [ -2.2647851, 53.459000499999988 ] } },
{ "type": "Feature", "properties": { "provider": "Well Pharmacy (Station Bridge)", "address": "2 Station Bridge, Station Road, Urmston", "postcode": "M41 9SB", "email": "hc223045@well.co.uk", "telephone": "0161 748 2090", "status": 1, "precision": "Address and postcode", "notes": null, "marker-color": "#fc6721", "marker-size": "medium" }, "geometry": { "type": "Point", "coordinates": [ -2.3532935, 53.4479586 ] } },
{ "type": "Feature", "properties": { "provider": "Well Pharmacy (Whalley Range)", "address": "201 Upper Chorlton Road, Whalley Range", "postcode": "M16 0BH", "email": "hc223049@well.co.uk", "telephone": "0161 881 1850", "status": 1, "precision": "Address and postcode", "notes": null, "marker-color": "#fc6721", "marker-size": "medium" }, "geometry": { "type": "Point", "coordinates": [ -2.2696191, 53.4515087 ] } },
{ "type": "Feature", "properties": { "provider": "Well Pharmacy (Woodsend Circle)", "address": "10 Woodsend Circle, Flixton, Manchester", "postcode": "M41 8GY", "email": "hc223054@well.co.uk", "telephone": "0161 748 1926", "status": 1, "precision": "Address and postcode", "notes": null, "marker-color": "#fc6721", "marker-size": "medium" }, "geometry": { "type": "Point", "coordinates": [ -2.3937575, 53.452440200000012 ] } },
{ "type": "Feature", "properties": { "provider": "Boots Uk Ltd (Trafford Retail)", "address": "Trafford Retail park, Neary Way, Manchester", "postcode": "M41 7FN", "email": "mark.a.stembridge@boots.com", "telephone": "0161 748 7836", "status": 1, "precision": "Address and postcode", "notes": null, "marker-color": "#fc6721", "marker-size": "medium" }, "geometry": { "type": "Point", "coordinates": [ -2.3602918, 53.4629086 ] } },
{ "type": "Feature", "properties": { "provider": "Broomwood Pharmacy Ltd", "address": "63 Briarfield Road, Timperley, Altrincham", "postcode": "WA15 7DD", "email": "broomwoodpharmacy@hotmail.co.uk", "telephone": "0161 980 0869", "status": 1, "precision": "Address and postcode", "notes": null, "marker-color": "#fc6721", "marker-size": "medium" }, "geometry": { "type": "Point", "coordinates": [ -2.3117878, 53.3923733 ] } },
{ "type": "Feature", "properties": { "provider": "Cohen's Chemist (Assura)", "address": "Firsway Health Centre, 121 Firsway, Sale", "postcode": "M33 4BR", "email": "branch.725@mycohens.net \/ hardeep.sohal@mycohens.net", "telephone": "0161 962 2871", "status": 1, "precision": "Address and postcode", "notes": null, "marker-color": "#fc6721", "marker-size": "medium" }, "geometry": { "type": "Point", "coordinates": [ -2.3552839, 53.421418499999987 ] } },
{ "type": "Feature", "properties": { "provider": "Elliots Pharmacy", "address": "60 Seymour Grove, Old Trafford, Manchester", "postcode": "M16 0LN", "email": "elliottspharmacy@gmail.com", "telephone": "0161 877 3000", "status": 0, "precision": "Address and postcode", "notes": null, "marker-color": "#fc6721", "marker-size": "medium" }, "geometry": { "type": "Point", "coordinates": [ -2.275731, 53.459616 ] } },
{ "type": "Feature", "properties": { "provider": "Hollowood chemist (Washway)", "address": "69 Washway Road, Sale", "postcode": "M33 7SS", "email": "sale@hollowood-chemists.co.uk", "telephone": "0161 962 8228", "status": 1, "precision": "Address and postcode", "notes": null, "marker-color": "#fc6721", "marker-size": "medium" }, "geometry": { "type": "Point", "coordinates": [ -2.3284292, 53.4224034 ] } },
{ "type": "Feature", "properties": { "provider": "Lloyds Pharmacy (Delamere)", "address": "The Delamere Centre, Delamere Ave, Stretford", "postcode": "M32 0DF", "email": "lp6737@lloydspharmacy.co.uk", "telephone": "0161 865 2334", "status": 1, "precision": "Address and postcode", "notes": null, "marker-color": "#fc6721", "marker-size": "medium" }, "geometry": { "type": "Point", "coordinates": [ -2.3073348, 53.4509007 ] } },
{ "type": "Feature", "properties": { "provider": "Lloyds Pharmacy (Hale)", "address": "321 Hale Road, Hale barns,", "postcode": "WA15 8SS", "email": "lp0299@lloydspharmacy.co.uk", "telephone": "0161 980 5247", "status": 1, "precision": "Address and postcode", "notes": null, "marker-color": "#fc6721", "marker-size": "medium" }, "geometry": { "type": "Point", "coordinates": [ -2.3137132, 53.3695172 ] } },
{ "type": "Feature", "properties": { "provider": "Mai's Pharmacy", "address": "10 North Road, Derbyshire Road South, Sale", "postcode": "M33 3JS", "email": "maispharmacy@yahoo.co.uk", "telephone": "0161 973 2288", "status": 0, "precision": "Address and postcode", "notes": null, "marker-color": "#fc6721", "marker-size": "medium" }, "geometry": { "type": "Point", "coordinates": [ -2.3122489, 53.421878199999988 ] } },
{ "type": "Feature", "properties": { "provider": "MRS Healthcare (Hale Barns Pharmacy)", "address": "Shay Lane Medical Centre, Shay Lane, Hale Barns", "postcode": "WA15 8NZ", "email": "halebarnspharmacy@hotmail.co.uk or vinchops@hotmail.co.uk", "telephone": "0161 904 0865", "status": 1, "precision": "Address and postcode", "notes": null, "marker-color": "#fc6721", "marker-size": "medium" }, "geometry": { "type": "Point", "coordinates": [ -2.3154064, 53.3716552 ] } },
{ "type": "Feature", "properties": { "provider": "Riddings Pharmacy", "address": "38 Riddings Road, Timperley, Altrincham", "postcode": "WA15 6BP", "email": "riddings@ashaeveltd.com \/ bhavikr_4@hotmail.com", "telephone": "0161 973 2951", "status": 1, "precision": "Address and postcode", "notes": null, "marker-color": "#fc6721", "marker-size": "medium" }, "geometry": { "type": "Point", "coordinates": [ -2.3312121, 53.4045927 ] } },
{ "type": "Feature", "properties": { "provider": "Rowlands Pharmacy (Norris Road)", "address": "331 Norris Road, Sale", "postcode": "M33 2UP", "email": "salemoor@rowlandspharmacy.co.uk", "telephone": "0161 973 4850", "status": 1, "precision": "Address and postcode", "notes": null, "marker-color": "#fc6721", "marker-size": "medium" }, "geometry": { "type": "Point", "coordinates": [ -2.2986325, 53.4149302 ] } },
{ "type": "Feature", "properties": { "provider": "Rowlands Pharmacy (Old Trafford)", "address": "6 Lime Grove,  Old Trafford, Manchester", "postcode": "M16 0WL", "email": "oldtrafford@rowlandspharmacy.co.uk", "telephone": "0161 872 6719", "status": 1, "precision": "Address and postcode", "notes": null, "marker-color": "#fc6721", "marker-size": "medium" }, "geometry": { "type": "Point", "coordinates": [ -2.276292, 53.4591735 ] } },
{ "type": "Feature", "properties": { "provider": "Timperley Pharmacy", "address": "250 Stockport road, Timperley", "postcode": "WA15 7UN", "email": "timperleypharmacy@gmail.com", "telephone": "0161 948 5066", "status": 1, "precision": "Address and postcode", "notes": null, "marker-color": "#fc6721", "marker-size": "medium" }, "geometry": { "type": "Point", "coordinates": [ -2.3183272, 53.397306099999987 ] } },
{ "type": "Feature", "properties": { "provider": "Well Pharmacy (Moorside Road)", "address": "475 Moorside Road, Flixton", "postcode": "M41 8TW", "email": "hc223024@well.co.uk", "telephone": "0161 748 5472", "status": 1, "precision": "Address and postcode", "notes": null, "marker-color": "#fc6721", "marker-size": "medium" }, "geometry": { "type": "Point", "coordinates": [ -2.3917531, 53.4524681 ] } },
{ "type": "Feature", "properties": { "provider": "Well Pharmacy (Sale)", "address": "2 Eastway, Sale, Cheshire", "postcode": "M33 4DX", "email": "hc223037@well.co.uk", "telephone": "0161 973 1750", "status": 1, "precision": "Address and postcode", "notes": null, "marker-color": "#fc6721", "marker-size": "medium" }, "geometry": { "type": "Point", "coordinates": [ -2.3403257, 53.4110752 ] } },
{ "type": "Feature", "properties": { "provider": "Well Pharmacy (Stockport Road)", "address": "238 Stockport Road, Timperley", "postcode": "WA15 7UN", "email": "hc223043@well.co.uk", "telephone": "0161 980 4269", "status": 1, "precision": "Address and postcode", "notes": null, "marker-color": "#fc6721", "marker-size": "medium" }, "geometry": { "type": "Point", "coordinates": [ -2.3191049, 53.3970129 ] } },
{ "type": "Feature", "properties": { "provider": "Boots Uk Ltd (Sale)", "address": "2 The Mall, Sale", "postcode": "M33 7XZ", "email": "geraldine.lloyd@boots.com \/ 1123.storemailbox@boots.com", "telephone": "0161 973 3267", "status": 1, "precision": "Manually geocoded", "notes": null, "marker-color": "#fc6721", "marker-size": "medium" }, "geometry": { "type": "Point", "coordinates": [ -2.3221, 53.424796 ] } },
{ "type": "Feature", "properties": { "provider": "Gorgemead TA Cohens (Helgasons Pharmacy)", "address": "8 Ashley Road, Altrincham", "postcode": "WA14 2DW", "email": "branch.530@mycohens.net", "telephone": "0161 928 1164", "status": 1, "precision": "Manually geocoded", "notes": "Closed down", "marker-color": "#fc6721", "marker-size": "medium" }, "geometry": { "type": "Point", "coordinates": [ -2.3523, 53.38416 ] } },
{ "type": "Feature", "properties": { "provider": "Well Pharmacy (Partington)", "address": "Partington Health Centre,Central Road, Partington", "postcode": "M31 4FL", "email": "hc220458@well.co.uk", "telephone": "0161 775 3455", "status": 1, "precision": "Manually geocoded", "notes": null, "marker-color": "#fc6721", "marker-size": "medium" }, "geometry": { "type": "Point", "coordinates": [ -2.424915, 53.417528 ] } },
{ "type": "Feature", "properties": { "provider": "Asda Stores Ltd", "address": "Traders Avenue, Barton Dock Road, Trafford Park, Manchester", "postcode": "M41 7ZA", "email": "pharmacy-4565@asda.co.uk", "telephone": "0161 629 2311 or 0161 748 5841", "status": 1, "precision": "Manually geocoded", "notes": null, "marker-color": "#fc6721", "marker-size": "medium" }, "geometry": { "type": "Point", "coordinates": [ -2.344799, 53.468112 ] } },
{ "type": "Feature", "properties": { "provider": "Bladon B Ltd", "address": "219 Ashley Road, Hale,", "postcode": "WA15 9SZ", "email": "matt.bladon@gmail.com", "telephone": "0161 928 1233", "status": 1, "precision": "Manually geocoded", "notes": null, "marker-color": "#fc6721", "marker-size": "medium" }, "geometry": { "type": "Point", "coordinates": [ -2.343986, 53.376175 ] } },
{ "type": "Feature", "properties": { "provider": "Boots Uk Ltd (Stamford)", "address": "1 Stamford Quarter, George Street, Altrincham", "postcode": "WA14 1RJ", "email": "Sue.Latham@boots.com \/1136.storemailbox@boots.com or charlotte.atkinson@boots.com", "telephone": "0161 928 4471", "status": 1, "precision": "Manually geocoded", "notes": null, "marker-color": "#fc6721", "marker-size": "medium" }, "geometry": { "type": "Point", "coordinates": [ -2.349906, 53.387983 ] } },
{ "type": "Feature", "properties": { "provider": "Boots Uk Ltd (Trafford Centre)", "address": "Trafford Centre, 10 Peel Ave, Manchester", "postcode": "M17 8BD", "email": "Rupinder.Matharu@boots.com \/ 0158.storemailbox@boots.com", "telephone": "0161 746 7984", "status": 1, "precision": "Manually geocoded", "notes": null, "marker-color": "#fc6721", "marker-size": "medium" }, "geometry": { "type": "Point", "coordinates": [ -2.345902, 53.464556 ] } },
{ "type": "Feature", "properties": { "provider": "C and T Associates", "address": "77 Greatstone Road, Stretford", "postcode": "M32 8GR", "email": "katherine.chan@ctpharmacy.co.uk  or patrick.teh@ctpharmacy.co.uk", "telephone": "0161 881 4777", "status": 1, "precision": "Manually geocoded", "notes": null, "marker-color": "#fc6721", "marker-size": "medium" }, "geometry": { "type": "Point", "coordinates": [ -2.286501, 53.453051 ] } },
{ "type": "Feature", "properties": { "provider": "Conran Late night pharmacy (Cohens)", "address": "175 Moorside Road, Urmston, Manchester", "postcode": "M41 5SJ", "email": "hanbal.chaudry@yahoo.co.uk", "telephone": "0161 755 0839", "status": 0, "precision": "Manually geocoded", "notes": null, "marker-color": "#fc6721", "marker-size": "medium" }, "geometry": { "type": "Point", "coordinates": [ -2.369755, 53.452124 ] } },
{ "type": "Feature", "properties": { "provider": "Gorgemead TA Cohens (Gorse Hill Pharmacy)", "address": "874 Chester Road, Gorse Hill, Stretford", "postcode": "M32 0PA", "email": "info@gorsehillpharmacy.co.uk or branch.533@mycohens.net", "telephone": "0161 865 9125", "status": 1, "precision": "Manually geocoded", "notes": null, "marker-color": "#fc6721", "marker-size": "medium" }, "geometry": { "type": "Point", "coordinates": [ -2.298662, 53.45456 ] } },
{ "type": "Feature", "properties": { "provider": "High Speed Pharmacy", "address": "Caidan House Business Centre, Canal Road, Timperley, Altrincham", "postcode": "WA14 1TD", "email": "info@highspeedpharmacy.co.uk", "telephone": "0161 302 7637", "status": 0, "precision": "Manually geocoded", "notes": null, "marker-color": "#fc6721", "marker-size": "medium" }, "geometry": { "type": "Point", "coordinates": [ -2.341913, 53.401544 ] } },
{ "type": "Feature", "properties": { "provider": "Mary Davey Chemist", "address": "14a Warburton Lane, Partington", "postcode": "M31 4WJ", "email": "mdcltdpartington@hotmail.co.uk", "telephone": "0161 777 8537", "status": 1, "precision": "Manually geocoded", "notes": null, "marker-color": "#fc6721", "marker-size": "medium" }, "geometry": { "type": "Point", "coordinates": [ -2.429715, 53.418176 ] } },
{ "type": "Feature", "properties": { "provider": "Rowlands Pharmacy (Plymouth Road)", "address": "16 Plymouth Road, Ashton-on-Mersey, Sale", "postcode": "M33 5JD", "email": "sale@rowlandspharmacy.co.uk", "telephone": "0161 973 2843", "status": 1, "precision": "Manually geocoded", "notes": null, "marker-color": "#fc6721", "marker-size": "medium" }, "geometry": { "type": "Point", "coordinates": [ -2.351743, 53.427057 ] } }
]
}
