{
"type": "FeatureCollection",
"crs": { "type": "name", "properties": { "name": "urn:ogc:def:crs:OGC:1.3:CRS84" } },
"features": [
{ "type": "Feature", "properties": { "provider": "Boots Uk Ltd (Altrincham)", "telephone": "0161 928 5024", "address": "Unit 8B Altrincham Retail Park, George Richards Way, Altrincham", "postcode": "WA14 5GR", "area_code": "E08000009", "area_name": "Trafford", "marker-color": "#fc6721", "marker-size": "medium" }, "geometry": { "type": "Point", "coordinates": [ -2.356125, 53.400838 ] } },
{ "type": "Feature", "properties": { "provider": "Boots Uk Ltd (Canterbury)", "telephone": "0161 748 3016", "address": "179 Canterbury Road, Urmston", "postcode": "M41 0SE", "area_code": "E08000009", "area_name": "Trafford", "marker-color": "#fc6721", "marker-size": "medium" }, "geometry": { "type": "Point", "coordinates": [ -2.345179, 53.455134 ] } },
{ "type": "Feature", "properties": { "provider": "Boots Uk Ltd (Eden Sq)", "telephone": "0161 748 2317", "address": "Eden Square, Golden Way, Urmston", "postcode": "M41 0NA", "area_code": "E08000009", "area_name": "Trafford", "marker-color": "#fc6721", "marker-size": "medium" }, "geometry": { "type": "Point", "coordinates": [ -2.354722, 53.449093 ] } },
{ "type": "Feature", "properties": { "provider": "Boots Uk Ltd (Stretford)", "telephone": "0161 865 7062", "address": "69 -72 The Mall, Stretford", "postcode": "M32 9BD", "area_code": "E08000009", "area_name": "Trafford", "marker-color": "#fc6721", "marker-size": "medium" }, "geometry": { "type": "Point", "coordinates": [ -2.30942, 53.445677 ] } },
{ "type": "Feature", "properties": { "provider": "Broadheath Pharmacy (Loggerheads Pharmacy Ltd)", "telephone": "0161 929 7144", "address": "70 Manchester Road, Altrincham", "postcode": "WA14 4PJ", "area_code": "E08000009", "area_name": "Trafford", "marker-color": "#fc6721", "marker-size": "medium" }, "geometry": { "type": "Point", "coordinates": [ -2.35188, 53.394981 ] } },
{ "type": "Feature", "properties": { "provider": "Limelight Pharmacy (Prev. Brooks Bar Pharmacy)", "telephone": "0161 226 4005", "address": "162 - 164 Chorlton Road, Old Trafford", "postcode": "M16 7WW", "area_code": "E08000009", "area_name": "Trafford", "marker-color": "#fc6721", "marker-size": "medium" }, "geometry": { "type": "Point", "coordinates": [ -2.258524, 53.459478 ] } },
{ "type": "Feature", "properties": { "provider": "Pathvalley Ltd TA Cohens Chemist (Hale)", "telephone": "0161 928 1662", "address": "177 Ashley Road, Hale, Altrincham", "postcode": "WA15 9SD", "area_code": "E08000009", "area_name": "Trafford", "marker-color": "#fc6721", "marker-size": "medium" }, "geometry": { "type": "Point", "coordinates": [ -2.346371, 53.377613 ] } },
{ "type": "Feature", "properties": { "provider": "Empire", "telephone": "0161 258 6149", "address": "122 Seymour Grove, Old Trafford, Manchester", "postcode": "M16 0FF", "area_code": "E08000009", "area_name": "Trafford", "marker-color": "#fc6721", "marker-size": "medium" }, "geometry": { "type": "Point", "coordinates": [ -2.275189, 53.456007 ] } },
{ "type": "Feature", "properties": { "provider": "Gorgemead TA Cohens (Bowdon Pharmacy)", "telephone": "0161 929 9005", "address": "6 Vale View, Vicarage Lane, Bowden", "postcode": "WA14 3BD", "area_code": "E08000009", "area_name": "Trafford", "marker-color": "#fc6721", "marker-size": "medium" }, "geometry": { "type": "Point", "coordinates": [ -2.36089, 53.372051 ] } },
{ "type": "Feature", "properties": { "provider": "GP Roberts Chemist Ltd", "telephone": "0161 872 1121", "address": "137 Ayres Road, Old Trafford, Manchester", "postcode": "M16 9WR", "area_code": "E08000009", "area_name": "Trafford", "marker-color": "#fc6721", "marker-size": "medium" }, "geometry": { "type": "Point", "coordinates": [ -2.271872, 53.457679 ] } },
{ "type": "Feature", "properties": { "provider": "Harrys' Pharmacy", "telephone": "0161 865 6331", "address": "92 Mitford Street, Stretford", "postcode": "M32 8AQ", "area_code": "E08000009", "area_name": "Trafford", "marker-color": "#fc6721", "marker-size": "medium" }, "geometry": { "type": "Point", "coordinates": [ -2.312647, 53.446307 ] } },
{ "type": "Feature", "properties": { "provider": "Hugall J Ltd (Alphega)", "telephone": "0161 973 1056", "address": "143 Northenden Road, Sale", "postcode": "M33 3HF", "area_code": "E08000009", "area_name": "Trafford", "marker-color": "#fc6721", "marker-size": "medium" }, "geometry": { "type": "Point", "coordinates": [ -2.304527, 53.420287 ] } },
{ "type": "Feature", "properties": { "provider": "Lloyds Pharmacy (Broadway)", "telephone": "0161 748 2199", "address": "130 Broadway, Davyhulme, Manchester", "postcode": "M41 7WJ", "area_code": "E08000009", "area_name": "Trafford", "marker-color": "#fc6721", "marker-size": "medium" }, "geometry": { "type": "Point", "coordinates": [ -2.366782, 53.459483 ] } },
{ "type": "Feature", "properties": { "provider": "Lloyds Pharmacy (Crofts Band Road)  CLOSED", "telephone": "0161 748 2966", "address": "3 Crofts Bank Road, Urmston", "postcode": "M41 0TZ", "area_code": "E08000009", "area_name": "Trafford", "marker-color": "#fc6721", "marker-size": "medium" }, "geometry": { "type": "Point", "coordinates": [ -2.353366, 53.449061 ] } },
{ "type": "Feature", "properties": { "provider": "Lloyds Pharmacy (Grove Lane, Hale)", "telephone": "0161 980 2424", "address": "186-188 Grove Lane, Hale, Altrincham", "postcode": "WA15 8PU", "area_code": "E08000009", "area_name": "Trafford", "marker-color": "#fc6721", "marker-size": "medium" }, "geometry": { "type": "Point", "coordinates": [ -2.315246, 53.380585 ] } },
{ "type": "Feature", "properties": { "provider": "Malcolm's Pharmacy", "telephone": "0161 747 2277", "address": "28 Flixton Road, Urmston, Manchester", "postcode": "M41 5AA", "area_code": "E08000009", "area_name": "Trafford", "marker-color": "#fc6721", "marker-size": "medium" }, "geometry": { "type": "Point", "coordinates": [ -2.354612, 53.448581 ] } },
{ "type": "Feature", "properties": { "provider": "Oldfield Pharmacy", "telephone": "0161 942 9701", "address": "128 Seamons Road, Old field Brow, Altrincham", "postcode": "WA14 4LJ", "area_code": "E08000009", "area_name": "Trafford", "marker-color": "#fc6721", "marker-size": "medium" }, "geometry": { "type": "Point", "coordinates": [ -2.370856, 53.392973 ] } },
{ "type": "Feature", "properties": { "provider": "Peak Pharmacy (PCT Healthcare)", "telephone": "0161 865 1603", "address": "431 Barton Road, Stretford, Manchester", "postcode": "M32 9PA", "area_code": "E08000009", "area_name": "Trafford", "marker-color": "#fc6721", "marker-size": "medium" }, "geometry": { "type": "Point", "coordinates": [ -2.328128, 53.45458 ] } },
{ "type": "Feature", "properties": { "provider": "Pelican Pharmacy", "telephone": "0161 962 4255", "address": "344 Manchester Road, West Timperley, Altrincham", "postcode": "WA14 5NH", "area_code": "E08000009", "area_name": "Trafford", "marker-color": "#fc6721", "marker-size": "medium" }, "geometry": { "type": "Point", "coordinates": [ -2.346561, 53.406592 ] } },
{ "type": "Feature", "properties": { "provider": "Reeds Pharmacy (Clearcourts\/Pharmacy Care Plus)", "telephone": "0161 748 2438", "address": "182 Church Road, Urmston,", "postcode": "M41 9FD", "area_code": "E08000009", "area_name": "Trafford", "marker-color": "#fc6721", "marker-size": "medium" }, "geometry": { "type": "Point", "coordinates": [ -2.363781, 53.444976 ] } },
{ "type": "Feature", "properties": { "provider": "Rowlands Pharmacy (Altrincham)", "telephone": "0161 928 2114", "address": "Lloyd House, 7 Lloyd Street, Altrincham", "postcode": "WA14 2DD", "area_code": "E08000009", "area_name": "Trafford", "marker-color": "#fc6721", "marker-size": "medium" }, "geometry": { "type": "Point", "coordinates": [ -2.351614, 53.38451 ] } },
{ "type": "Feature", "properties": { "provider": "Rowlands Pharmacy (Coppice Ave)", "telephone": "0161 973 3552", "address": "54 Coppice Ave, Sale", "postcode": "M33 4WB", "area_code": "E08000009", "area_name": "Trafford", "marker-color": "#fc6721", "marker-size": "medium" }, "geometry": { "type": "Point", "coordinates": [ -2.348768, 53.415269 ] } },
{ "type": "Feature", "properties": { "provider": "Sainsburys Supermarket Ltd  Sale (Lloyds)", "telephone": "0161 973 1075", "address": "Curzon Road, Sale", "postcode": "M33 7SA", "area_code": "E08000009", "area_name": "Trafford", "marker-color": "#fc6721", "marker-size": "medium" }, "geometry": { "type": "Point", "coordinates": [ -2.323529, 53.426108 ] } },
{ "type": "Feature", "properties": { "provider": "Sainsburys Supermarket Ltd Alt (Lloyds)", "telephone": "0161 941 3185", "address": "Lloyd Street, Altrincham", "postcode": "WA14 2SU", "area_code": "E08000009", "area_name": "Trafford", "marker-color": "#fc6721", "marker-size": "medium" }, "geometry": { "type": "Point", "coordinates": [ -2.350541, 53.383938 ] } },
{ "type": "Feature", "properties": { "provider": "Sainsburys Supermarket Ltd Urm (Lloyds)", "telephone": "0161 911 5405", "address": "Unit 24, Eden Square Shopping Ctr, Urmston", "postcode": "M41 0NA", "area_code": "E08000009", "area_name": "Trafford", "marker-color": "#fc6721", "marker-size": "medium" }, "geometry": { "type": "Point", "coordinates": [ -2.354722, 53.449093 ] } },
{ "type": "Feature", "properties": { "provider": "Station Pharmacy (Vittoria Healthcare Ltd)", "telephone": "0161 973 1238", "address": "102 Park Road, Timperley, Altrincham", "postcode": "WA15 6TE", "area_code": "E08000009", "area_name": "Trafford", "marker-color": "#fc6721", "marker-size": "medium" }, "geometry": { "type": "Point", "coordinates": [ -2.336653, 53.403338 ] } },
{ "type": "Feature", "properties": { "provider": "Terry's Chemist (Walkabout Ltd)", "telephone": "0161 928 1275", "address": "28 Sinderland Road, Altrincham", "postcode": "WA14 5ET", "area_code": "E08000009", "area_name": "Trafford", "marker-color": "#fc6721", "marker-size": "medium" }, "geometry": { "type": "Point", "coordinates": [ -2.35339, 53.40117 ] } },
{ "type": "Feature", "properties": { "provider": "Tesco Stores Ltd  (Altrincham)", "telephone": "0161 956 9547", "address": "Manor Road, Altrincham", "postcode": "WA15 9QT", "area_code": "E08000009", "area_name": "Trafford", "marker-color": "#fc6721", "marker-size": "medium" }, "geometry": { "type": "Point", "coordinates": [ -2.345888, 53.384877 ] } },
{ "type": "Feature", "properties": { "provider": "Tesco Stores Ltd  (Stretford)", "telephone": "0161 956 8247", "address": "Chester Road, Stretford", "postcode": "M32 0QW", "area_code": "E08000009", "area_name": "Trafford", "marker-color": "#fc6721", "marker-size": "medium" }, "geometry": { "type": "Point", "coordinates": [ -2.289359, 53.460253 ] } },
{ "type": "Feature", "properties": { "provider": "Tesco Stores Ltd (Sale)", "telephone": "0161 951 6447", "address": "Hereford Street, Sale", "postcode": "M33 7XN", "area_code": "E08000009", "area_name": "Trafford", "marker-color": "#fc6721", "marker-size": "medium" }, "geometry": { "type": "Point", "coordinates": [ -2.323277, 53.424608 ] } },
{ "type": "Feature", "properties": { "provider": "Village Pharmacy (Hollowood Chemist)", "telephone": "0161 973 6024", "address": "23 Green Lane, Ashton on Mersey, Sale", "postcode": "M33 5PN", "area_code": "E08000009", "area_name": "Trafford", "marker-color": "#fc6721", "marker-size": "medium" }, "geometry": { "type": "Point", "coordinates": [ -2.342384, 53.42966 ] } },
{ "type": "Feature", "properties": { "provider": "Well Pharmacy (Ayres Road)", "telephone": "0161 226 2163", "address": "65 Ayres Road, Old Trafford", "postcode": "M16 9NH", "area_code": "E08000009", "area_name": "Trafford", "marker-color": "#fc6721", "marker-size": "medium" }, "geometry": { "type": "Point", "coordinates": [ -2.264034, 53.459036 ] } },
{ "type": "Feature", "properties": { "provider": "Well Pharmacy (Station Bridge)", "telephone": "0161 748 2090", "address": "2 Station Bridge, Station Road, Urmston", "postcode": "M41 9SB", "area_code": "E08000009", "area_name": "Trafford", "marker-color": "#fc6721", "marker-size": "medium" }, "geometry": { "type": "Point", "coordinates": [ -2.353268, 53.448055 ] } },
{ "type": "Feature", "properties": { "provider": "Well Pharmacy (Whalley Range)", "telephone": "0161 881 1850", "address": "201 Upper Chorlton Road, Whalley Range", "postcode": "M16 0BH", "area_code": "E08000003", "area_name": "Manchester", "marker-color": "#fc6721", "marker-size": "medium" }, "geometry": { "type": "Point", "coordinates": [ -2.269649, 53.451473 ] } },
{ "type": "Feature", "properties": { "provider": "Well Pharmacy (Woodsend Circle)", "telephone": "0161 748 1926", "address": "10 Woodsend Circle, Flixton, Manchester", "postcode": "M41 8GY", "area_code": "E08000009", "area_name": "Trafford", "marker-color": "#fc6721", "marker-size": "medium" }, "geometry": { "type": "Point", "coordinates": [ -2.393919, 53.452824 ] } },
{ "type": "Feature", "properties": { "provider": "Boots Uk Ltd (Trafford Retail)", "telephone": "0161 748 7836", "address": "Trafford Retail park, Neary Way, Manchester", "postcode": "M41 7FN", "area_code": "E08000009", "area_name": "Trafford", "marker-color": "#fc6721", "marker-size": "medium" }, "geometry": { "type": "Point", "coordinates": [ -2.359932, 53.463324 ] } },
{ "type": "Feature", "properties": { "provider": "Broomwood Pharmacy Ltd", "telephone": "0161 980 0869", "address": "63 Briarfield Road, Timperley, Altrincham", "postcode": "WA15 7DD", "area_code": "E08000009", "area_name": "Trafford", "marker-color": "#fc6721", "marker-size": "medium" }, "geometry": { "type": "Point", "coordinates": [ -2.31165, 53.392414 ] } },
{ "type": "Feature", "properties": { "provider": "Cohen's Chemist (Assura)", "telephone": "0161 962 2871", "address": "Firsway Health Centre, 121 Firsway, Sale", "postcode": "M33 4BR", "area_code": "E08000009", "area_name": "Trafford", "marker-color": "#fc6721", "marker-size": "medium" }, "geometry": { "type": "Point", "coordinates": [ -2.355468, 53.421289 ] } },
{ "type": "Feature", "properties": { "provider": "Elliots Pharmacy", "telephone": "0161 877 3000", "address": "60 Seymour Grove, Old Trafford, Manchester", "postcode": "M16 0LN", "area_code": "E08000009", "area_name": "Trafford", "marker-color": "#fc6721", "marker-size": "medium" }, "geometry": { "type": "Point", "coordinates": [ -2.276328, 53.459655 ] } },
{ "type": "Feature", "properties": { "provider": "Hollowood chemist (Washway)", "telephone": "0161 962 8228", "address": "69 Washway Road, Sale", "postcode": "M33 7SS", "area_code": "E08000009", "area_name": "Trafford", "marker-color": "#fc6721", "marker-size": "medium" }, "geometry": { "type": "Point", "coordinates": [ -2.328392, 53.4224 ] } },
{ "type": "Feature", "properties": { "provider": "Lloyds Pharmacy (Delamere)", "telephone": "0161 865 2334", "address": "The Delamere Centre, Delamere Ave, Stretford", "postcode": "M32 0DF", "area_code": "E08000009", "area_name": "Trafford", "marker-color": "#fc6721", "marker-size": "medium" }, "geometry": { "type": "Point", "coordinates": [ -2.307365, 53.450887 ] } },
{ "type": "Feature", "properties": { "provider": "Lloyds Pharmacy (Hale)", "telephone": "0161 980 5247", "address": "321 Hale Road, Hale barns,", "postcode": "WA15 8SS", "area_code": "E08000009", "area_name": "Trafford", "marker-color": "#fc6721", "marker-size": "medium" }, "geometry": { "type": "Point", "coordinates": [ -2.313707, 53.369479 ] } },
{ "type": "Feature", "properties": { "provider": "Mai's Pharmacy", "telephone": "0161 973 2288", "address": "10 North Road, Derbyshire Road South, Sale", "postcode": "M33 3JS", "area_code": "E08000009", "area_name": "Trafford", "marker-color": "#fc6721", "marker-size": "medium" }, "geometry": { "type": "Point", "coordinates": [ -2.308493, 53.41333 ] } },
{ "type": "Feature", "properties": { "provider": "MRS Healthcare (Hale Barns Pharmacy)", "telephone": "0161 904 0865", "address": "Shay Lane Medical Centre, Shay Lane, Hale Barns", "postcode": "WA15 8NZ", "area_code": "E08000009", "area_name": "Trafford", "marker-color": "#fc6721", "marker-size": "medium" }, "geometry": { "type": "Point", "coordinates": [ -2.31556, 53.372189 ] } },
{ "type": "Feature", "properties": { "provider": "Riddings Pharmacy", "telephone": "0161 973 2951", "address": "38 Riddings Road, Timperley, Altrincham", "postcode": "WA15 6BP", "area_code": "E08000009", "area_name": "Trafford", "marker-color": "#fc6721", "marker-size": "medium" }, "geometry": { "type": "Point", "coordinates": [ -2.331291, 53.404424 ] } },
{ "type": "Feature", "properties": { "provider": "Rowlands Pharmacy (Norris Road)", "telephone": "0161 973 4850", "address": "331 Norris Road, Sale", "postcode": "M33 2UP", "area_code": "E08000009", "area_name": "Trafford", "marker-color": "#fc6721", "marker-size": "medium" }, "geometry": { "type": "Point", "coordinates": [ -2.298757, 53.415206 ] } },
{ "type": "Feature", "properties": { "provider": "Rowlands Pharmacy (Old Trafford)", "telephone": "0161 872 6719", "address": "6 Lime Grove,  Old Trafford, Manchester", "postcode": "M16 0WL", "area_code": "E08000009", "area_name": "Trafford", "marker-color": "#fc6721", "marker-size": "medium" }, "geometry": { "type": "Point", "coordinates": [ -2.276505, 53.459214 ] } },
{ "type": "Feature", "properties": { "provider": "Timperley Pharmacy", "telephone": "0161 948 5066", "address": "250 Stockport road, Timperley", "postcode": "WA15 7UN", "area_code": "E08000009", "area_name": "Trafford", "marker-color": "#fc6721", "marker-size": "medium" }, "geometry": { "type": "Point", "coordinates": [ -2.319113, 53.397049 ] } },
{ "type": "Feature", "properties": { "provider": "Well Pharmacy (Moorside Road)", "telephone": "0161 748 5472", "address": "475 Moorside Road, Flixton", "postcode": "M41 8TW", "area_code": "E08000009", "area_name": "Trafford", "marker-color": "#fc6721", "marker-size": "medium" }, "geometry": { "type": "Point", "coordinates": [ -2.391372, 53.452421 ] } },
{ "type": "Feature", "properties": { "provider": "Well Pharmacy (Sale)", "telephone": "0161 973 1750", "address": "2 Eastway, Sale, Cheshire", "postcode": "M33 4DX", "area_code": "E08000009", "area_name": "Trafford", "marker-color": "#fc6721", "marker-size": "medium" }, "geometry": { "type": "Point", "coordinates": [ -2.340278, 53.41088 ] } },
{ "type": "Feature", "properties": { "provider": "Well Pharmacy (Stockport Road)", "telephone": "0161 980 4269", "address": "238 Stockport Road, Timperley", "postcode": "WA15 7UN", "area_code": "E08000009", "area_name": "Trafford", "marker-color": "#fc6721", "marker-size": "medium" }, "geometry": { "type": "Point", "coordinates": [ -2.319113, 53.397049 ] } },
{ "type": "Feature", "properties": { "provider": "Boots Uk Ltd (Sale)", "telephone": "0161 973 3267", "address": "2 The Mall, Sale", "postcode": "M33 7XZ", "area_code": "E08000009", "area_name": "Trafford", "marker-color": "#fc6721", "marker-size": "medium" }, "geometry": { "type": "Point", "coordinates": [ -2.322269, 53.424627 ] } },
{ "type": "Feature", "properties": { "provider": "Well Pharmacy (Partington)", "telephone": "0161 775 3455", "address": "Partington Health Centre,Central Road, Partington", "postcode": "M31 4FL", "area_code": "E08000009", "area_name": "Trafford", "marker-color": "#fc6721", "marker-size": "medium" }, "geometry": { "type": "Point", "coordinates": [ -2.426171, 53.417768 ] } },
{ "type": "Feature", "properties": { "provider": "Asda Stores Ltd", "telephone": "0161 629 2311 or 0161 748 5841", "address": "Traders Avenue, Barton Dock Road, Trafford Park, Manchester", "postcode": "M41 7ZA", "area_code": "E08000009", "area_name": "Trafford", "marker-color": "#fc6721", "marker-size": "medium" }, "geometry": { "type": "Point", "coordinates": [ -2.344824, 53.468861 ] } },
{ "type": "Feature", "properties": { "provider": "Bladon B Ltd", "telephone": "0161 928 1233", "address": "219 Ashley Road, Hale,", "postcode": "WA15 9SZ", "area_code": "E08000009", "area_name": "Trafford", "marker-color": "#fc6721", "marker-size": "medium" }, "geometry": { "type": "Point", "coordinates": [ -2.343819, 53.376182 ] } },
{ "type": "Feature", "properties": { "provider": "Boots Uk Ltd (Stamford)", "telephone": "0161 928 4471", "address": "1 Stamford Quarter, George Street, Altrincham", "postcode": "WA14 1RJ", "area_code": "E08000009", "area_name": "Trafford", "marker-color": "#fc6721", "marker-size": "medium" }, "geometry": { "type": "Point", "coordinates": [ -2.34931, 53.387753 ] } },
{ "type": "Feature", "properties": { "provider": "Boots Uk Ltd (Trafford Centre)", "telephone": "0161 746 7984", "address": "Trafford Centre, 10 Peel Ave, Manchester", "postcode": "M17 8BD", "area_code": "E08000009", "area_name": "Trafford", "marker-color": "#fc6721", "marker-size": "medium" }, "geometry": { "type": "Point", "coordinates": [ -2.345558, 53.464652 ] } },
{ "type": "Feature", "properties": { "provider": "C and T Associates", "telephone": "0161 881 4777", "address": "77 Greatstone Road, Stretford", "postcode": "M32 8GR", "area_code": "E08000009", "area_name": "Trafford", "marker-color": "#fc6721", "marker-size": "medium" }, "geometry": { "type": "Point", "coordinates": [ -2.286268, 53.453007 ] } },
{ "type": "Feature", "properties": { "provider": "Conran Late night pharmacy (Cohens)", "telephone": "0161 755 0839", "address": "175 Moorside Road, Urmston, Manchester", "postcode": "M41 5SJ", "area_code": "E08000009", "area_name": "Trafford", "marker-color": "#fc6721", "marker-size": "medium" }, "geometry": { "type": "Point", "coordinates": [ -2.370709, 53.452091 ] } },
{ "type": "Feature", "properties": { "provider": "Gorgemead TA Cohens (Gorse Hill Pharmacy)", "telephone": "0161 865 9125", "address": "874 Chester Road, Gorse Hill, Stretford", "postcode": "M32 0PA", "area_code": "E08000009", "area_name": "Trafford", "marker-color": "#fc6721", "marker-size": "medium" }, "geometry": { "type": "Point", "coordinates": [ -2.299481, 53.453882 ] } },
{ "type": "Feature", "properties": { "provider": "High Speed Pharmacy", "telephone": "0161 302 7637", "address": "Caidan House Business Centre, Canal Road, Timperley, Altrincham", "postcode": "WA14 1TD", "area_code": "E08000009", "area_name": "Trafford", "marker-color": "#fc6721", "marker-size": "medium" }, "geometry": { "type": "Point", "coordinates": [ -2.342023, 53.401552 ] } },
{ "type": "Feature", "properties": { "provider": "Mary Davey Chemist", "telephone": "0161 777 8537", "address": "14a Warburton Lane, Partington", "postcode": "M31 4WJ", "area_code": "E08000009", "area_name": "Trafford", "marker-color": "#fc6721", "marker-size": "medium" }, "geometry": { "type": "Point", "coordinates": [ -2.430768, 53.41714 ] } },
{ "type": "Feature", "properties": { "provider": "Rowlands Pharmacy (Plymouth Road)", "telephone": "0161 973 2843", "address": "16 Plymouth Road, Ashton-on-Mersey, Sale", "postcode": "M33 5JD", "area_code": "E08000009", "area_name": "Trafford", "marker-color": "#fc6721", "marker-size": "medium" }, "geometry": { "type": "Point", "coordinates": [ -2.351844, 53.427026 ] } }
]
}
