{
"type": "FeatureCollection",
"name": "trafford_wholesale_food_businesses",
"crs": { "type": "name", "properties": { "name": "urn:ogc:def:crs:OGC:1.3:CRS84" } },
"features": [
{ "type": "Feature", "properties": { "name": "MÃ¼ller Milk & Ingredients", "activity": "Processing Plant (Dairy)", "address": "Lake Road, Trafford Park", "postcode": "M17 1TU" }, "geometry": { "type": "Point", "coordinates": [ -2.313945, 53.47547 ] } },
{ "type": "Feature", "properties": { "name": "J. Priestner Partnership", "activity": "Packing Centre (Egg)", "address": "Midlands Farm Moss Lane, Warburton, Lymm", "postcode": "WA13 9TX" }, "geometry": { "type": "Point", "coordinates": [ -2.420993, 53.408456 ] } },
{ "type": "Feature", "properties": { "name": "Gate Gourmet", "activity": "Processing Plant (Meat)  Processing Plant (Fish)", "address": "Units K1  K2 & K3  Ashburton Point, Ashburton Road, Trafford Park", "postcode": "M17 1EH" }, "geometry": { "type": "Point", "coordinates": [ -2.333246, 53.469658 ] } },
{ "type": "Feature", "properties": { "name": "Redhouse Farm", "activity": "Packing Centre (Egg)", "address": "Redhouse Lane", "postcode": "WA14 5RL" }, "geometry": { "type": "Point", "coordinates": [ -2.399779, 53.401671 ] } }
]
}
