name,type,address,postcode,telephone,website,area_name,area_code,lon,lat
Bickham House,Residential homes,"Green Walk, Bowdon, Altrincham",WA14 2SN,1619282514,NA,Trafford,E0800009,-2.371445,53.381196
Order of The Sisters of St Joseph of The Apparition,Nursing homes,"Lady of the Vale Nursing Home, Grange Road, Bowdon, Altrincham",WA14 3HA,1619282567,http://www.ladyofthevale.co.uk,Trafford,E0800009,-2.35257,53.371033
Lime Tree House,Residential homes,"264 Washway Road, Sale",M33 4RZ,1619737956,http://www.limetreehouse.org.uk,Trafford,E0800009,-2.335899,53.416537
Headonhey,Residential homes,"34 Harboro Road, Sale",M33 5AH,1619693527,http://www.stockdales.org.uk,Trafford,E0800009,-2.337812,53.422473
Hayling Road,Residential homes,"34 Hayling Road, Sale",M33 6GW,1619734306,http://www.stockdales.org.uk,Trafford,E0800009,-2.341116,53.425394
Ashton Lane,Residential homes,"47 Ashton Lane, Sale",M33 5PA,1619620978,http://www.stockdales.org.uk,Trafford,E0800009,-2.332693,53.425957
Wyncourt Nursing Home,Nursing homes,"162 Park Road, Timperley, Altrincham",WA15 6QH,1619621290,http://www.wyncourtnursinghome.co.uk,Trafford,E0800009,-2.331149,53.401593
Heathside Retirement Home,Residential homes,"74 Barrington Road, Altrincham",WA14 1JB,1619413622,NA,Trafford,E0800009,-2.35098,53.395191
Handsworth,Residential homes,"West Road, Bowdon, Altrincham",WA14 2LA,1619285314,http://www.mha.org.uk/ch15.aspx,Trafford,E0800009,-2.360602,53.377131
SignHealth Bowfell Road,Residential homes,"SignHealth, 100 Bowfell Road, Urmston, Manchester",M41 5RR,1617478156,http://www.signhealth.org.uk,Trafford,E0800009,-2.370201,53.451021
Bange Nursing Homes Limited t/a Bradley House Nursing Home,Nursing homes,"2 Brooklands Crescent, Sale",M33 3NB,1619732580,http://www.bangenursinghomes.com,Trafford,E0800009,-2.322919,53.417047
Shawe House,Nursing homes,"Pennybridge Lane, Flixton, Manchester",M41 5DX,1617487867,NA,Trafford,E0800009,-2.373763,53.446768
The Coppice,Residential homes,"51 Wellington Road, Altrincham",WA15 7RQ,1619294178,http://www.efitzroy.org.uk,Trafford,E0800009,-2.336017,53.39518
Prema Court,Nursing homes,"Clifton Court, Ayres Road, Manchester",M16 7NX,1612267698,http://www.deepdenecare.org,Trafford,E0800009,-2.258786,53.460422
Norton Street,Residential homes,"28 Norton Street, Old Trafford, Manchester",M16 7GQ,1612262979,http://www.deepdenecare.org,Trafford,E0800009,-2.263454,53.457733
Beverley Park Nursing Home,Nursing homes,"22 Sandy Lane, Stretford, Manchester",M32 9DA,1618651883,NA,Trafford,E0800009,-2.319437,53.44433
The Knoll,Residential homes,"109 Church Road, Urmston, Manchester",M41 9FJ,1617553818,NA,Trafford,E0800009,-2.361556,53.445324
The Fairways,Residential homes,"269 Church Road, Urmston, Manchester",M41 6EP,1617468160,http://www.knollcarepartnership.co.uk/the-fairways,Trafford,E0800009,-2.375405,53.441659
The Cedars Rest Home Limited,Residential homes,"23 Langham Road, Bowdon, Altrincham",WA14 2HX,1619284361,http://www.caringuk.com,Trafford,E0800009,-2.355688,53.375572
Kara House Residential Care Home,Residential homes,"29 Harboro Road, Sale",M33 5AN,1619693393,NA,Trafford,E0800009,-2.338593,53.422228
Lynwood Lodge Residential Care Home,Residential homes,"20-22 Broad Road, Sale",M33 2AL,1619737210,http://www.excelsiacare.co.uk,Trafford,E0800009,-2.315949,53.424654
Ann Challis,Residential homes,"128 Stretford Road, Urmston, Manchester",M41 9LT,1617483597,http://www.jemcareltd.co.uk,Trafford,E0800009,-2.342776,53.446521
Woodend Care Home,Nursing homes,"Bradgate Road, Altrincham",WA14 4QU,1619295127,NA,Trafford,E0800009,-2.373015,53.388832
Beckdale House,Residential homes,"3 Beaufort Road, Sale",M33 3WR,1619739393,http://www.milewood.co.uk,Trafford,E0800009,-2.315423,53.416629
Syrian House,Residential homes,"Sandiway Road, Ashton-on-Mersey, Sale",M33 5AL,1925571680,http://www.makingspace.co.uk,Trafford,E0800009,-2.337394,53.422933
Faversham House Nursing Home,Nursing homes,"59 Church Road, Urmston, Manchester",M41 9EJ,1617485998,NA,Trafford,E0800009,-2.358775,53.445818
Springfield House,Residential homes,"57 Warburton Lane, Partington, Manchester",M31 4NL,1617761757,http://www.fairfieldresidential.co.uk,Trafford,E0800009,-2.430075,53.417053
De Brook Lodge,Residential homes,"110 Irlam Road, Flixton, Manchester",M41 6NA,1617485403,http://www.idealcarehomes.co.uk,Trafford,E0800009,-2.393185,53.448253
Haylands Residential Home for Gentlemen,Residential homes,"93 Crofts Bank Road, Urmston, Manchester",M41 0US,1617498887,http://www.jemcareltd.co.uk,Trafford,E0800009,-2.355098,53.452669
Norwood Drive,Residential homes,"2 Norwood Drive, Timperley, Altrincham",WA15 7LD,1619049228,NA,Trafford,E0800009,-2.306023,53.389975
Manorhey Care Centre,Nursing homes,"130 Stretford Road, Urmston, Manchester",M41 9LT,1617476888,NA,Trafford,E0800009,-2.342776,53.446521
Allingham House Care Centre,Nursing homes,"Deansgate Lane, Timperley, Altrincham",WA15 6SQ,1619291783,NA,Trafford,E0800009,-2.341537,53.399099
Yew Tree,Residential homes,"Fairy Lane, Sale, Trafford",M33 2JT,1619739616,NA,Trafford,E0800009,-2.285748,53.420443
York Lodge Residential Home,Residential homes,"54-56 Crofts Bank Road, Urmston, Manchester",M41 0UH,1617482315,NA,Trafford,E0800009,-2.353157,53.451048
Ascot House,Residential homes,"Ascot Ave, Sale, Manchester",M33 4GT,1619620996,NA,Trafford,E0800009,-2.355164,53.417245
Cheshire House,Nursing homes,"22 St Marys Road, Sale",M33 6SA,1619051228,http://www.consensussupport.com,Trafford,E0800009,-2.332335,53.424403
Mayfield Care Home,Residential homes,"Beaufort Road, Sale",M33 3WR,1619732371,NA,Trafford,E0800009,-2.315423,53.416629
Sunrise of Hale Barns,Residential homes,"295 Hale Road, Hale Barns, Altrincham",WA15 8SN,1619809500,http://www.sunrise-care.co.uk,Trafford,E0800009,-2.316703,53.37249
Four Oaks Care Home,Nursing homes,"28 Wood Lane, Partington, Manchester",M31 4LX,1613593983,NA,Trafford,E0800009,-2.432407,53.415534
EAM House,Nursing homes,"Manchester Road, Partington, Manchester",M31 4DJ,1617778511,http://www.eamcaregroup.co.uk,Trafford,E0800009,-2.421986,53.420801
EAM Lodge (Trafford),Nursing homes,"46 Manchester Road, Partington, Manchester",M31 4DJ,1617778511,http://www.eamcaregroup.co.uk,Trafford,E0800009,-2.421986,53.420801
Ferrol Lodge,Residential homes,"49 Northenden Road, Sale",M33 2DL,1619624056,NA,Trafford,E0800009,-2.313983,53.423392
Flixton Manor,Nursing homes,"2-8 Delamere Road, Urmston, Manchester",M41 5QL,1617467175,http://www.flixtonmanor.com,Trafford,E0800009,-2.378333,53.449209
Timperley Care Home,Nursing homes,"53d Mainwood Road, Timperley, Altrincham",WA15 7JW,1619808001,NA,Trafford,E0800009,-2.312943,53.392375
Cliffemount Community Care,Residential homes,"411 Hale Road, Hale Barns, Altrincham",WA15 8XU,NA,NA,Trafford,E0800009,-2.299064,53.364742
Ashlands manor Care Centre,Nursing homes|Residential homes,"2 Ashlands, Sale",M33 5PD,1619050760,http://www.newcarehomes.com,Trafford,E0800009,-2.331857,53.424863
Sunrise of Hale Barns,Residential homes,"295 Hale Road, Hale Barns, Altrincham",WA15 8SN,1619809500,http://www.sunrise.care.co.uk,Trafford,E0800009,-2.316703,53.37249
Oldfield Bank Residential Care Home,Residential homes,"5 Highgate Road, Altrincham",WA14 4QZ,1619280658,NA,Trafford,E0800009,-2.364967,53.388317
Serendipity Home,Nursing homes,"Greenfield Avenue, Urmston, Manchester",M41 0XN,1617473738,NA,Trafford,E0800009,-2.351358,53.450235
Claremont Care Home,Residential homes,"254-256 Washway Road, Sale",M33 4RZ,1619737130,NA,Trafford,E0800009,-2.335899,53.416537
Meade Close,Residential homes,"1-2 Meade Close, Urmston, Manchester",M41 5BL,1617468313,http://www.salutemhealthcareltd.com,Trafford,E0800009,-2.362477,53.447434
10 Spennithorne Road,Residential homes,"10 Spennithorne Road, Urmston, Manchester",M41 5BU,1617486414,NA,Trafford,E0800009,-2.365264,53.447614
Creative Support - Trafford Respite Service,Residential homes,"10 Shawe Road, Flixton, Trafford",M41 5DL,1617483562,http://www.creativesupport.co.uk,Trafford,E0800009,-2.371364,53.44782
Northenden House,Nursing homes,"448 Northenden Road, Sale",M33 2RB,1619626660,NA,Trafford,E0800009,-2.289269,53.415913
Urmston Manor,Residential homes,"61-63, Church Road, Urmston, Manchester",M41 9EJ,7429340652,NA,Trafford,E0800009,-2.358775,53.445818
Brookfield Nursing Home,Nursing homes,"71 Crofts Bank Road, Urmston, Manchester",M41 0UB,1617475365,http://www.brookfieldnursinghome.com,Trafford,E0800009,-2.354257,53.451126
Harboro,Residential homes,"34 Harboro Road, Sale",M33 5AH,1619732296,http://www.stockdales.org.uk,Trafford,E0800009,-2.337812,53.422473
