{
"type": "FeatureCollection",
"crs": { "type": "name", "properties": { "name": "urn:ogc:def:crs:OGC:1.3:CRS84" } },
"features": [
{ "type": "Feature", "properties": { "Name": "Bickham House", "Service type": "Residential homes", "Address": "Green Walk, Bowdon, Altrincham", "Postcode": "WA14 2SN", "Telephone number": 1619282514.0, "Website": null, "Area name": "Trafford", "Area code": "E0800009", "marker-color": "#fc6721", "marker-size": "medium" }, "geometry": { "type": "Point", "coordinates": [ -2.371445, 53.381196 ] } },
{ "type": "Feature", "properties": { "Name": "Order of The Sisters of St Joseph of The Apparition", "Service type": "Nursing homes", "Address": "Lady of the Vale Nursing Home, Grange Road, Bowdon, Altrincham", "Postcode": "WA14 3HA", "Telephone number": 1619282567.0, "Website": "http:\/\/www.ladyofthevale.co.uk", "Area name": "Trafford", "Area code": "E0800009", "marker-color": "#fc6721", "marker-size": "medium" }, "geometry": { "type": "Point", "coordinates": [ -2.35257, 53.371033 ] } },
{ "type": "Feature", "properties": { "Name": "Lime Tree House", "Service type": "Residential homes", "Address": "264 Washway Road, Sale", "Postcode": "M33 4RZ", "Telephone number": 1619737956.0, "Website": "http:\/\/www.limetreehouse.org.uk", "Area name": "Trafford", "Area code": "E0800009", "marker-color": "#fc6721", "marker-size": "medium" }, "geometry": { "type": "Point", "coordinates": [ -2.335899, 53.416537 ] } },
{ "type": "Feature", "properties": { "Name": "Headonhey", "Service type": "Residential homes", "Address": "34 Harboro Road, Sale", "Postcode": "M33 5AH", "Telephone number": 1619693527.0, "Website": "http:\/\/www.stockdales.org.uk", "Area name": "Trafford", "Area code": "E0800009", "marker-color": "#fc6721", "marker-size": "medium" }, "geometry": { "type": "Point", "coordinates": [ -2.337812, 53.422473 ] } },
{ "type": "Feature", "properties": { "Name": "Hayling Road", "Service type": "Residential homes", "Address": "34 Hayling Road, Sale", "Postcode": "M33 6GW", "Telephone number": 1619734306.0, "Website": "http:\/\/www.stockdales.org.uk", "Area name": "Trafford", "Area code": "E0800009", "marker-color": "#fc6721", "marker-size": "medium" }, "geometry": { "type": "Point", "coordinates": [ -2.341116, 53.425394 ] } },
{ "type": "Feature", "properties": { "Name": "Ashton Lane", "Service type": "Residential homes", "Address": "47 Ashton Lane, Sale", "Postcode": "M33 5PA", "Telephone number": 1619620978.0, "Website": "http:\/\/www.stockdales.org.uk", "Area name": "Trafford", "Area code": "E0800009", "marker-color": "#fc6721", "marker-size": "medium" }, "geometry": { "type": "Point", "coordinates": [ -2.332693, 53.425957 ] } },
{ "type": "Feature", "properties": { "Name": "Wyncourt Nursing Home", "Service type": "Nursing homes", "Address": "162 Park Road, Timperley, Altrincham", "Postcode": "WA15 6QH", "Telephone number": 1619621290.0, "Website": "http:\/\/www.wyncourtnursinghome.co.uk", "Area name": "Trafford", "Area code": "E0800009", "marker-color": "#fc6721", "marker-size": "medium" }, "geometry": { "type": "Point", "coordinates": [ -2.331149, 53.401593 ] } },
{ "type": "Feature", "properties": { "Name": "Heathside Retirement Home", "Service type": "Residential homes", "Address": "74 Barrington Road, Altrincham", "Postcode": "WA14 1JB", "Telephone number": 1619413622.0, "Website": null, "Area name": "Trafford", "Area code": "E0800009", "marker-color": "#fc6721", "marker-size": "medium" }, "geometry": { "type": "Point", "coordinates": [ -2.35098, 53.395191 ] } },
{ "type": "Feature", "properties": { "Name": "Handsworth", "Service type": "Residential homes", "Address": "West Road, Bowdon, Altrincham", "Postcode": "WA14 2LA", "Telephone number": 1619285314.0, "Website": "http:\/\/www.mha.org.uk\/ch15.aspx", "Area name": "Trafford", "Area code": "E0800009", "marker-color": "#fc6721", "marker-size": "medium" }, "geometry": { "type": "Point", "coordinates": [ -2.360602, 53.377131 ] } },
{ "type": "Feature", "properties": { "Name": "SignHealth Bowfell Road", "Service type": "Residential homes", "Address": "SignHealth, 100 Bowfell Road, Urmston, Manchester", "Postcode": "M41 5RR", "Telephone number": 1617478156.0, "Website": "http:\/\/www.signhealth.org.uk", "Area name": "Trafford", "Area code": "E0800009", "marker-color": "#fc6721", "marker-size": "medium" }, "geometry": { "type": "Point", "coordinates": [ -2.370201, 53.451021 ] } },
{ "type": "Feature", "properties": { "Name": "Bange Nursing Homes Limited t\/a Bradley House Nursing Home", "Service type": "Nursing homes", "Address": "2 Brooklands Crescent, Sale", "Postcode": "M33 3NB", "Telephone number": 1619732580.0, "Website": "http:\/\/www.bangenursinghomes.com", "Area name": "Trafford", "Area code": "E0800009", "marker-color": "#fc6721", "marker-size": "medium" }, "geometry": { "type": "Point", "coordinates": [ -2.322919, 53.417047 ] } },
{ "type": "Feature", "properties": { "Name": "Shawe House", "Service type": "Nursing homes", "Address": "Pennybridge Lane, Flixton, Manchester", "Postcode": "M41 5DX", "Telephone number": 1617487867.0, "Website": null, "Area name": "Trafford", "Area code": "E0800009", "marker-color": "#fc6721", "marker-size": "medium" }, "geometry": { "type": "Point", "coordinates": [ -2.373427, 53.446247 ] } },
{ "type": "Feature", "properties": { "Name": "The Coppice", "Service type": "Residential homes", "Address": "51 Wellington Road, Altrincham", "Postcode": "WA15 7RQ", "Telephone number": 1619294178.0, "Website": "http:\/\/www.efitzroy.org.uk", "Area name": "Trafford", "Area code": "E0800009", "marker-color": "#fc6721", "marker-size": "medium" }, "geometry": { "type": "Point", "coordinates": [ -2.336017, 53.39518 ] } },
{ "type": "Feature", "properties": { "Name": "Prema Court", "Service type": "Nursing homes", "Address": "Clifton Court, Ayres Road, Manchester", "Postcode": "M16 7NX", "Telephone number": 1612267698.0, "Website": "http:\/\/www.deepdenecare.org", "Area name": "Trafford", "Area code": "E0800009", "marker-color": "#fc6721", "marker-size": "medium" }, "geometry": { "type": "Point", "coordinates": [ -2.258786, 53.460422 ] } },
{ "type": "Feature", "properties": { "Name": "Norton Street", "Service type": "Residential homes", "Address": "28 Norton Street, Old Trafford, Manchester", "Postcode": "M16 7GQ", "Telephone number": 1612262979.0, "Website": "http:\/\/www.deepdenecare.org", "Area name": "Trafford", "Area code": "E0800009", "marker-color": "#fc6721", "marker-size": "medium" }, "geometry": { "type": "Point", "coordinates": [ -2.263454, 53.457733 ] } },
{ "type": "Feature", "properties": { "Name": "Beverley Park Nursing Home", "Service type": "Nursing homes", "Address": "22 Sandy Lane, Stretford, Manchester", "Postcode": "M32 9DA", "Telephone number": 1618651883.0, "Website": null, "Area name": "Trafford", "Area code": "E0800009", "marker-color": "#fc6721", "marker-size": "medium" }, "geometry": { "type": "Point", "coordinates": [ -2.319437, 53.44433 ] } },
{ "type": "Feature", "properties": { "Name": "The Knoll", "Service type": "Residential homes", "Address": "109 Church Road, Urmston, Manchester", "Postcode": "M41 9FJ", "Telephone number": 1617553818.0, "Website": null, "Area name": "Trafford", "Area code": "E0800009", "marker-color": "#fc6721", "marker-size": "medium" }, "geometry": { "type": "Point", "coordinates": [ -2.361556, 53.445324 ] } },
{ "type": "Feature", "properties": { "Name": "The Fairways", "Service type": "Residential homes", "Address": "269 Church Road, Urmston, Manchester", "Postcode": "M41 6EP", "Telephone number": 1617468160.0, "Website": "http:\/\/www.knollcarepartnership.co.uk\/the-fairways", "Area name": "Trafford", "Area code": "E0800009", "marker-color": "#fc6721", "marker-size": "medium" }, "geometry": { "type": "Point", "coordinates": [ -2.375405, 53.441659 ] } },
{ "type": "Feature", "properties": { "Name": "The Cedars Rest Home Limited", "Service type": "Residential homes", "Address": "23 Langham Road, Bowdon, Altrincham", "Postcode": "WA14 2HX", "Telephone number": 1619284361.0, "Website": "http:\/\/www.caringuk.com", "Area name": "Trafford", "Area code": "E0800009", "marker-color": "#fc6721", "marker-size": "medium" }, "geometry": { "type": "Point", "coordinates": [ -2.355688, 53.375572 ] } },
{ "type": "Feature", "properties": { "Name": "Kara House Residential Care Home", "Service type": "Residential homes", "Address": "29 Harboro Road, Sale", "Postcode": "M33 5AN", "Telephone number": 1619693393.0, "Website": null, "Area name": "Trafford", "Area code": "E0800009", "marker-color": "#fc6721", "marker-size": "medium" }, "geometry": { "type": "Point", "coordinates": [ -2.338593, 53.422228 ] } },
{ "type": "Feature", "properties": { "Name": "Lynwood Lodge Residential Care Home", "Service type": "Residential homes", "Address": "20-22 Broad Road, Sale", "Postcode": "M33 2AL", "Telephone number": 1619737210.0, "Website": "http:\/\/www.excelsiacare.co.uk", "Area name": "Trafford", "Area code": "E0800009", "marker-color": "#fc6721", "marker-size": "medium" }, "geometry": { "type": "Point", "coordinates": [ -2.315949, 53.424654 ] } },
{ "type": "Feature", "properties": { "Name": "Premier Homes", "Service type": "Residential homes", "Address": "8 Premier Street, Old Trafford, Manchester", "Postcode": "M16 9ND", "Telephone number": 1612262270.0, "Website": "http:\/\/www.prem-care.co.uk", "Area name": "Trafford", "Area code": "E0800009", "marker-color": "#fc6721", "marker-size": "medium" }, "geometry": { "type": "Point", "coordinates": [ -2.262464, 53.458419 ] } },
{ "type": "Feature", "properties": { "Name": "Ann Challis", "Service type": "Residential homes", "Address": "128 Stretford Road, Urmston, Manchester", "Postcode": "M41 9LT", "Telephone number": 1617483597.0, "Website": "http:\/\/www.jemcareltd.co.uk", "Area name": "Trafford", "Area code": "E0800009", "marker-color": "#fc6721", "marker-size": "medium" }, "geometry": { "type": "Point", "coordinates": [ -2.342776, 53.446521 ] } },
{ "type": "Feature", "properties": { "Name": "Woodend Care Home", "Service type": "Nursing homes", "Address": "Bradgate Road, Altrincham", "Postcode": "WA14 4QU", "Telephone number": 1619295127.0, "Website": null, "Area name": "Trafford", "Area code": "E0800009", "marker-color": "#fc6721", "marker-size": "medium" }, "geometry": { "type": "Point", "coordinates": [ -2.373015, 53.388832 ] } },
{ "type": "Feature", "properties": { "Name": "Beckdale House", "Service type": "Residential homes", "Address": "3 Beaufort Road, Sale", "Postcode": "M33 3WR", "Telephone number": 1619739393.0, "Website": "http:\/\/www.milewood.co.uk", "Area name": "Trafford", "Area code": "E0800009", "marker-color": "#fc6721", "marker-size": "medium" }, "geometry": { "type": "Point", "coordinates": [ -2.315423, 53.416629 ] } },
{ "type": "Feature", "properties": { "Name": "Syrian House", "Service type": "Residential homes", "Address": "Sandiway Road, Ashton-on-Mersey, Sale", "Postcode": "M33 5AL", "Telephone number": 1925571680.0, "Website": "http:\/\/www.makingspace.co.uk", "Area name": "Trafford", "Area code": "E0800009", "marker-color": "#fc6721", "marker-size": "medium" }, "geometry": { "type": "Point", "coordinates": [ -2.337394, 53.422933 ] } },
{ "type": "Feature", "properties": { "Name": "Faversham House Nursing Home", "Service type": "Nursing homes", "Address": "59 Church Road, Urmston, Manchester", "Postcode": "M41 9EJ", "Telephone number": 1617485998.0, "Website": null, "Area name": "Trafford", "Area code": "E0800009", "marker-color": "#fc6721", "marker-size": "medium" }, "geometry": { "type": "Point", "coordinates": [ -2.358775, 53.445818 ] } },
{ "type": "Feature", "properties": { "Name": "Springfield House", "Service type": "Residential homes", "Address": "57 Warburton Lane, Partington, Manchester", "Postcode": "M31 4NL", "Telephone number": 1617761757.0, "Website": "http:\/\/www.fairfieldresidential.co.uk", "Area name": "Trafford", "Area code": "E0800009", "marker-color": "#fc6721", "marker-size": "medium" }, "geometry": { "type": "Point", "coordinates": [ -2.430075, 53.417053 ] } },
{ "type": "Feature", "properties": { "Name": "De Brook Lodge", "Service type": "Residential homes", "Address": "110 Irlam Road, Flixton, Manchester", "Postcode": "M41 6NA", "Telephone number": 1617485403.0, "Website": "http:\/\/www.idealcarehomes.co.uk", "Area name": "Trafford", "Area code": "E0800009", "marker-color": "#fc6721", "marker-size": "medium" }, "geometry": { "type": "Point", "coordinates": [ -2.393185, 53.448253 ] } },
{ "type": "Feature", "properties": { "Name": "Haylands Residential Home for Gentlemen", "Service type": "Residential homes", "Address": "93 Crofts Bank Road, Urmston, Manchester", "Postcode": "M41 0US", "Telephone number": 1617498887.0, "Website": "http:\/\/www.jemcareltd.co.uk", "Area name": "Trafford", "Area code": "E0800009", "marker-color": "#fc6721", "marker-size": "medium" }, "geometry": { "type": "Point", "coordinates": [ -2.355098, 53.452669 ] } },
{ "type": "Feature", "properties": { "Name": "Norwood Drive", "Service type": "Residential homes", "Address": "2 Norwood Drive, Timperley, Altrincham", "Postcode": "WA15 7LD", "Telephone number": 1619049228.0, "Website": null, "Area name": "Trafford", "Area code": "E0800009", "marker-color": "#fc6721", "marker-size": "medium" }, "geometry": { "type": "Point", "coordinates": [ -2.306023, 53.389975 ] } },
{ "type": "Feature", "properties": { "Name": "Manorhey Care Centre", "Service type": "Nursing homes", "Address": "130 Stretford Road, Urmston, Manchester", "Postcode": "M41 9LT", "Telephone number": 1617476888.0, "Website": null, "Area name": "Trafford", "Area code": "E0800009", "marker-color": "#fc6721", "marker-size": "medium" }, "geometry": { "type": "Point", "coordinates": [ -2.342776, 53.446521 ] } },
{ "type": "Feature", "properties": { "Name": "Allingham House Care Centre", "Service type": "Nursing homes", "Address": "Deansgate Lane, Timperley, Altrincham", "Postcode": "WA15 6SQ", "Telephone number": 1617476888.0, "Website": null, "Area name": "Trafford", "Area code": "E0800009", "marker-color": "#fc6721", "marker-size": "medium" }, "geometry": { "type": "Point", "coordinates": [ -2.341537, 53.399099 ] } },
{ "type": "Feature", "properties": { "Name": "Yew Tree", "Service type": "Residential homes", "Address": "Fairy Lane, Sale, Trafford", "Postcode": "M33 2JT", "Telephone number": 1619739616.0, "Website": null, "Area name": "Trafford", "Area code": "E0800009", "marker-color": "#fc6721", "marker-size": "medium" }, "geometry": { "type": "Point", "coordinates": [ -2.285748, 53.420443 ] } },
{ "type": "Feature", "properties": { "Name": "St Mark's Care Centre", "Service type": "Nursing homes", "Address": "Delaunays Road, Sale", "Postcode": "M33 6RX", "Telephone number": 1619622032.0, "Website": null, "Area name": "Trafford", "Area code": "E0800009", "marker-color": "#fc6721", "marker-size": "medium" }, "geometry": { "type": "Point", "coordinates": [ -2.334908, 53.422427 ] } },
{ "type": "Feature", "properties": { "Name": "York Lodge Residential Home", "Service type": "Residential homes", "Address": "54-56 Crofts Bank Road, Urmston, Manchester", "Postcode": "M41 0UH", "Telephone number": 1617482315.0, "Website": null, "Area name": "Trafford", "Area code": "E0800009", "marker-color": "#fc6721", "marker-size": "medium" }, "geometry": { "type": "Point", "coordinates": [ -2.353157, 53.451048 ] } },
{ "type": "Feature", "properties": { "Name": "Ascot House", "Service type": "Residential homes", "Address": "Ascot Ave, Sale, Manchester", "Postcode": "M33 4GT", "Telephone number": 1619620996.0, "Website": null, "Area name": "Trafford", "Area code": "E0800009", "marker-color": "#fc6721", "marker-size": "medium" }, "geometry": { "type": "Point", "coordinates": [ -2.355164, 53.417245 ] } },
{ "type": "Feature", "properties": { "Name": "Cheshire House", "Service type": "Nursing homes", "Address": "22 St Marys Road, Sale", "Postcode": "M33 6SA", "Telephone number": 1619051228.0, "Website": "http:\/\/www.consensussupport.com", "Area name": "Trafford", "Area code": "E0800009", "marker-color": "#fc6721", "marker-size": "medium" }, "geometry": { "type": "Point", "coordinates": [ -2.332335, 53.424403 ] } },
{ "type": "Feature", "properties": { "Name": "Mayfield Care Home", "Service type": "Residential homes", "Address": "Beaufort Road, Sale", "Postcode": "M33 3WR", "Telephone number": 1619732371.0, "Website": null, "Area name": "Trafford", "Area code": "E0800009", "marker-color": "#fc6721", "marker-size": "medium" }, "geometry": { "type": "Point", "coordinates": [ -2.315423, 53.416629 ] } },
{ "type": "Feature", "properties": { "Name": "Sunrise of Hale Barns", "Service type": "Residential homes", "Address": "295 Hale Road, Hale Barns, Altrincham", "Postcode": "WA15 8SN", "Telephone number": 1619809500.0, "Website": "http:\/\/www.sunrise-care.co.uk", "Area name": "Trafford", "Area code": "E0800009", "marker-color": "#fc6721", "marker-size": "medium" }, "geometry": { "type": "Point", "coordinates": [ -2.316924, 53.371682 ] } },
{ "type": "Feature", "properties": { "Name": "Four Oaks Care Home", "Service type": "Nursing homes", "Address": "28 Wood Lane, Partington, Manchester", "Postcode": "M31 4LX", "Telephone number": 1613593983.0, "Website": null, "Area name": "Trafford", "Area code": "E0800009", "marker-color": "#fc6721", "marker-size": "medium" }, "geometry": { "type": "Point", "coordinates": [ -2.432407, 53.415534 ] } },
{ "type": "Feature", "properties": { "Name": "EAM House", "Service type": "Nursing homes", "Address": "Manchester Road, Partington, Manchester", "Postcode": "M31 4DJ", "Telephone number": 1617778511.0, "Website": "http:\/\/www.eamcaregroup.co.uk", "Area name": "Trafford", "Area code": "E0800009", "marker-color": "#fc6721", "marker-size": "medium" }, "geometry": { "type": "Point", "coordinates": [ -2.422709, 53.420647 ] } },
{ "type": "Feature", "properties": { "Name": "EAM Lodge (Trafford)", "Service type": "Nursing homes", "Address": "46 Manchester Road, Partington, Manchester", "Postcode": "M31 4DJ", "Telephone number": 1617778511.0, "Website": "http:\/\/www.eamcaregroup.co.uk", "Area name": "Trafford", "Area code": "E0800009", "marker-color": "#fc6721", "marker-size": "medium" }, "geometry": { "type": "Point", "coordinates": [ -2.422709, 53.420647 ] } },
{ "type": "Feature", "properties": { "Name": "Ferrol Lodge", "Service type": "Residential homes", "Address": "49 Northenden Road, Sale", "Postcode": "M33 2DL", "Telephone number": 1619624056.0, "Website": null, "Area name": "Trafford", "Area code": "E0800009", "marker-color": "#fc6721", "marker-size": "medium" }, "geometry": { "type": "Point", "coordinates": [ -2.313983, 53.423392 ] } },
{ "type": "Feature", "properties": { "Name": "Flixton Manor", "Service type": "Nursing homes", "Address": "2-8 Delamere Road, Urmston, Manchester", "Postcode": "M41 5QL", "Telephone number": 1617467175.0, "Website": "http:\/\/www.flixtonmanor.com", "Area name": "Trafford", "Area code": "E0800009", "marker-color": "#fc6721", "marker-size": "medium" }, "geometry": { "type": "Point", "coordinates": [ -2.378333, 53.449209 ] } },
{ "type": "Feature", "properties": { "Name": "Timperley Care Home", "Service type": "Nursing homes", "Address": "53d Mainwood Road, Timperley, Altrincham", "Postcode": "WA15 7JW", "Telephone number": 1619808001.0, "Website": null, "Area name": "Trafford", "Area code": "E0800009", "marker-color": "#fc6721", "marker-size": "medium" }, "geometry": { "type": "Point", "coordinates": [ -2.312943, 53.392375 ] } },
{ "type": "Feature", "properties": { "Name": "Woodlea Supported Accommodation", "Service type": "Residential homes|Homecare agencies|Supported living", "Address": "196 Upper Chorlton Road, Manchester", "Postcode": "M16 7SF", "Telephone number": 1618629521.0, "Website": null, "Area name": "Trafford", "Area code": "E0800009", "marker-color": "#fc6721", "marker-size": "medium" }, "geometry": { "type": "Point", "coordinates": [ -2.265873, 53.454519 ] } },
{ "type": "Feature", "properties": { "Name": "Cliffemount Community Care", "Service type": "Residential homes", "Address": "411 Hale Road, Hale Barns, Altrincham", "Postcode": "WA15 8XU", "Telephone number": null, "Website": null, "Area name": "Trafford", "Area code": "E0800009", "marker-color": "#fc6721", "marker-size": "medium" }, "geometry": { "type": "Point", "coordinates": [ -2.298658, 53.364734 ] } },
{ "type": "Feature", "properties": { "Name": "Ashlands manor Care Centre", "Service type": "Nursing homes|Residential homes", "Address": "2 Ashlands, Sale", "Postcode": "M33 5PD", "Telephone number": 1619050760.0, "Website": "http:\/\/www.newcarehomes.com", "Area name": "Trafford", "Area code": "E0800009", "marker-color": "#fc6721", "marker-size": "medium" }, "geometry": { "type": "Point", "coordinates": [ -2.331857, 53.424863 ] } },
{ "type": "Feature", "properties": { "Name": "Sunrise of Hale Barns", "Service type": "Residential homes", "Address": "295 Hale Road, Hale Barns, Altrincham", "Postcode": "WA15 8SN", "Telephone number": 1619809500.0, "Website": "http:\/\/www.sunrise.care.co.uk", "Area name": "Trafford", "Area code": "E0800009", "marker-color": "#fc6721", "marker-size": "medium" }, "geometry": { "type": "Point", "coordinates": [ -2.316924, 53.371682 ] } },
{ "type": "Feature", "properties": { "Name": "Oldfield Bank Residential Care Home", "Service type": "Residential homes", "Address": "5 Highgate Road, Altrincham", "Postcode": "WA14 4QZ", "Telephone number": 1619280658.0, "Website": null, "Area name": "Trafford", "Area code": "E0800009", "marker-color": "#fc6721", "marker-size": "medium" }, "geometry": { "type": "Point", "coordinates": [ -2.364967, 53.388317 ] } },
{ "type": "Feature", "properties": { "Name": "Serendipity Home", "Service type": "Nursing homes", "Address": "Greenfield Avenue, Urmston, Manchester", "Postcode": "M41 0XN", "Telephone number": 1617473738.0, "Website": null, "Area name": "Trafford", "Area code": "E0800009", "marker-color": "#fc6721", "marker-size": "medium" }, "geometry": { "type": "Point", "coordinates": [ -2.351358, 53.450235 ] } },
{ "type": "Feature", "properties": { "Name": "Claremont Care Home", "Service type": "Residential homes", "Address": "254-256 Washway Road, Sale", "Postcode": "M33 4RZ", "Telephone number": 1619737130.0, "Website": null, "Area name": "Trafford", "Area code": "E0800009", "marker-color": "#fc6721", "marker-size": "medium" }, "geometry": { "type": "Point", "coordinates": [ -2.335899, 53.416537 ] } },
{ "type": "Feature", "properties": { "Name": "Meade Close", "Service type": "Residential homes", "Address": "1-2 Meade Close, Urmston, Manchester", "Postcode": "M41 5BL", "Telephone number": 1617468313.0, "Website": "http:\/\/www.salutemhealthcareltd.com", "Area name": "Trafford", "Area code": "E0800009", "marker-color": "#fc6721", "marker-size": "medium" }, "geometry": { "type": "Point", "coordinates": [ -2.362477, 53.447434 ] } },
{ "type": "Feature", "properties": { "Name": "10 Spennithorne Road", "Service type": "Residential homes", "Address": "10 Spennithorne Road, Urmston, Manchester", "Postcode": "M41 5BU", "Telephone number": 1617486414.0, "Website": null, "Area name": "Trafford", "Area code": "E0800009", "marker-color": "#fc6721", "marker-size": "medium" }, "geometry": { "type": "Point", "coordinates": [ -2.365264, 53.447614 ] } },
{ "type": "Feature", "properties": { "Name": "Creative Support - Trafford Respite Service", "Service type": "Residential homes", "Address": "10 Shawe Road, Flixton, Trafford", "Postcode": "M41 5DL", "Telephone number": 1617483562.0, "Website": "http:\/\/www.creativesupport.co.uk", "Area name": "Trafford", "Area code": "E0800009", "marker-color": "#fc6721", "marker-size": "medium" }, "geometry": { "type": "Point", "coordinates": [ -2.371364, 53.44782 ] } },
{ "type": "Feature", "properties": { "Name": "Northenden House", "Service type": "Nursing homes", "Address": "448 Northenden Road, Sale", "Postcode": "M33 2RB", "Telephone number": 1619626660.0, "Website": null, "Area name": "Trafford", "Area code": "E0800009", "marker-color": "#fc6721", "marker-size": "medium" }, "geometry": { "type": "Point", "coordinates": [ -2.289269, 53.415913 ] } },
{ "type": "Feature", "properties": { "Name": "Urmston Manor", "Service type": "Residential homes", "Address": "61-63, Church Road, Urmston, Manchester", "Postcode": "M41 9EJ", "Telephone number": 7429340652.0, "Website": null, "Area name": "Trafford", "Area code": "E0800009", "marker-color": "#fc6721", "marker-size": "medium" }, "geometry": { "type": "Point", "coordinates": [ -2.358775, 53.445818 ] } },
{ "type": "Feature", "properties": { "Name": "Brookfield Nursing Home", "Service type": "Nursing homes", "Address": "71 Crofts Bank Road, Urmston, Manchester", "Postcode": "M41 0UB", "Telephone number": 1617475365.0, "Website": "http:\/\/www.brookfieldnursinghome.com", "Area name": "Trafford", "Area code": "E0800009", "marker-color": "#fc6721", "marker-size": "medium" }, "geometry": { "type": "Point", "coordinates": [ -2.354257, 53.451126 ] } },
{ "type": "Feature", "properties": { "Name": "Harboro", "Service type": "Residential homes", "Address": "34 Harboro Road, Sale", "Postcode": "M33 5AH", "Telephone number": 1619732296.0, "Website": "http:\/\/www.stockdales.org.uk", "Area name": "Trafford", "Area code": "E0800009", "marker-color": "#fc6721", "marker-size": "medium" }, "geometry": { "type": "Point", "coordinates": [ -2.337812, 53.422473 ] } }
]
}
