name,referral_method,opening_times,contact,website,address,post_code,wd17cd,wd17nm,lad17cd,lad17nm,long,lat
Trussell Trust,Foodbank Voucher,Thursday 10:30am - 12:30pm,info@traffordsouth.foodbank.org.uk,http://traffordsouth.foodbank.org.uk/,"The Fuse ROC Centre, Warburton Lane, Partington, Manchester",M31 4BU,E05000824,Bucklow-St Martins,E08000009,Trafford,-2.4320577,53.412227599999994
Trussell Trust,Foodbank Voucher,"Tues 11am - 2pm, Fri 11.30am -1.30pm",info@stretford.foodbank.org.uk,http://stretford.foodbank.org.uk/,"Trafford Christian Life Centre, 107 Barton Road, Stretford, Manchester",M32 9AF,E05000836,Stretford,E08000009,Trafford,-2.3138088,53.4446413
Trussell Trust,Foodbank Voucher,Monday 12noon - 2pm,info@traffordsouth.foodbank.org.uk,http://traffordsouth.foodbank.org.uk/,"St Francis Church, Budworth Road, Sale Moor, Manchester",M33 2RP,E05000835,Sale Moor,E08000009,Trafford,-2.2978433,53.41573909999999
Trussell Trust,Foodbank Voucher,Tuesday 11am - 1pm,info@traffordsouth.foodbank.org.uk,http://traffordsouth.foodbank.org.uk/,"Sale West Credit Unit Rooms, Newbury Avenue, Sale, Manchester",M33 4QW,E05000834,St Mary's,E08000009,Trafford,-2.3580273000000003,53.4196186
Trussell Trust,Foodbank Voucher,Wednesday 10:30am - 12:30pm,info@traffordsouth.foodbank.org.uk,http://traffordsouth.foodbank.org.uk/,"St Albans Church Hall, Lindsell Road, Altrincham",WA14 5NX,E05000822,Broadheath,E08000009,Trafford,-2.353799,53.403289900000004
Trussell Trust,Foodbank Voucher,Friday 10am - 12noon,info@traffordsouth.foodbank.org.uk,http://traffordsouth.foodbank.org.uk/,"Timperley Methodist Church, Stockport Road, Timperley",WA15 7UG,E05000837,Timperley,E08000009,Trafford,-2.3189359,53.3975187
The Globe: Old Trafford Pantry,Not known,Friday 2 - 4.30pm,urchoice1@outlook.com,https://118aglobe.wordpress.com/,79 Cornbrook Street Old Trafford Manchester,M16 7QB,E05000825,Clifford,E08000009,Trafford,-2.2592204999999694,53.4624527
