{
"type": "FeatureCollection",
"crs": { "type": "name", "properties": { "name": "urn:ogc:def:crs:OGC:1.3:CRS84" } },
"features": [
{ "type": "Feature", "properties": { "name": "Done Brothers (Cash Betting) Limited", "address": "Betfred, 100 George Street, Altrincham", "postcode": "WA14 1RF", "area_name": "Trafford", "area_code": "E08000009" }, "geometry": { "type": "Point", "coordinates": [ -2.351119, 53.386595 ] } },
{ "type": "Feature", "properties": { "name": "Done Brothers (Cash Betting) Limited", "address": "Betfred, 107 Ayres Road, Manchester", "postcode": "M16 7GS", "area_name": "Trafford", "area_code": "E08000009" }, "geometry": { "type": "Point", "coordinates": [ -2.267615, 53.458434 ] } },
{ "type": "Feature", "properties": { "name": "Done Brothers (Cash Betting) Limited", "address": "Betfred, 175 Chorlton Road, Manchester", "postcode": "M16 7WS", "area_name": "Trafford", "area_code": "E08000009" }, "geometry": { "type": "Point", "coordinates": [ -2.257935, 53.45913 ] } },
{ "type": "Feature", "properties": { "name": "Done Brothers (Cash Betting) Limited", "address": "Betfred, 34 Hale Road, Altrincham", "postcode": "WA14 2EX", "area_name": "Trafford", "area_code": "E08000009" }, "geometry": { "type": "Point", "coordinates": [ -2.348311, 53.381446 ] } },
{ "type": "Feature", "properties": { "name": "Done Brothers (Cash Betting) Limited", "address": "Betfred, 349 Stockport Road, Timperley, Altrincham", "postcode": "WA15 7UG", "area_name": "Trafford", "area_code": "E08000009" }, "geometry": { "type": "Point", "coordinates": [ -2.318996, 53.397474 ] } },
{ "type": "Feature", "properties": { "name": "Done Brothers (Cash Betting) Limited", "address": "Betfred, 41 School Road, Sale", "postcode": "M33 7YE", "area_name": "Trafford", "area_code": "E08000009" }, "geometry": { "type": "Point", "coordinates": [ -2.322663, 53.424978 ] } },
{ "type": "Feature", "properties": { "name": "Done Brothers (Cash Betting) Limited", "address": "Betfred, 58 Coppice Avenue, Sale", "postcode": "M33 4WB", "area_name": "Trafford", "area_code": "E08000009" }, "geometry": { "type": "Point", "coordinates": [ -2.348768, 53.415269 ] } },
{ "type": "Feature", "properties": { "name": "Done Brothers (Cash Betting) Limited", "address": "Betfred, 8 Brooklands Road, Sale", "postcode": "M33 3SQ", "area_name": "Trafford", "area_code": "E08000009" }, "geometry": { "type": "Point", "coordinates": [ -2.325234, 53.416836 ] } },
{ "type": "Feature", "properties": { "name": "Done Brothers (Cash Betting) Limited", "address": "Betfred, 890 Chester Road, Stretford, Manchester", "postcode": "M32 0PA", "area_name": "Trafford", "area_code": "E08000009" }, "geometry": { "type": "Point", "coordinates": [ -2.299481, 53.453882 ] } },
{ "type": "Feature", "properties": { "name": "Done Brothers (Cash Betting) Limited", "address": "Betfred, 9\/9A Lostock Road, Urmston, Manchester", "postcode": "M41 0SU", "area_name": "Trafford", "area_code": "E08000009" }, "geometry": { "type": "Point", "coordinates": [ -2.35454, 53.458028 ] } },
{ "type": "Feature", "properties": { "name": "Talarius Limited", "address": "Quicksilver, 36 School Road, Sale", "postcode": "M33 7XF", "area_name": "Trafford", "area_code": "E08000009" }, "geometry": { "type": "Point", "coordinates": [ -2.320903, 53.425054 ] } },
{ "type": "Feature", "properties": { "name": "Summit Leisure (Deansgate) Limited", "address": "Shaws Amusements, 65 School Road, Sale", "postcode": "M33 7YF", "area_name": "Trafford", "area_code": "E08000009" }, "geometry": { "type": "Point", "coordinates": [ -2.323402, 53.425145 ] } },
{ "type": "Feature", "properties": { "name": "Ladbrokes Betting & Gaming Limited", "address": "Ladbrokes, 2A-4 Regent Road, Altrincham", "postcode": "WA14 1RE", "area_name": "Trafford", "area_code": "E08000009" }, "geometry": { "type": "Point", "coordinates": [ -2.351442, 53.385669 ] } },
{ "type": "Feature", "properties": { "name": "Ladbrokes Betting & Gaming Limited", "address": "Ladbrokes, 676 Chester Road, Stretford, Manchester", "postcode": "M32 0SF", "area_name": "Trafford", "area_code": "E08000009" }, "geometry": { "type": "Point", "coordinates": [ -2.288659, 53.461369 ] } },
{ "type": "Feature", "properties": { "name": "Ladbrokes Betting & Gaming Limited", "address": "Ladbrokes, 9b Lostock Road, Urmston, Manchester", "postcode": "M41 0SU", "area_name": "Trafford", "area_code": "E08000009" }, "geometry": { "type": "Point", "coordinates": [ -2.35454, 53.458028 ] } },
{ "type": "Feature", "properties": { "name": "Ladbrokes Betting & Gaming Limited", "address": "Ladbrokes, Unit 123, Arndale Centre, Stretford, Manchester", "postcode": "M32 9BH", "area_name": "Trafford", "area_code": "E08000009" }, "geometry": { "type": "Point", "coordinates": [ -2.308709, 53.445131 ] } },
{ "type": "Feature", "properties": { "name": "Reel Leisure Limited", "address": "Reel Time, 5-7 Shaws Road, Altrincham", "postcode": "WA14 1QU", "area_name": "Trafford", "area_code": "E08000009" }, "geometry": { "type": "Point", "coordinates": [ -2.35129, 53.387377 ] } },
{ "type": "Feature", "properties": { "name": "Fraser Capital Management Limited", "address": "Club 3000 Bingo, 601 Chester Road, Manchester", "postcode": "M16 0QW", "area_name": "Trafford", "area_code": "E08000009" }, "geometry": { "type": "Point", "coordinates": [ -2.276587, 53.46245 ] } },
{ "type": "Feature", "properties": { "name": "NAMCO UK Limited", "address": "Namco Station, Unit 1, 13-17 The Orient, The Trafford Centre, Manchester", "postcode": "M17 8ED", "area_name": "Trafford", "area_code": "E08000009" }, "geometry": { "type": "Point", "coordinates": [ -2.349005, 53.466179 ] } },
{ "type": "Feature", "properties": { "name": "David Pluck (North West) Limited", "address": "David Pluck Racing, 12 Northenden Road, Sale", "postcode": "M33 3BR", "area_name": "Trafford", "area_code": "E08000009" }, "geometry": { "type": "Point", "coordinates": [ -2.316951, 53.423816 ] } },
{ "type": "Feature", "properties": { "name": "David Pluck (North West) Limited", "address": "David Pluck Racing, 141 Northenden Road, Sale", "postcode": "M33 3HF", "area_name": "Trafford", "area_code": "E08000009" }, "geometry": { "type": "Point", "coordinates": [ -2.304527, 53.420287 ] } },
{ "type": "Feature", "properties": { "name": "Coral Racing Limited", "address": "Coral Racing Ltd, 19A School Road, Sale", "postcode": "M33 7XX", "area_name": "Trafford", "area_code": "E08000009" }, "geometry": { "type": "Point", "coordinates": [ -2.321157, 53.424784 ] } },
{ "type": "Feature", "properties": { "name": "Coral Racing Limited", "address": "Coral Racing Ltd, 384 Northenden Road, Sale", "postcode": "M33 2PT", "area_name": "Trafford", "area_code": "E08000009" }, "geometry": { "type": "Point", "coordinates": [ -2.290655, 53.418372 ] } },
{ "type": "Feature", "properties": { "name": "Coral Racing Limited", "address": "Coral Racing Ltd, 408 Barton Road, Stretford, Manchester", "postcode": "M32 9RW", "area_name": "Trafford", "area_code": "E08000009" }, "geometry": { "type": "Point", "coordinates": [ -2.325839, 53.454577 ] } },
{ "type": "Feature", "properties": { "name": "Coral Racing Limited", "address": "Coral Racing Ltd, 5A-7  Flixton Road, Manchester", "postcode": "M41 5AW", "area_name": "Trafford", "area_code": "E08000009" }, "geometry": { "type": "Point", "coordinates": [ -2.355392, 53.448255 ] } },
{ "type": "Feature", "properties": { "name": "Coral Racing Limited", "address": "Coral Racing Ltd, 8\/10 Green Lane, Sale", "postcode": "M33 5PH", "area_name": "Trafford", "area_code": "E08000009" }, "geometry": { "type": "Point", "coordinates": [ -2.341629, 53.429338 ] } },
{ "type": "Feature", "properties": { "name": "Coral Racing Limited", "address": "Coral Racing Ltd, 87 Great Stone Road, Stretford, Manchester", "postcode": "M32 8GR", "area_name": "Trafford", "area_code": "E08000009" }, "geometry": { "type": "Point", "coordinates": [ -2.286268, 53.453007 ] } },
{ "type": "Feature", "properties": { "name": "Mecca Bingo Limited", "address": "Mecca Bingo, 56 Washway Road, Sale", "postcode": "M33 7QZ", "area_name": "Trafford", "area_code": "E08000009" }, "geometry": { "type": "Point", "coordinates": [ -2.327456, 53.423985 ] } },
{ "type": "Feature", "properties": { "name": "William Hill Organization Limited", "address": "William Hill, Plot 3, Unit 18, Golden Way, Eden Square Shopping Centre, Urmston", "postcode": "M41 0NA", "area_name": "Trafford", "area_code": "E08000009" }, "geometry": { "type": "Point", "coordinates": [ -2.354722, 53.449093 ] } },
{ "type": "Feature", "properties": { "name": "William Hill Organization Limited", "address": "William Hill, 13 Woodsend Circle, Urmston, Manchester", "postcode": "M41 8GY", "area_name": "Trafford", "area_code": "E08000009" }, "geometry": { "type": "Point", "coordinates": [ -2.393919, 53.452824 ] } },
{ "type": "Feature", "properties": { "name": "William Hill Organization Limited", "address": "William Hill, 147-151 Marsland Road, Sale", "postcode": "M33 3HS", "area_name": "Trafford", "area_code": "E08000009" }, "geometry": { "type": "Point", "coordinates": [ -2.308856, 53.417698 ] } },
{ "type": "Feature", "properties": { "name": "William Hill Organization Limited", "address": "William Hill, 147-151 Northenden Road, Sale", "postcode": "M33 2HS", "area_name": "Trafford", "area_code": "E08000009" }, "geometry": { "type": "Point", "coordinates": [ -2.30323, 53.420031 ] } },
{ "type": "Feature", "properties": { "name": "William Hill Organization Limited", "address": "William Hill, 19C School Road, Sale", "postcode": "M33 7XX", "area_name": "Trafford", "area_code": "E08000009" }, "geometry": { "type": "Point", "coordinates": [ -2.321157, 53.424784 ] } },
{ "type": "Feature", "properties": { "name": "William Hill Organization Limited", "address": "William Hill, 256 Stockport Road, Timperley, Altrincham", "postcode": "WA15 7UT", "area_name": "Trafford", "area_code": "E08000009" }, "geometry": { "type": "Point", "coordinates": [ -2.317462, 53.397568 ] } },
{ "type": "Feature", "properties": { "name": "William Hill Organization Limited", "address": "William Hill, 27 Chorlton Street, Manchester", "postcode": "M16 9HN", "area_name": "Trafford", "area_code": "E08000009" }, "geometry": { "type": "Point", "coordinates": [ -2.268628, 53.463906 ] } },
{ "type": "Feature", "properties": { "name": "William Hill Organization Limited", "address": "William Hill, 28 Moss Road, Stretford, Manchester", "postcode": "M32 0AH", "area_name": "Trafford", "area_code": "E08000009" }, "geometry": { "type": "Point", "coordinates": [ -2.310018, 53.451213 ] } },
{ "type": "Feature", "properties": { "name": "William Hill Organization Limited", "address": "William Hill, 5 Partington Shopping Centre, Manchester", "postcode": "M31 4EL", "area_name": "Trafford", "area_code": "E08000009" }, "geometry": { "type": "Point", "coordinates": [ -2.425623, 53.418811 ] } },
{ "type": "Feature", "properties": { "name": "William Hill Organization Limited", "address": "William Hill, 5 Talbot Road, Old Trafford, Manchester", "postcode": "M16 0QT", "area_name": "Trafford", "area_code": "E08000009" }, "geometry": { "type": "Point", "coordinates": [ -2.286001, 53.460243 ] } },
{ "type": "Feature", "properties": { "name": "William Hill Organization Limited", "address": "William Hill, 85 Manchester Road, Altrincham", "postcode": "WA14 4RJ", "area_name": "Trafford", "area_code": "E08000009" }, "geometry": { "type": "Point", "coordinates": [ -2.352422, 53.396795 ] } },
{ "type": "Feature", "properties": { "name": "William Hill Organization Limited", "address": "William Hill, Unit 4  Woodsend Circle Neighbourhood Centre Flixton, Manchester", "postcode": "M41 8GY", "area_name": "Trafford", "area_code": "E08000009" }, "geometry": { "type": "Point", "coordinates": [ -2.393919, 53.452824 ] } },
{ "type": "Feature", "properties": { "name": "Rank Leisure Limited", "address": "Rank Leisure, 56 Washway Road, Sale", "postcode": "M33 7RA", "area_name": "Trafford", "area_code": "E08000009" }, "geometry": { "type": "Point", "coordinates": [ -2.328448, 53.423874 ] } },
{ "type": "Feature", "properties": { "name": "Summit Leisure (KC) Limited", "address": "Summit Leisure, 65\/65A School Road, Sale", "postcode": "M33 7YF", "area_name": "Trafford", "area_code": "E08000009" }, "geometry": { "type": "Point", "coordinates": [ -2.323402, 53.425145 ] } }
]
}
