name,address,postcode,area_name,area_code,lat,long
Done Brothers (Cash Betting) Limited,"Betfred, 100 George Street, Altrincham",WA14 1RF,Trafford,E08000009,53.386595,-2.351119
Done Brothers (Cash Betting) Limited,"Betfred, 107 Ayres Road, Manchester",M16 7GS,Trafford,E08000009,53.458434,-2.267615
Done Brothers (Cash Betting) Limited,"Betfred, 175 Chorlton Road, Manchester",M16 7WS,Trafford,E08000009,53.45913,-2.257935
Done Brothers (Cash Betting) Limited,"Betfred, 34 Hale Road, Altrincham",WA14 2EX,Trafford,E08000009,53.381446,-2.348311
Done Brothers (Cash Betting) Limited,"Betfred, 349 Stockport Road, Timperley, Altrincham",WA15 7UG,Trafford,E08000009,53.397474,-2.318996
Done Brothers (Cash Betting) Limited,"Betfred, 41 School Road, Sale",M33 7YE,Trafford,E08000009,53.424978,-2.322663
Done Brothers (Cash Betting) Limited,"Betfred, 58 Coppice Avenue, Sale",M33 4WB,Trafford,E08000009,53.415269,-2.348768
Done Brothers (Cash Betting) Limited,"Betfred, 8 Brooklands Road, Sale",M33 3SQ,Trafford,E08000009,53.416836000000004,-2.325234
Done Brothers (Cash Betting) Limited,"Betfred, 890 Chester Road, Stretford, Manchester",M32 0PA,Trafford,E08000009,53.453882,-2.299481
Done Brothers (Cash Betting) Limited,"Betfred, 9/9A Lostock Road, Urmston, Manchester",M41 0SU,Trafford,E08000009,53.458028,-2.35454
Talarius Limited,"Quicksilver, 36 School Road, Sale",M33 7XF,Trafford,E08000009,53.425054,-2.320903
Summit Leisure (Deansgate) Limited,"Shaws Amusements, 65 School Road, Sale",M33 7YF,Trafford,E08000009,53.425145,-2.323402
Ladbrokes Betting & Gaming Limited,"Ladbrokes, 2A-4 Regent Road, Altrincham",WA14 1RE,Trafford,E08000009,53.385669,-2.351442
Ladbrokes Betting & Gaming Limited,"Ladbrokes, 676 Chester Road, Stretford, Manchester",M32 0SF,Trafford,E08000009,53.461369,-2.288659
Ladbrokes Betting & Gaming Limited,"Ladbrokes, 9b Lostock Road, Urmston, Manchester",M41 0SU,Trafford,E08000009,53.458028,-2.35454
Ladbrokes Betting & Gaming Limited,"Ladbrokes, Unit 123, Arndale Centre, Stretford, Manchester",M32 9BH,Trafford,E08000009,53.445131,-2.308709
Reel Leisure Limited,"Reel Time, 5-7 Shaws Road, Altrincham",WA14 1QU,Trafford,E08000009,53.387377,-2.35129
Fraser Capital Management Limited,"Club 3000 Bingo, 601 Chester Road, Manchester",M16 0QW,Trafford,E08000009,53.46245,-2.276587
NAMCO UK Limited,"Namco Station, Unit 1, 13-17 The Orient, The Trafford Centre, Manchester",M17 8ED,Trafford,E08000009,53.466179,-2.349005
David Pluck (North West) Limited,"David Pluck Racing, 12 Northenden Road, Sale",M33 3BR,Trafford,E08000009,53.423816,-2.316951
David Pluck (North West) Limited,"David Pluck Racing, 141 Northenden Road, Sale",M33 3HF,Trafford,E08000009,53.420287,-2.304527
Coral Racing Limited,"Coral Racing Ltd, 19A School Road, Sale",M33 7XX,Trafford,E08000009,53.424784,-2.321157
Coral Racing Limited,"Coral Racing Ltd, 384 Northenden Road, Sale",M33 2PT,Trafford,E08000009,53.418372,-2.290655
Coral Racing Limited,"Coral Racing Ltd, 408 Barton Road, Stretford, Manchester",M32 9RW,Trafford,E08000009,53.454577,-2.325839
Coral Racing Limited,"Coral Racing Ltd, 5A-7  Flixton Road, Manchester",M41 5AW,Trafford,E08000009,53.448255,-2.355392
Coral Racing Limited,"Coral Racing Ltd, 8/10 Green Lane, Sale",M33 5PH,Trafford,E08000009,53.429338,-2.341629
Coral Racing Limited,"Coral Racing Ltd, 87 Great Stone Road, Stretford, Manchester",M32 8GR,Trafford,E08000009,53.453007,-2.286268
Mecca Bingo Limited,"Mecca Bingo, 56 Washway Road, Sale",M33 7QZ,Trafford,E08000009,53.423985,-2.327456
William Hill Organization Limited,"William Hill, Plot 3, Unit 18, Golden Way, Eden Square Shopping Centre, Urmston",M41 0NA,Trafford,E08000009,53.449093,-2.354722
William Hill Organization Limited,"William Hill, 13 Woodsend Circle, Urmston, Manchester",M41 8GY,Trafford,E08000009,53.452824,-2.393919
William Hill Organization Limited,"William Hill, 147-151 Marsland Road, Sale",M33 3HS,Trafford,E08000009,53.417698,-2.308856
William Hill Organization Limited,"William Hill, 147-151 Northenden Road, Sale",M33 2HS,Trafford,E08000009,53.420031,-2.30323
William Hill Organization Limited,"William Hill, 19C School Road, Sale",M33 7XX,Trafford,E08000009,53.424784,-2.321157
William Hill Organization Limited,"William Hill, 256 Stockport Road, Timperley, Altrincham",WA15 7UT,Trafford,E08000009,53.397568,-2.317462
William Hill Organization Limited,"William Hill, 27 Chorlton Street, Manchester",M16 9HN,Trafford,E08000009,53.463906,-2.268628
William Hill Organization Limited,"William Hill, 28 Moss Road, Stretford, Manchester",M32 0AH,Trafford,E08000009,53.451213,-2.310018
William Hill Organization Limited,"William Hill, 5 Partington Shopping Centre, Manchester",M31 4EL,Trafford,E08000009,53.418811,-2.425623
William Hill Organization Limited,"William Hill, 5 Talbot Road, Old Trafford, Manchester",M16 0QT,Trafford,E08000009,53.460243,-2.286001
William Hill Organization Limited,"William Hill, 85 Manchester Road, Altrincham",WA14 4RJ,Trafford,E08000009,53.396795,-2.352422
William Hill Organization Limited,"William Hill, Unit 4  Woodsend Circle Neighbourhood Centre Flixton, Manchester",M41 8GY,Trafford,E08000009,53.452824,-2.393919
Rank Leisure Limited,"Rank Leisure, 56 Washway Road, Sale",M33 7RA,Trafford,E08000009,53.423874,-2.328448
Summit Leisure (KC) Limited,"Summit Leisure, 65/65A School Road, Sale",M33 7YF,Trafford,E08000009,53.425145,-2.323402
