{
"type": "FeatureCollection",
"crs": { "type": "name", "properties": { "name": "urn:ogc:def:crs:OGC:1.3:CRS84" } },
"features": [
{ "type": "Feature", "properties": { "Club": "ABC Partington Badminton", "Category": "Badminton", "Address": "Moss Lane, Partington", "Postcode": "M31 4FA", "marker-color": "#fc6721", "marker-size": "medium" }, "geometry": { "type": "Point", "coordinates": [ -2.42096, 53.415136 ] } },
{ "type": "Feature", "properties": { "Club": "Acre Gate Golf Club", "Category": "Golf", "Address": "Pennybridge Lane, Urmston", "Postcode": "M41 5DX", "marker-color": "#fc6721", "marker-size": "medium" }, "geometry": { "type": "Point", "coordinates": [ -2.373865, 53.446756 ] } },
{ "type": "Feature", "properties": { "Club": "AFC Sale", "Category": "Athletic", "Address": "Crossford Bridge Pavillion, Danefield Road, Sale", "Postcode": "M33 7WR", "marker-color": "#fc6721", "marker-size": "medium" }, "geometry": { "type": "Point", "coordinates": [ -2.313783, 53.432778 ] } },
{ "type": "Feature", "properties": { "Club": "Altrincham Aces", "Category": "Ice Hockey", "Address": "Oakfield Road, Station Site, Altrincham", "Postcode": "WA15 8EW", "marker-color": "#fc6721", "marker-size": "medium" }, "geometry": { "type": "Point", "coordinates": [ -2.347053, 53.386779 ] } },
{ "type": "Feature", "properties": { "Club": "Altrincham and District Athletic Club", "Category": "Athletic", "Address": "227-229 Grove Lane, Altrincham", "Postcode": "WA15 7UF", "marker-color": "#fc6721", "marker-size": "medium" }, "geometry": { "type": "Point", "coordinates": [ -2.320228, 53.398387 ] } },
{ "type": "Feature", "properties": { "Club": "Altrincham and District Badminton Club", "Category": "Badminton", "Address": "Marlborough Road, Altrincham", "Postcode": "WA14 2RS", "marker-color": "#fc6721", "marker-size": "medium" }, "geometry": { "type": "Point", "coordinates": [ -2.350516, 53.37539 ] } },
{ "type": "Feature", "properties": { "Club": "Altrincham Borough Bowling Club", "Category": "Bowling", "Address": "Willow Tree Road, Altrincham", "Postcode": "WA14 2EG", "marker-color": "#fc6721", "marker-size": "medium" }, "geometry": { "type": "Point", "coordinates": [ -2.350441, 53.380936 ] } },
{ "type": "Feature", "properties": { "Club": "Altrincham Golf Club", "Category": "Golf", "Address": "Stockport Road, Altrincham", "Postcode": "WA15 7LP", "marker-color": "#fc6721", "marker-size": "medium" }, "geometry": { "type": "Point", "coordinates": [ -2.336456, 53.390265 ] } },
{ "type": "Feature", "properties": { "Club": "Altrincham Judo Club", "Category": "Martial Arts", "Address": "Oakfield Road, Altrincham", "Postcode": "WA15 8EW", "marker-color": "#fc6721", "marker-size": "medium" }, "geometry": { "type": "Point", "coordinates": [ -2.345571, 53.388289 ] } },
{ "type": "Feature", "properties": { "Club": "Altrincham Karate Club", "Category": "Martial Arts", "Address": "25 Market Street, Altrincham", "Postcode": "WA14 1PF", "marker-color": "#fc6721", "marker-size": "medium" }, "geometry": { "type": "Point", "coordinates": [ -2.352674, 53.387423 ] } },
{ "type": "Feature", "properties": { "Club": "Altrincham Kersal R.F.C", "Category": "Rugby", "Address": "Stelfox Avenue, Altrincham", "Postcode": "WA15 6UL", "marker-color": "#fc6721", "marker-size": "medium" }, "geometry": { "type": "Point", "coordinates": [ -2.312396, 53.40069 ] } },
{ "type": "Feature", "properties": { "Club": "Altrincham Life Saving and Water Safety Club", "Category": "Swimming", "Address": "Oakfield Road, Altrincham", "Postcode": "WA15 8EW", "marker-color": "#fc6721", "marker-size": "medium" }, "geometry": { "type": "Point", "coordinates": [ -2.345821, 53.38838 ] } },
{ "type": "Feature", "properties": { "Club": "Altrincham Swimming Club", "Category": "Swimming", "Address": "Oakfield Road, Altrincham", "Postcode": "WA15 8EW", "marker-color": "#fc6721", "marker-size": "medium" }, "geometry": { "type": "Point", "coordinates": [ -2.345898, 53.388269 ] } },
{ "type": "Feature", "properties": { "Club": "Altrincham Tae Kwon-Do", "Category": "Martial Arts", "Address": "Marlborough Road, Altrincham", "Postcode": "WA14 2RS", "marker-color": "#fc6721", "marker-size": "medium" }, "geometry": { "type": "Point", "coordinates": [ -2.350382, 53.375378 ] } },
{ "type": "Feature", "properties": { "Club": "Blue Triangle Badminton Club", "Category": "Badminton", "Address": "Marlborough Road, Altrincham", "Postcode": "WA14 2RS", "marker-color": "#fc6721", "marker-size": "medium" }, "geometry": { "type": "Point", "coordinates": [ -2.350469, 53.375344 ] } },
{ "type": "Feature", "properties": { "Club": "Lostock Badminton Club", "Category": "Badminton", "Address": "Marlborough Road, Altrincham", "Postcode": "WA14 2RS", "marker-color": "#fc6721", "marker-size": "medium" }, "geometry": { "type": "Point", "coordinates": [ -2.350238, 53.375347 ] } },
{ "type": "Feature", "properties": { "Club": "Atlantic Badminton Club", "Category": "Badminton", "Address": "Marlborough Road, Altrincham", "Postcode": "WA14 2RS", "marker-color": "#fc6721", "marker-size": "medium" }, "geometry": { "type": "Point", "coordinates": [ -2.350673, 53.375371 ] } },
{ "type": "Feature", "properties": { "Club": "Trafford Aikido Club", "Category": "Martial Arts", "Address": "Oakfield Road, Altrincham", "Postcode": "WA15 8EW", "marker-color": "#fc6721", "marker-size": "medium" }, "geometry": { "type": "Point", "coordinates": [ -2.345654, 53.388441 ] } },
{ "type": "Feature", "properties": { "Club": "Altrincham Football Club", "Category": "Football", "Address": "Moss Lane, Altrincham", "Postcode": "WA15 8AP", "marker-color": "#fc6721", "marker-size": "medium" }, "geometry": { "type": "Point", "coordinates": [ -2.335238, 53.383404 ] } },
{ "type": "Feature", "properties": { "Club": "Ashton on Mersey Cricket Club", "Category": "Cricket", "Address": "Little Ees Lane, Sale", "Postcode": "M33 5GT", "marker-color": "#fc6721", "marker-size": "medium" }, "geometry": { "type": "Point", "coordinates": [ -2.336582, 53.436245 ] } },
{ "type": "Feature", "properties": { "Club": "Ashton Ladies Bowling Club", "Category": "Bowling", "Address": "Glebelands Road, Sale", "Postcode": "M33 5QU", "marker-color": "#fc6721", "marker-size": "medium" }, "geometry": { "type": "Point", "coordinates": [ -2.335373, 53.429991 ] } },
{ "type": "Feature", "properties": { "Club": "Ashton on Mersey  RUFC", "Category": "Rugby", "Address": "Banky Lane, Sale", "Postcode": "M33 5SL", "marker-color": "#fc6721", "marker-size": "medium" }, "geometry": { "type": "Point", "coordinates": [ -2.355586, 53.433392 ] } },
{ "type": "Feature", "properties": { "Club": "Ashton on Mersey Cricket and Tennis Club", "Category": "Cricket, Tennis", "Address": "Little Ees Lane, Sale", "Postcode": "M33 5GT", "marker-color": "#fc6721", "marker-size": "medium" }, "geometry": { "type": "Point", "coordinates": [ -2.33651, 53.436232 ] } },
{ "type": "Feature", "properties": { "Club": "Ashton on Mersey Golf Club", "Category": "Golf", "Address": "Church Lane, Sale", "Postcode": "M33 5QQ", "marker-color": "#fc6721", "marker-size": "medium" }, "geometry": { "type": "Point", "coordinates": [ -2.34427, 53.434156 ] } },
{ "type": "Feature", "properties": { "Club": "Ashton on Mersey Junior Football Club", "Category": "Football", "Address": "Dumber Lane, Sale", "Postcode": "M33 5QX", "marker-color": "#fc6721", "marker-size": "medium" }, "geometry": { "type": "Point", "coordinates": [ -2.33715, 53.430175 ] } },
{ "type": "Feature", "properties": { "Club": "Ashton Park Veterans Bowling Club", "Category": "Bowling", "Address": "Glebelands Road, Sale", "Postcode": "M33 5QU", "marker-color": "#fc6721", "marker-size": "medium" }, "geometry": { "type": "Point", "coordinates": [ -2.334904, 53.429845 ] } },
{ "type": "Feature", "properties": { "Club": "Atlantic Judo\/Ju-jitsu Club", "Category": "Martial Arts", "Address": "Brook Close, Altrincham", "Postcode": "WA15 6RH", "marker-color": "#fc6721", "marker-size": "medium" }, "geometry": { "type": "Point", "coordinates": [ -2.342073, 53.395499 ] } },
{ "type": "Feature", "properties": { "Club": "Avenue Methodist Church Badminton", "Category": "Badminton", "Address": "Wincham Road, Sale", "Postcode": "M33 4PL", "marker-color": "#fc6721", "marker-size": "medium" }, "geometry": { "type": "Point", "coordinates": [ -2.341813, 53.414365 ] } },
{ "type": "Feature", "properties": { "Club": "Bowdon Bowling and Lawn Tennis Club", "Category": "Bowling, Tennis", "Address": "Winton Road, Altrincham", "Postcode": "WA14 2PD", "marker-color": "#fc6721", "marker-size": "medium" }, "geometry": { "type": "Point", "coordinates": [ -2.36107, 53.378905 ] } },
{ "type": "Feature", "properties": { "Club": "Bowdon Cricket, Hockey and Squash Club", "Category": "Multi Sports", "Address": "South Downs Road, Altrincham", "Postcode": "WA14 3DT", "marker-color": "#fc6721", "marker-size": "medium" }, "geometry": { "type": "Point", "coordinates": [ -2.35557, 53.373416 ] } },
{ "type": "Feature", "properties": { "Club": "Bowdon Croquet Club", "Category": "Croquet", "Address": "St Mary's Road, Altrincham", "Postcode": "WA14 2PL", "marker-color": "#fc6721", "marker-size": "medium" }, "geometry": { "type": "Point", "coordinates": [ -2.362475, 53.379612 ] } },
{ "type": "Feature", "properties": { "Club": "Bowdon Lawn Tennis Club", "Category": "Tennis", "Address": "Green Walk, Altrincham", "Postcode": "WA14 2SJ", "marker-color": "#fc6721", "marker-size": "medium" }, "geometry": { "type": "Point", "coordinates": [ -2.366813, 53.379662 ] } },
{ "type": "Feature", "properties": { "Club": "Bowdon RUFC", "Category": "Rugby", "Address": "Clay Lane, Altrincham", "Postcode": "WA15 7AF", "marker-color": "#fc6721", "marker-size": "medium" }, "geometry": { "type": "Point", "coordinates": [ -2.311317, 53.387296 ] } },
{ "type": "Feature", "properties": { "Club": "Bowdon Vale Bowling Club", "Category": "Bowling", "Address": "Priory Street, Altrincham", "Postcode": "WA14 3BH", "marker-color": "#fc6721", "marker-size": "medium" }, "geometry": { "type": "Point", "coordinates": [ -2.361789, 53.369682 ] } },
{ "type": "Feature", "properties": { "Club": "Broadheath Central FC", "Category": "Football", "Address": "Viaduct Road, Altrincham", "Postcode": "WA14 5DX", "marker-color": "#fc6721", "marker-size": "medium" }, "geometry": { "type": "Point", "coordinates": [ -2.349618, 53.400464 ] } },
{ "type": "Feature", "properties": { "Club": "Brooklands Football Club", "Category": "Football", "Address": "Budworth Road, Sale", "Postcode": "M33 2RP", "marker-color": "#fc6721", "marker-size": "medium" }, "geometry": { "type": "Point", "coordinates": [ -2.297194, 53.417145 ] } },
{ "type": "Feature", "properties": { "Club": "Brooklands Sports Club", "Category": "Multi Sports", "Address": "George's Road, Sale", "Postcode": "M33 3NL", "marker-color": "#fc6721", "marker-size": "medium" }, "geometry": { "type": "Point", "coordinates": [ -2.317819, 53.414619 ] } },
{ "type": "Feature", "properties": { "Club": "Brownley Albion", "Category": "Football", "Address": "Beech Avenue, Altrincham", "Postcode": "WA16 6JS", "marker-color": "#fc6721", "marker-size": "medium" }, "geometry": { "type": "Point", "coordinates": [ -2.31996, 53.403849 ] } },
{ "type": "Feature", "properties": { "Club": "Bucklow Trafford Riding Club", "Category": "Riding", "Address": "Dairy House Lane, Stretford", "Postcode": "WA14 5RE", "marker-color": "#fc6721", "marker-size": "medium" }, "geometry": { "type": "Point", "coordinates": [ -2.371155, 53.401177 ] } },
{ "type": "Feature", "properties": { "Club": "Carrington Riding Centre", "Category": "Riding", "Address": "Isherwood Road, Urmston", "Postcode": "M31 4BH", "marker-color": "#fc6721", "marker-size": "medium" }, "geometry": { "type": "Point", "coordinates": [ -2.382194, 53.434184 ] } },
{ "type": "Feature", "properties": { "Club": "Cheshire Jet Ski Club", "Category": "Water Sports", "Address": "Rifle Road, Sale", "Postcode": "M33 2LX", "marker-color": "#fc6721", "marker-size": "medium" }, "geometry": { "type": "Point", "coordinates": [ -2.300003, 53.431401 ] } },
{ "type": "Feature", "properties": { "Club": "Claremont Tennis Club", "Category": "Tennis", "Address": "Claremont Avenue, Altrincham", "Postcode": "WA14 5ND", "marker-color": "#fc6721", "marker-size": "medium" }, "geometry": { "type": "Point", "coordinates": [ -2.348383, 53.404184 ] } },
{ "type": "Feature", "properties": { "Club": "Davyhulme Park Bowling Club", "Category": "Bowling", "Address": "Crofts Bank Road, Stretford", "Postcode": "M41 0US", "marker-color": "#fc6721", "marker-size": "medium" }, "geometry": { "type": "Point", "coordinates": [ -2.352432, 53.453066 ] } },
{ "type": "Feature", "properties": { "Club": "Davyhulme Park Golf Club", "Category": "Golf", "Address": "Gleneagles Road, Urmston", "Postcode": "M41 8SA", "marker-color": "#fc6721", "marker-size": "medium" }, "geometry": { "type": "Point", "coordinates": [ -2.383403, 53.455599 ] } },
{ "type": "Feature", "properties": { "Club": "Dunham Forest Golf Club", "Category": "Golf", "Address": "Oldfield Lane, Altrincham", "Postcode": "WA14 4TY", "marker-color": "#fc6721", "marker-size": "medium" }, "geometry": { "type": "Point", "coordinates": [ -2.378752, 53.387525 ] } },
{ "type": "Feature", "properties": { "Club": "Flixton Cricket and Sports Club", "Category": "Cricket", "Address": "Lawrence Rd, Urmston", "Postcode": "M41 8UU", "marker-color": "#fc6721", "marker-size": "medium" }, "geometry": { "type": "Point", "coordinates": [ -2.387818, 53.452126 ] } },
{ "type": "Feature", "properties": { "Club": "Flixton Football Club", "Category": "Football", "Address": "Vally Road, Urmston", "Postcode": "M41 8RQ", "marker-color": "#fc6721", "marker-size": "medium" }, "geometry": { "type": "Point", "coordinates": [ -2.39833, 53.454557 ] } },
{ "type": "Feature", "properties": { "Club": "Flixton Golf Club", "Category": "Golf", "Address": "269 Church Road, Urmston", "Postcode": "M41 6EP", "marker-color": "#fc6721", "marker-size": "medium" }, "geometry": { "type": "Point", "coordinates": [ -2.376749, 53.441377 ] } },
{ "type": "Feature", "properties": { "Club": "Flixton Junior Football Club", "Category": "Football", "Address": "91 Irlam Road, Urmston", "Postcode": "M41 6DU", "marker-color": "#fc6721", "marker-size": "medium" }, "geometry": { "type": "Point", "coordinates": [ -2.396688, 53.445959 ] } },
{ "type": "Feature", "properties": { "Club": "Gendai Karate", "Category": "Martial Arts", "Address": "Partington Central Road, Partington", "Postcode": "M31 4EQ", "marker-color": "#fc6721", "marker-size": "medium" }, "geometry": { "type": "Point", "coordinates": [ -2.425135, 53.41689 ] } },
{ "type": "Feature", "properties": { "Club": "Golden Hill Ladies Bowling Club", "Category": "Bowling", "Address": "Winifred Road, Urmston", "Postcode": "M41 5FT", "marker-color": "#fc6721", "marker-size": "medium" }, "geometry": { "type": "Point", "coordinates": [ -2.355699, 53.451169 ] } },
{ "type": "Feature", "properties": { "Club": "Golden Hill Mens Bowling Club", "Category": "Bowling", "Address": "Winifred Road, Urmston", "Postcode": "M41 5FT", "marker-color": "#fc6721", "marker-size": "medium" }, "geometry": { "type": "Point", "coordinates": [ -2.35553, 53.451201 ] } },
{ "type": "Feature", "properties": { "Club": "Hale Barns Cricket Club", "Category": "Cricket", "Address": "Brooks Drive, Altrincham", "Postcode": "WA15 8TN", "marker-color": "#fc6721", "marker-size": "medium" }, "geometry": { "type": "Point", "coordinates": [ -2.301104, 53.367489 ] } },
{ "type": "Feature", "properties": { "Club": "Hale Barns Tennis Club", "Category": "Tennis", "Address": "Chapel Lane, Altrincham", "Postcode": "WA15 0AQ", "marker-color": "#fc6721", "marker-size": "medium" }, "geometry": { "type": "Point", "coordinates": [ -2.314644, 53.366092 ] } },
{ "type": "Feature", "properties": { "Club": "Hale Barns United Junior Football Club", "Category": "Football", "Address": "1 Peter Street, Altrincham", "Postcode": "WA14 2DZ", "marker-color": "#fc6721", "marker-size": "medium" }, "geometry": { "type": "Point", "coordinates": [ -2.354889, 53.371317 ] } },
{ "type": "Feature", "properties": { "Club": "Hale Golf Club", "Category": "Golf", "Address": "Rappax Road, Altrincham", "Postcode": "WA15 0NU", "marker-color": "#fc6721", "marker-size": "medium" }, "geometry": { "type": "Point", "coordinates": [ -2.329151, 53.365269 ] } },
{ "type": "Feature", "properties": { "Club": "Hale Ladies Bowling Club", "Category": "Bowling", "Address": "Stamford Park Road, Altrincham", "Postcode": "WA15 9EL", "marker-color": "#fc6721", "marker-size": "medium" }, "geometry": { "type": "Point", "coordinates": [ -2.341959, 53.383452 ] } },
{ "type": "Feature", "properties": { "Club": "Hale Moss Bowling Club", "Category": "Bowling", "Address": "Stamford Park Road, Altrincham", "Postcode": "WA15 9EL", "marker-color": "#fc6721", "marker-size": "medium" }, "geometry": { "type": "Point", "coordinates": [ -2.341774, 53.383524 ] } },
{ "type": "Feature", "properties": { "Club": "Hale Lawn Tennis Club", "Category": "Tennis", "Address": "Park Avenue, Altrincham", "Postcode": "WA15 9DL", "marker-color": "#fc6721", "marker-size": "medium" }, "geometry": { "type": "Point", "coordinates": [ -2.333181, 53.37549 ] } },
{ "type": "Feature", "properties": { "Club": "Hale Veterans' Bowling Club", "Category": "Bowling", "Address": "Ashley Road, Altrincham", "Postcode": "WA14 2LX", "marker-color": "#fc6721", "marker-size": "medium" }, "geometry": { "type": "Point", "coordinates": [ -2.352851, 53.379275 ] } },
{ "type": "Feature", "properties": { "Club": "Hale Village Tennis Club", "Category": "Tennis", "Address": "23 Leigh Road, Altrincham", "Postcode": "WA15 9BJ", "marker-color": "#fc6721", "marker-size": "medium" }, "geometry": { "type": "Point", "coordinates": [ -2.343608, 53.377757 ] } },
{ "type": "Feature", "properties": { "Club": "Heyes Grove Tennis Club", "Category": "Tennis", "Address": "Stoney Bridge Lane, Stretford", "Postcode": "WA15 6PG", "marker-color": "#fc6721", "marker-size": "medium" }, "geometry": { "type": "Point", "coordinates": [ -2.324526, 53.399466 ] } },
{ "type": "Feature", "properties": { "Club": "Humphrey Park Ladies Bowling Club", "Category": "Bowling", "Address": "Humphrey Lane, Urmston", "Postcode": "M41 9PT", "marker-color": "#fc6721", "marker-size": "medium" }, "geometry": { "type": "Point", "coordinates": [ -2.332284, 53.450333 ] } },
{ "type": "Feature", "properties": { "Club": "Ju Jitsu Club", "Category": "Martial Arts", "Address": "5 Dovestone Road, Sale", "Postcode": "M33 6LE", "marker-color": "#fc6721", "marker-size": "medium" }, "geometry": { "type": "Point", "coordinates": [ -2.321859, 53.4295 ] } },
{ "type": "Feature", "properties": { "Club": "T50 Gymnastics", "Category": "Gymnastics", "Address": "Raglan Road, Sale", "Postcode": "M33 4AN", "marker-color": "#fc6721", "marker-size": "medium" }, "geometry": { "type": "Point", "coordinates": [ -2.329799, 53.414416 ] } },
{ "type": "Feature", "properties": { "Club": "Legh Arms Bowling Club", "Category": "Bowling", "Address": "178 Northenden Road, Sale", "Postcode": "M33 2SR", "marker-color": "#fc6721", "marker-size": "medium" }, "geometry": { "type": "Point", "coordinates": [ -2.302699, 53.419272 ] } },
{ "type": "Feature", "properties": { "Club": "Longford Park Bowling Club", "Category": "Bowling", "Address": "Cromwell Road, Stretford", "Postcode": "M32 8QL", "marker-color": "#fc6721", "marker-size": "medium" }, "geometry": { "type": "Point", "coordinates": [ -2.291386, 53.447664 ] } },
{ "type": "Feature", "properties": { "Club": "Longhey Athletic Junior Football Club", "Category": "Football", "Address": "118 Grove Road, Altrincham", "Postcode": "WA15 6PL", "marker-color": "#fc6721", "marker-size": "medium" }, "geometry": { "type": "Point", "coordinates": [ -2.32645, 53.381147 ] } },
{ "type": "Feature", "properties": { "Club": "Manchester Korfball Club", "Category": "Netball, Basketball", "Address": "Broad Road, Sale", "Postcode": "M33 2AL", "marker-color": "#fc6721", "marker-size": "medium" }, "geometry": { "type": "Point", "coordinates": [ -2.315886, 53.424678 ] } },
{ "type": "Feature", "properties": { "Club": "Mersey Valley Sports and Social Club", "Category": "Multi Sports", "Address": "Banky Lane, Sale", "Postcode": "M33 5SL", "marker-color": "#fc6721", "marker-size": "medium" }, "geometry": { "type": "Point", "coordinates": [ -2.353487, 53.432694 ] } },
{ "type": "Feature", "properties": { "Club": "Montell Carrington RUFC", "Category": "Rugby", "Address": "Mancheter Road, Partington", "Postcode": "M31 4BD", "marker-color": "#fc6721", "marker-size": "medium" }, "geometry": { "type": "Point", "coordinates": [ -2.391366, 53.431556 ] } },
{ "type": "Feature", "properties": { "Club": "Navigation Veterans Bowling Club", "Category": "Bowling", "Address": "Navigation Road, Altrincham", "Postcode": "WA14 1LJ", "marker-color": "#fc6721", "marker-size": "medium" }, "geometry": { "type": "Point", "coordinates": [ -2.343605, 53.396228 ] } },
{ "type": "Feature", "properties": { "Club": "Norris Road Veterans Bowling Club", "Category": "Bowling", "Address": "Moor Nook Park, Norris Road, Sale", "Postcode": "M33 2TN", "marker-color": "#fc6721", "marker-size": "medium" }, "geometry": { "type": "Point", "coordinates": [ -2.305593, 53.414821 ] } },
{ "type": "Feature", "properties": { "Club": "Old Stretfordians Amateur Football Club", "Category": "Football", "Address": "Urmston", "Postcode": "M41 5GJ", "marker-color": "#fc6721", "marker-size": "medium" }, "geometry": { "type": "Point", "coordinates": [ -2.380486, 53.446623 ] } },
{ "type": "Feature", "properties": { "Club": "Old Trafford Bowling Club", "Category": "Bowling", "Address": "49A Talbot Road, Sale", "Postcode": "M16 0PW", "marker-color": "#fc6721", "marker-size": "medium" }, "geometry": { "type": "Point", "coordinates": [ -2.280557, 53.460569 ] } },
{ "type": "Feature", "properties": { "Club": "Manchester United Football Club", "Category": "Football", "Address": "Sir Matt Busby Way, Stretford", "Postcode": "M16 0RA", "marker-color": "#fc6721", "marker-size": "medium" }, "geometry": { "type": "Point", "coordinates": [ -2.291376, 53.463043 ] } },
{ "type": "Feature", "properties": { "Club": "Oldfield Table Tennis Club", "Category": "Tennis", "Address": "Shay Lane, Altrincham", "Postcode": "WA15 8NZ", "marker-color": "#fc6721", "marker-size": "medium" }, "geometry": { "type": "Point", "coordinates": [ -2.315587, 53.372236 ] } },
{ "type": "Feature", "properties": { "Club": "Partington Netball Club", "Category": "Netball", "Address": "Chapel Lane, Partington", "Postcode": "M31 4ES", "marker-color": "#fc6721", "marker-size": "medium" }, "geometry": { "type": "Point", "coordinates": [ -2.428356, 53.413477 ] } },
{ "type": "Feature", "properties": { "Club": "Partington Trampolining Club", "Category": "Trampoline", "Address": "Chapel Lane, Partington", "Postcode": "M31 4ES", "marker-color": "#fc6721", "marker-size": "medium" }, "geometry": { "type": "Point", "coordinates": [ -2.428563, 53.413482 ] } },
{ "type": "Feature", "properties": { "Club": "Partington Village Junior Football Club", "Category": "Football", "Address": "Chapel Lane, Partington", "Postcode": "M31 4ES", "marker-color": "#fc6721", "marker-size": "medium" }, "geometry": { "type": "Point", "coordinates": [ -2.428442, 53.413353 ] } },
{ "type": "Feature", "properties": { "Club": "Pyramid Ventura Badminton Club", "Category": "Badminton", "Address": "Cecil Avenue, Sale", "Postcode": "M33 5BP", "marker-color": "#fc6721", "marker-size": "medium" }, "geometry": { "type": "Point", "coordinates": [ -2.340796, 53.419769 ] } },
{ "type": "Feature", "properties": { "Club": "Quadrant & Urmston Football Club", "Category": "Football", "Address": "Audley Avenue, Sale", "Postcode": "M32 9TG", "marker-color": "#fc6721", "marker-size": "medium" }, "geometry": { "type": "Point", "coordinates": [ -2.334351, 53.458029 ] } },
{ "type": "Feature", "properties": { "Club": "Riddings Bowling Club", "Category": "Bowling", "Address": "Riddings Road, Stretford", "Postcode": "WA15 6BW", "marker-color": "#fc6721", "marker-size": "medium" }, "geometry": { "type": "Point", "coordinates": [ -2.33198, 53.404879 ] } },
{ "type": "Feature", "properties": { "Club": "Ringway Golf Club", "Category": "Golf", "Address": "Hale Road, Sale", "Postcode": "WA15 8SW", "marker-color": "#fc6721", "marker-size": "medium" }, "geometry": { "type": "Point", "coordinates": [ -2.315035, 53.370498 ] } },
{ "type": "Feature", "properties": { "Club": "Sailfin Swimming Club for People with Disabilities", "Category": "Swimming", "Address": "Broad Road, Altrincham", "Postcode": "M33 2AL", "marker-color": "#fc6721", "marker-size": "medium" }, "geometry": { "type": "Point", "coordinates": [ -2.316155, 53.424664 ] } },
{ "type": "Feature", "properties": { "Club": "Sale Amateur Football Club", "Category": "Football", "Address": "Heywood Road, Sale", "Postcode": "M33 3WB", "marker-color": "#fc6721", "marker-size": "medium" }, "geometry": { "type": "Point", "coordinates": [ -2.321306, 53.416137 ] } },
{ "type": "Feature", "properties": { "Club": "Sale Atemi Ju Jitsu", "Category": "Martial Arts", "Address": "5 Dovestone Road, Sale", "Postcode": "M33 6LE", "marker-color": "#fc6721", "marker-size": "medium" }, "geometry": { "type": "Point", "coordinates": [ -2.32175, 53.429415 ] } },
{ "type": "Feature", "properties": { "Club": "Sale Golf Club", "Category": "Golf", "Address": "Golf Road, Sale", "Postcode": "M33 2XU", "marker-color": "#fc6721", "marker-size": "medium" }, "geometry": { "type": "Point", "coordinates": [ -2.291185, 53.424694 ] } },
{ "type": "Feature", "properties": { "Club": "Sale Harriers Athletic Club", "Category": "Athletic", "Address": "Danefield Road, Sale", "Postcode": "M33 7WR", "marker-color": "#fc6721", "marker-size": "medium" }, "geometry": { "type": "Point", "coordinates": [ -2.313648, 53.432761 ] } },
{ "type": "Feature", "properties": { "Club": "Sale Juniors Football Club", "Category": "Football", "Address": "Danefield Road, Sale", "Postcode": "M33 7WR", "marker-color": "#fc6721", "marker-size": "medium" }, "geometry": { "type": "Point", "coordinates": [ -2.315755, 53.432632 ] } },
{ "type": "Feature", "properties": { "Club": "Sale Excelsior Club", "Category": "Bowling", "Address": "2 Symons Road, Sale", "Postcode": "M33 7FJ", "marker-color": "#fc6721", "marker-size": "medium" }, "geometry": { "type": "Point", "coordinates": [ -2.318707, 53.427174 ] } },
{ "type": "Feature", "properties": { "Club": "Sale Jubilee Ladies Bowling Club", "Category": "Bowling", "Address": "Broad Road, Sale", "Postcode": "M33 2ES", "marker-color": "#fc6721", "marker-size": "medium" }, "geometry": { "type": "Point", "coordinates": [ -2.307784, 53.425156 ] } },
{ "type": "Feature", "properties": { "Club": "Sale Judo Club", "Category": "Martial Arts", "Address": "Broad Road, Sale", "Postcode": "M33 2AL", "marker-color": "#fc6721", "marker-size": "medium" }, "geometry": { "type": "Point", "coordinates": [ -2.315712, 53.424644 ] } },
{ "type": "Feature", "properties": { "Club": "Sale Moor Cricket Club", "Category": "Cricket", "Address": "Sunningdale Avenue, Sale", "Postcode": "M33 2PJ", "marker-color": "#fc6721", "marker-size": "medium" }, "geometry": { "type": "Point", "coordinates": [ -2.297263, 53.417372 ] } },
{ "type": "Feature", "properties": { "Club": "Sale RUFC", "Category": "Rugby", "Address": "Heywood Road, Sale", "Postcode": "M33 3WB", "marker-color": "#fc6721", "marker-size": "medium" }, "geometry": { "type": "Point", "coordinates": [ -2.321038, 53.416161 ] } },
{ "type": "Feature", "properties": { "Club": "Sale Sports Club", "Category": "Multi Sports", "Address": "Clarendon Crescent, Sale", "Postcode": "M33 2DE", "marker-color": "#fc6721", "marker-size": "medium" }, "geometry": { "type": "Point", "coordinates": [ -2.30452, 53.427912 ] } },
{ "type": "Feature", "properties": { "Club": "Sale United Football Club", "Category": "Football", "Address": "Danefield Road, Sale", "Postcode": "M33 7WR", "marker-color": "#fc6721", "marker-size": "medium" }, "geometry": { "type": "Point", "coordinates": [ -2.315672, 53.432613 ] } },
{ "type": "Feature", "properties": { "Club": "Sale Weight Training Club", "Category": "Weights", "Address": "30 Raglan Road, Sale", "Postcode": "M33 4AG", "marker-color": "#fc6721", "marker-size": "medium" }, "geometry": { "type": "Point", "coordinates": [ -2.329322, 53.414747 ] } },
{ "type": "Feature", "properties": { "Club": "Salians RUFC", "Category": "Rugby", "Address": "Finny Bank Road, Sale", "Postcode": "M33 6LR", "marker-color": "#fc6721", "marker-size": "medium" }, "geometry": { "type": "Point", "coordinates": [ -2.330633, 53.433544 ] } },
{ "type": "Feature", "properties": { "Club": "Silver Feather Badminton Club", "Category": "Badminton", "Address": "Cecil Avenue, Stretford", "Postcode": "M33 5BP", "marker-color": "#fc6721", "marker-size": "medium" }, "geometry": { "type": "Point", "coordinates": [ -2.340605, 53.419806 ] } },
{ "type": "Feature", "properties": { "Club": "St Lawrence Gaelic Football Club", "Category": "Gaelic Football", "Address": "Turn Moss Road, Sale", "Postcode": "M32 8QD", "marker-color": "#fc6721", "marker-size": "medium" }, "geometry": { "type": "Point", "coordinates": [ -2.293538, 53.441386 ] } },
{ "type": "Feature", "properties": { "Club": "Stamford Bowling Club", "Category": "Bowling", "Address": "Oldfield Road, Altrincham", "Postcode": "WA14 4WQ", "marker-color": "#fc6721", "marker-size": "medium" }, "geometry": { "type": "Point", "coordinates": [ -2.354671, 53.392356 ] } },
{ "type": "Feature", "properties": { "Club": "Stretford Amateur Swimming Club", "Category": "Swimming", "Address": "Briggs Road, Stretford", "Postcode": "M32  0ZP", "marker-color": "#fc6721", "marker-size": "medium" }, "geometry": { "type": "Point", "coordinates": [ -2.292301, 53.45818 ] } },
{ "type": "Feature", "properties": { "Club": "Stretford Cricket Club", "Category": "Cricket", "Address": "Lesley Road, Stretford", "Postcode": "M32 9EE", "marker-color": "#fc6721", "marker-size": "medium" }, "geometry": { "type": "Point", "coordinates": [ -2.327468, 53.443106 ] } },
{ "type": "Feature", "properties": { "Club": "Stretfordians Junior Football Club", "Category": "Football", "Address": "118 Grove Road, Stretford", "Postcode": "WA15 6PL", "marker-color": "#fc6721", "marker-size": "medium" }, "geometry": { "type": "Point", "coordinates": [ -2.321925, 53.397866 ] } },
{ "type": "Feature", "properties": { "Club": "Tai Chi Chuan", "Category": "Martial Arts", "Address": "74 Cronwell Road, Stretford", "Postcode": "M32 8QJ", "marker-color": "#fc6721", "marker-size": "medium" }, "geometry": { "type": "Point", "coordinates": [ -2.294093, 53.448255 ] } },
{ "type": "Feature", "properties": { "Club": "Tang Soo Doo", "Category": "Martial Arts", "Address": "Broad Road, Sale", "Postcode": "M33 2AL", "marker-color": "#fc6721", "marker-size": "medium" }, "geometry": { "type": "Point", "coordinates": [ -2.315933, 53.424533 ] } },
{ "type": "Feature", "properties": { "Club": "The Grange Sports and Social Club", "Category": "Multi Sports", "Address": "52 Grange Avenue, Altrincham", "Postcode": "WA15 6DX", "marker-color": "#fc6721", "marker-size": "medium" }, "geometry": { "type": "Point", "coordinates": [ -2.319838, 53.40383 ] } },
{ "type": "Feature", "properties": { "Club": "Timperley Sports Club", "Category": "Multi Sports", "Address": "Stockport Road, Altrincham", "Postcode": "WA15 7LU", "marker-color": "#fc6721", "marker-size": "medium" }, "geometry": { "type": "Point", "coordinates": [ -2.331341, 53.390761 ] } },
{ "type": "Feature", "properties": { "Club": "Timperley Tornadoes", "Category": "Football", "Address": "8 Colville Grove, Altrincham", "Postcode": "WA15 6NA", "marker-color": "#fc6721", "marker-size": "medium" }, "geometry": { "type": "Point", "coordinates": [ -2.330567, 53.394697 ] } },
{ "type": "Feature", "properties": { "Club": "Timperley Villa Youth FC", "Category": "Football", "Address": "Balmoral Road, Altrincham", "Postcode": "WA15 8HJ", "marker-color": "#fc6721", "marker-size": "medium" }, "geometry": { "type": "Point", "coordinates": [ -2.342081, 53.386988 ] } },
{ "type": "Feature", "properties": { "Club": "Trafford Athletic Club", "Category": "Athletic", "Address": "Ryebank Road, Stretford", "Postcode": "M21 9TA", "marker-color": "#fc6721", "marker-size": "medium" }, "geometry": { "type": "Point", "coordinates": [ -2.289527, 53.446315 ] } },
{ "type": "Feature", "properties": { "Club": "Trafford Basketball Centre", "Category": "Basketball", "Address": "Manor Avenue, Sale", "Postcode": "M33 5JX", "marker-color": "#fc6721", "marker-size": "medium" }, "geometry": { "type": "Point", "coordinates": [ -2.354758, 53.424575 ] } },
{ "type": "Feature", "properties": { "Club": "Trafford Football Club", "Category": "Football", "Address": "Pennybridge Lane, Urmston", "Postcode": "M41 5DL", "marker-color": "#fc6721", "marker-size": "medium" }, "geometry": { "type": "Point", "coordinates": [ -2.37216, 53.446398 ] } },
{ "type": "Feature", "properties": { "Club": "Trafford Hawkes", "Category": "Rugby", "Address": "Finny Bank Road, Stretford", "Postcode": "M33 6LR", "marker-color": "#fc6721", "marker-size": "medium" }, "geometry": { "type": "Point", "coordinates": [ -2.330858, 53.433669 ] } },
{ "type": "Feature", "properties": { "Club": "Trafford MV Cricket Club", "Category": "Cricket", "Address": "Finnybank Road, Sale", "Postcode": "M33 6LR", "marker-color": "#fc6721", "marker-size": "medium" }, "geometry": { "type": "Point", "coordinates": [ -2.330778, 53.433652 ] } },
{ "type": "Feature", "properties": { "Club": "Trafford MV RFCC", "Category": "Rugby", "Address": "Finnybank Road, Sale", "Postcode": "M33 6LR", "marker-color": "#fc6721", "marker-size": "medium" }, "geometry": { "type": "Point", "coordinates": [ -2.330801, 53.433604 ] } },
{ "type": "Feature", "properties": { "Club": "Trafford Senior Netball Club", "Category": "Netball", "Address": "Manor Avenue, Sale", "Postcode": "M33 5JX", "marker-color": "#fc6721", "marker-size": "medium" }, "geometry": { "type": "Point", "coordinates": [ -2.354544, 53.424689 ] } },
{ "type": "Feature", "properties": { "Club": "Trafford Metro Swimming Club", "Category": "Swimming", "Address": "Broad Road, Sale", "Postcode": "M33 2AL", "marker-color": "#fc6721", "marker-size": "medium" }, "geometry": { "type": "Point", "coordinates": [ -2.315692, 53.424553 ] } },
{ "type": "Feature", "properties": { "Club": "Trafford Synchronized Swimming Club", "Category": "Swimming", "Address": "Broad Road, Sale", "Postcode": "M33 2AL", "marker-color": "#fc6721", "marker-size": "medium" }, "geometry": { "type": "Point", "coordinates": [ -2.315806, 53.424508 ] } },
{ "type": "Feature", "properties": { "Club": "Trafford Rangers Junior FC", "Category": "Football", "Address": "Urmston", "Postcode": "M41 6JB", "marker-color": "#fc6721", "marker-size": "medium" }, "geometry": { "type": "Point", "coordinates": [ -2.380233, 53.443309 ] } },
{ "type": "Feature", "properties": { "Club": "Trafford Rowing Club", "Category": "Rowing", "Address": "30 Raglan Road, Sale", "Postcode": "M33 4AG", "marker-color": "#fc6721", "marker-size": "medium" }, "geometry": { "type": "Point", "coordinates": [ -2.329679, 53.41457 ] } },
{ "type": "Feature", "properties": { "Club": "Trafford School of Gymnastics", "Category": "Gymnastics", "Address": "Raglan Road, Sale", "Postcode": "M33 4AN", "marker-color": "#fc6721", "marker-size": "medium" }, "geometry": { "type": "Point", "coordinates": [ -2.329562, 53.414675 ] } },
{ "type": "Feature", "properties": { "Club": "Trafford Sub-Aqua Club", "Category": "Swimming", "Address": "Bowfell Road, Urmston", "Postcode": "M41 5RR", "marker-color": "#fc6721", "marker-size": "medium" }, "geometry": { "type": "Point", "coordinates": [ -2.371123, 53.450119 ] } },
{ "type": "Feature", "properties": { "Club": "Trafford Sword Club", "Category": "Fencing", "Address": "Flixton Road, Urmston", "Postcode": "M41 6QY", "marker-color": "#fc6721", "marker-size": "medium" }, "geometry": { "type": "Point", "coordinates": [ -2.383556, 53.445609 ] } },
{ "type": "Feature", "properties": { "Club": "Trinity Bowling Club", "Category": "Bowling", "Address": "Temple Road, Sale", "Postcode": "M33 2FQ", "marker-color": "#fc6721", "marker-size": "medium" }, "geometry": { "type": "Point", "coordinates": [ -2.304436, 53.423449 ] } },
{ "type": "Feature", "properties": { "Club": "Unicorn Athletic Junior Football Club", "Category": "Football", "Address": "Sylvan Avenue, Sale", "Postcode": "M33 3UW", "marker-color": "#fc6721", "marker-size": "medium" }, "geometry": { "type": "Point", "coordinates": [ -2.332913, 53.409111 ] } },
{ "type": "Feature", "properties": { "Club": "Urmston and District Ridng Club", "Category": "Riding", "Address": "NA, Urmston", "Postcode": "M41 9EP", "marker-color": "#fc6721", "marker-size": "medium" }, "geometry": { "type": "Point", "coordinates": [ -2.365681, 53.434985 ] } },
{ "type": "Feature", "properties": { "Club": "Urmston Cricket and Tennis Club", "Category": "Cricket, Tennis", "Address": "Moorside Road, Urmston", "Postcode": "M41 5UU", "marker-color": "#fc6721", "marker-size": "medium" }, "geometry": { "type": "Point", "coordinates": [ -2.361136, 53.451293 ] } },
{ "type": "Feature", "properties": { "Club": "Urmston Ladies Hockey Club", "Category": "Hockey", "Address": "Moorside Road, Urmston", "Postcode": "M41 5UU", "marker-color": "#fc6721", "marker-size": "medium" }, "geometry": { "type": "Point", "coordinates": [ -2.361015, 53.451227 ] } },
{ "type": "Feature", "properties": { "Club": "Urmston Meadowside Football Club", "Category": "Football", "Address": "Flixton Road, Urmston", "Postcode": "M41 5DW", "marker-color": "#fc6721", "marker-size": "medium" }, "geometry": { "type": "Point", "coordinates": [ -2.378689, 53.447006 ] } },
{ "type": "Feature", "properties": { "Club": "Urmston Park Mens Bowling Club", "Category": "Bowling", "Address": "Winifred Road, Urmston", "Postcode": "M41 5FT", "marker-color": "#fc6721", "marker-size": "medium" }, "geometry": { "type": "Point", "coordinates": [ -2.355886, 53.451137 ] } },
{ "type": "Feature", "properties": { "Club": "Urmston Town Junior Football Club", "Category": "Football", "Address": "Barton Clough Audley Avenue, Urmston", "Postcode": "M32 9TG", "marker-color": "#fc6721", "marker-size": "medium" }, "geometry": { "type": "Point", "coordinates": [ -2.333502, 53.458888 ] } },
{ "type": "Feature", "properties": { "Club": "Victoria Park Bowling Club", "Category": "Bowling", "Address": "Victoria Road, Stretford", "Postcode": "M32 0AD", "marker-color": "#fc6721", "marker-size": "medium" }, "geometry": { "type": "Point", "coordinates": [ -2.310281, 53.449139 ] } },
{ "type": "Feature", "properties": { "Club": "Walton Park Bowling Club", "Category": "Bowling", "Address": "Walton Road, Sale", "Postcode": "M33 4FG", "marker-color": "#fc6721", "marker-size": "medium" }, "geometry": { "type": "Point", "coordinates": [ -2.331591, 53.413321 ] } },
{ "type": "Feature", "properties": { "Club": "Walton Park Ladies Bowling Club", "Category": "Bowling", "Address": "Walton Road, Sale", "Postcode": "M33 4FG", "marker-color": "#fc6721", "marker-size": "medium" }, "geometry": { "type": "Point", "coordinates": [ -2.330986, 53.413174 ] } },
{ "type": "Feature", "properties": { "Club": "William Wroe Veterans Golf Society", "Category": "Golf", "Address": "Stockport Road, Urmston", "Postcode": "WA15 7LP", "marker-color": "#fc6721", "marker-size": "medium" }, "geometry": { "type": "Point", "coordinates": [ -2.336416, 53.390191 ] } },
{ "type": "Feature", "properties": { "Club": "Winchester Ladies Bowling Club", "Category": "Bowling", "Address": "Crofts Bank Road, Urmston", "Postcode": "M41 0US", "marker-color": "#fc6721", "marker-size": "medium" }, "geometry": { "type": "Point", "coordinates": [ -2.355621, 53.451095 ] } },
{ "type": "Feature", "properties": { "Club": "Woodheys Club", "Category": "Football", "Address": "299 Washway Road, Sale", "Postcode": "M33 4EE", "marker-color": "#fc6721", "marker-size": "medium" }, "geometry": { "type": "Point", "coordinates": [ -2.338089, 53.413401 ] } },
{ "type": "Feature", "properties": { "Club": "Woodsend Football Club", "Category": "Football", "Address": "36 Tanhouse Road, Urmston", "Postcode": "M41 8RA", "marker-color": "#fc6721", "marker-size": "medium" }, "geometry": { "type": "Point", "coordinates": [ -2.398474, 53.452013 ] } }
]
}
